{"timestamp": 29048, "groups": [{"distance": 0, "gap": "+0:00", "athletes": [{"hr": "", "pow": "", "bib": 303, "rank": 1, "IRM": "", "gname": "DAMIEN", "lat": 46.36055918095527, "nationality": "SUI", "spd": "38.72 kmh", "lon": 6.204772287635078, "valid": 1, "fname": "FORTIS", "team": "U17", "cad": ""}, {"hr": "127", "pow": "330", "bib": 302, "rank": 2, "IRM": "", "gname": "GABRIELE", "lat": 46.36054230524852, "nationality": "SUI", "spd": "10.99 kmh", "lon": 6.2048059746374875, "valid": 1, "fname": "CERATO", "team": "U17", "cad": "0"}, {"hr": "", "pow": "", "bib": 301, "rank": 3, "IRM": "", "gname": "SYLVAIN", "lat": 46.36053961568276, "nationality": "SUI", "spd": "34.27 kmh", "lon": 6.204811343503496, "valid": 1, "fname": "BRUNNER", "team": "U17", "cad": ""}, {"hr": "110", "pow": "", "bib": 307, "rank": 4, "IRM": "", "gname": "Z\u00c9ON", "lat": 46.3605205250395, "nationality": "SUI", "spd": "44.89 kmh", "lon": 6.2048494519249715, "valid": 1, "fname": "TAILLEFERT", "team": "U17", "cad": ""}, {"hr": "117", "pow": "330", "bib": 306, "rank": 5, "IRM": "", "gname": "THIBAUD", "lat": 46.3605079737326, "nationality": "SUI", "spd": "81.22 kmh", "lon": 6.204874506633014, "valid": 1, "fname": "ROSSIER", "team": "U17", "cad": "0"}, {"hr": "", "pow": "", "bib": 401, "rank": 6, "IRM": "", "gname": "MARGOT", "lat": 46.36050201449865, "nationality": "SUI", "spd": "38.57 kmh", "lon": 6.20488640235574, "valid": 1, "fname": "VESIN", "team": "W17", "cad": ""}, {"hr": "110", "pow": "342", "bib": 305, "rank": 7, "IRM": "", "gname": "HENRY", "lat": 46.36048761741133, "nationality": "GBR", "spd": "14.50 kmh", "lon": 6.20491514157967, "valid": 1, "fname": "LAWTON", "team": "U17", "cad": "91"}, {"hr": "", "pow": "", "bib": 304, "rank": 8, "IRM": "", "gname": "MAXIME", "lat": 46.3604788333, "nationality": "SUI", "spd": "0.00 kmh", "lon": 6.2048675, "valid": 1, "fname": "JUILLERAT", "team": "U17", "cad": ""}], "no": 1}]}