{"timestamp": 29057, "groups": [{"distance": 0, "gap": "+0:00", "athletes": [{"hr": "145", "pow": "5", "bib": 302, "rank": 1, "IRM": "", "gname": "GABRIELE", "lat": 46.36088277223379, "nationality": "SUI", "spd": "27.42 kmh", "lon": 6.204126015368723, "valid": 1, "fname": "CERATO", "team": "U17", "cad": "109"}, {"hr": "", "pow": "", "bib": 303, "rank": 2, "IRM": "", "gname": "DAMIEN", "lat": 46.36087001580759, "nationality": "SUI", "spd": "26.17 kmh", "lon": 6.204151497408504, "valid": 1, "fname": "FORTIS", "team": "U17", "cad": ""}, {"hr": "117", "pow": "", "bib": 307, "rank": 3, "IRM": "", "gname": "Z\u00c9ON", "lat": 46.360859526019105, "nationality": "SUI", "spd": "26.71 kmh", "lon": 6.204172451647828, "valid": 1, "fname": "TAILLEFERT", "team": "U17", "cad": ""}, {"hr": "117", "pow": "17", "bib": 305, "rank": 4, "IRM": "", "gname": "HENRY", "lat": 46.3608509865933, "nationality": "GBR", "spd": "25.60 kmh", "lon": 6.204189509872806, "valid": 1, "fname": "LAWTON", "team": "U17", "cad": "90"}, {"hr": "", "pow": "", "bib": 301, "rank": 5, "IRM": "", "gname": "SYLVAIN", "lat": 46.36084893080561, "nationality": "SUI", "spd": "23.88 kmh", "lon": 6.204193616482522, "valid": 1, "fname": "BRUNNER", "team": "U17", "cad": ""}, {"hr": "", "pow": "", "bib": 401, "rank": 6, "IRM": "", "gname": "MARGOT", "lat": 46.36082521017837, "nationality": "SUI", "spd": "24.74 kmh", "lon": 6.204241000440793, "valid": 1, "fname": "VESIN", "team": "W17", "cad": ""}, {"hr": "125", "pow": "5", "bib": 306, "rank": 7, "IRM": "", "gname": "THIBAUD", "lat": 46.36082410321576, "nationality": "SUI", "spd": "26.22 kmh", "lon": 6.204243211692179, "valid": 1, "fname": "ROSSIER", "team": "U17", "cad": "112"}, {"hr": "", "pow": "", "bib": 304, "rank": 8, "IRM": "", "gname": "MAXIME", "lat": 46.36082072961545, "nationality": "SUI", "spd": "29.80 kmh", "lon": 6.204249950744022, "valid": 1, "fname": "JUILLERAT", "team": "U17", "cad": ""}], "no": 1}]}