{"timestamp": 29052, "groups": [{"distance": 0, "gap": "+0:00", "athletes": [{"hr": "136", "pow": "157", "bib": 302, "rank": 1, "IRM": "", "gname": "GABRIELE", "lat": 46.360685047627655, "nationality": "SUI", "spd": "23.50 kmh", "lon": 6.204520986985331, "valid": 1, "fname": "CERATO", "team": "U17", "cad": "99"}, {"hr": "", "pow": "", "bib": 303, "rank": 2, "IRM": "", "gname": "DAMIEN", "lat": 46.36068283370245, "nationality": "SUI", "spd": "21.56 kmh", "lon": 6.204525409488103, "valid": 1, "fname": "FORTIS", "team": "U17", "cad": ""}, {"hr": "111", "pow": "", "bib": 307, "rank": 3, "IRM": "", "gname": "Z\u00c9ON", "lat": 46.36067287103901, "nationality": "SUI", "spd": "26.38 kmh", "lon": 6.204545310750577, "valid": 1, "fname": "TAILLEFERT", "team": "U17", "cad": ""}, {"hr": "", "pow": "", "bib": 301, "rank": 4, "IRM": "", "gname": "SYLVAIN", "lat": 46.36066918116366, "nationality": "SUI", "spd": "21.29 kmh", "lon": 6.20455268158853, "valid": 1, "fname": "BRUNNER", "team": "U17", "cad": ""}, {"hr": "", "pow": "", "bib": 401, "rank": 5, "IRM": "", "gname": "MARGOT", "lat": 46.360644877903624, "nationality": "SUI", "spd": "25.25 kmh", "lon": 6.2046012208259675, "valid": 1, "fname": "VESIN", "team": "W17", "cad": ""}, {"hr": "111", "pow": "167", "bib": 305, "rank": 6, "IRM": "", "gname": "HENRY", "lat": 46.36063812762092, "nationality": "GBR", "spd": "23.83 kmh", "lon": 6.2046146956269315, "valid": 1, "fname": "LAWTON", "team": "U17", "cad": "74"}, {"hr": "118", "pow": "157", "bib": 306, "rank": 7, "IRM": "", "gname": "THIBAUD", "lat": 46.36063733657217, "nationality": "SUI", "spd": "23.68 kmh", "lon": 6.204616274705169, "valid": 1, "fname": "ROSSIER", "team": "U17", "cad": "74"}, {"hr": "", "pow": "", "bib": 304, "rank": 8, "IRM": "", "gname": "MAXIME", "lat": 46.36061492352414, "nationality": "SUI", "spd": "20.63 kmh", "lon": 6.204661015255244, "valid": 1, "fname": "JUILLERAT", "team": "U17", "cad": ""}], "no": 1}]}