{"timestamp": 29053, "groups": [{"distance": 0, "gap": "+0:00", "athletes": [{"hr": "138", "pow": "261", "bib": 302, "rank": 1, "IRM": "", "gname": "GABRIELE", "lat": 46.360722789781214, "nationality": "SUI", "spd": "24.29 kmh", "lon": 6.204445593842838, "valid": 1, "fname": "CERATO", "team": "U17", "cad": "103"}, {"hr": "", "pow": "", "bib": 303, "rank": 2, "IRM": "", "gname": "DAMIEN", "lat": 46.360717044118175, "nationality": "SUI", "spd": "22.32 kmh", "lon": 6.204457071290508, "valid": 1, "fname": "FORTIS", "team": "U17", "cad": ""}, {"hr": "115", "pow": "", "bib": 307, "rank": 3, "IRM": "", "gname": "Z\u00c9ON", "lat": 46.3607067651797, "nationality": "SUI", "spd": "24.62 kmh", "lon": 6.2044776043390915, "valid": 1, "fname": "TAILLEFERT", "team": "U17", "cad": ""}, {"hr": "", "pow": "", "bib": 301, "rank": 4, "IRM": "", "gname": "SYLVAIN", "lat": 46.36070650161718, "nationality": "SUI", "spd": "22.15 kmh", "lon": 6.204478130827517, "valid": 1, "fname": "BRUNNER", "team": "U17", "cad": ""}, {"hr": "", "pow": "", "bib": 401, "rank": 5, "IRM": "", "gname": "MARGOT", "lat": 46.36068030350221, "nationality": "SUI", "spd": "24.86 kmh", "lon": 6.204530463776985, "valid": 1, "fname": "VESIN", "team": "W17", "cad": ""}, {"hr": "115", "pow": "271", "bib": 305, "rank": 6, "IRM": "", "gname": "HENRY", "lat": 46.36067909111459, "nationality": "GBR", "spd": "27.67 kmh", "lon": 6.204532885623741, "valid": 1, "fname": "LAWTON", "team": "U17", "cad": "81"}, {"hr": "120", "pow": "261", "bib": 306, "rank": 7, "IRM": "", "gname": "THIBAUD", "lat": 46.36067339816406, "nationality": "SUI", "spd": "25.76 kmh", "lon": 6.204544257773726, "valid": 1, "fname": "ROSSIER", "team": "U17", "cad": "78"}, {"hr": "", "pow": "", "bib": 304, "rank": 8, "IRM": "", "gname": "MAXIME", "lat": 46.36065094261074, "nationality": "SUI", "spd": "23.14 kmh", "lon": 6.204589114559477, "valid": 1, "fname": "JUILLERAT", "team": "U17", "cad": ""}], "no": 1}]}