{"timestamp": 29063, "groups": [{"distance": 0, "gap": "+0:00", "athletes": [{"hr": "149", "pow": "0", "bib": 302, "rank": 1, "IRM": "", "gname": "GABRIELE", "lat": 46.361114166934115, "nationality": "SUI", "spd": "25.52 kmh", "lon": 6.203666482987381, "valid": 1, "fname": "CERATO", "team": "U17", "cad": "83"}, {"hr": "", "pow": "", "bib": 303, "rank": 2, "IRM": "", "gname": "DAMIEN", "lat": 46.36109602431096, "nationality": "SUI", "spd": "29.17 kmh", "lon": 6.203701728812572, "valid": 1, "fname": "FORTIS", "team": "U17", "cad": ""}, {"hr": "121", "pow": "", "bib": 307, "rank": 3, "IRM": "", "gname": "Z\u00c9ON", "lat": 46.36109183755177, "nationality": "SUI", "spd": "26.81 kmh", "lon": 6.203709862464539, "valid": 1, "fname": "TAILLEFERT", "team": "U17", "cad": ""}, {"hr": "121", "pow": "0", "bib": 305, "rank": 4, "IRM": "", "gname": "HENRY", "lat": 46.36108485961979, "nationality": "GBR", "spd": "26.43 kmh", "lon": 6.203723418551151, "valid": 1, "fname": "LAWTON", "team": "U17", "cad": "83"}, {"hr": "", "pow": "", "bib": 304, "rank": 5, "IRM": "", "gname": "MAXIME", "lat": 46.36106950816942, "nationality": "SUI", "spd": "27.18 kmh", "lon": 6.203753241941697, "valid": 1, "fname": "JUILLERAT", "team": "U17", "cad": ""}, {"hr": "", "pow": "", "bib": 301, "rank": 6, "IRM": "", "gname": "SYLVAIN", "lat": 46.36106478851345, "nationality": "SUI", "spd": "23.84 kmh", "lon": 6.203762422462258, "valid": 1, "fname": "BRUNNER", "team": "U17", "cad": ""}, {"hr": "130", "pow": "0", "bib": 306, "rank": 7, "IRM": "", "gname": "THIBAUD", "lat": 46.361035005948146, "nationality": "SUI", "spd": "25.07 kmh", "lon": 6.203821915654309, "valid": 1, "fname": "ROSSIER", "team": "U17", "cad": "83"}, {"hr": "", "pow": "", "bib": 401, "rank": 8, "IRM": "", "gname": "MARGOT", "lat": 46.36102636109733, "nationality": "SUI", "spd": "21.74 kmh", "lon": 6.203839184474657, "valid": 1, "fname": "VESIN", "team": "W17", "cad": ""}], "no": 1}]}