{"timestamp": 29070, "groups": [{"distance": 0, "gap": "+0:00", "athletes": [{"hr": "144", "pow": "0", "bib": 302, "rank": 1, "IRM": "", "gname": "GABRIELE", "lat": 46.361327530623576, "nationality": "SUI", "spd": "18.28 kmh", "lon": 6.203251979569826, "valid": 1, "fname": "CERATO", "team": "U17", "cad": "13"}, {"hr": "", "pow": "", "bib": 303, "rank": 2, "IRM": "", "gname": "DAMIEN", "lat": 46.361315775492, "nationality": "SUI", "spd": "17.86 kmh", "lon": 6.203274816361887, "valid": 1, "fname": "FORTIS", "team": "U17", "cad": ""}, {"hr": "124", "pow": "", "bib": 307, "rank": 3, "IRM": "", "gname": "Z\u00c9ON", "lat": 46.36130283947964, "nationality": "SUI", "spd": "18.16 kmh", "lon": 6.203299947260914, "valid": 1, "fname": "TAILLEFERT", "team": "U17", "cad": ""}, {"hr": "124", "pow": "0", "bib": 305, "rank": 4, "IRM": "", "gname": "HENRY", "lat": 46.36130160492244, "nationality": "GBR", "spd": "19.53 kmh", "lon": 6.203302345645469, "valid": 1, "fname": "LAWTON", "team": "U17", "cad": "63"}, {"hr": "", "pow": "", "bib": 301, "rank": 5, "IRM": "", "gname": "SYLVAIN", "lat": 46.36129484169606, "nationality": "SUI", "spd": "19.76 kmh", "lon": 6.203315484621723, "valid": 1, "fname": "BRUNNER", "team": "U17", "cad": ""}, {"hr": "", "pow": "", "bib": 304, "rank": 6, "IRM": "", "gname": "MAXIME", "lat": 46.36128152994889, "nationality": "SUI", "spd": "17.48 kmh", "lon": 6.203341345463874, "valid": 1, "fname": "JUILLERAT", "team": "U17", "cad": ""}, {"hr": "131", "pow": "0", "bib": 306, "rank": 7, "IRM": "", "gname": "THIBAUD", "lat": 46.361263977766136, "nationality": "SUI", "spd": "19.62 kmh", "lon": 6.203375444235583, "valid": 1, "fname": "ROSSIER", "team": "U17", "cad": "63"}, {"hr": "", "pow": "", "bib": 401, "rank": 8, "IRM": "", "gname": "MARGOT", "lat": 46.361199673439096, "nationality": "SUI", "spd": "16.12 kmh", "lon": 6.203500368787591, "valid": 1, "fname": "VESIN", "team": "W17", "cad": ""}], "no": 1}]}