{"timestamp": 29071, "groups": [{"distance": 0, "gap": "+0:00", "athletes": [{"hr": "143", "pow": "0", "bib": 302, "rank": 1, "IRM": "", "gname": "GABRIELE", "lat": 46.36135324161911, "nationality": "SUI", "spd": "18.19 kmh", "lon": 6.20320203060454, "valid": 1, "fname": "CERATO", "team": "U17", "cad": "68"}, {"hr": "", "pow": "", "bib": 303, "rank": 2, "IRM": "", "gname": "DAMIEN", "lat": 46.36134315045594, "nationality": "SUI", "spd": "18.14 kmh", "lon": 6.203221634791333, "valid": 1, "fname": "FORTIS", "team": "U17", "cad": ""}, {"hr": "124", "pow": "0", "bib": 305, "rank": 3, "IRM": "", "gname": "HENRY", "lat": 46.36132817474037, "nationality": "GBR", "spd": "18.53 kmh", "lon": 6.2032507282387535, "valid": 1, "fname": "LAWTON", "team": "U17", "cad": "0"}, {"hr": "124", "pow": "", "bib": 307, "rank": 4, "IRM": "", "gname": "Z\u00c9ON", "lat": 46.36132608136078, "nationality": "SUI", "spd": "16.75 kmh", "lon": 6.203254795064738, "valid": 1, "fname": "TAILLEFERT", "team": "U17", "cad": ""}, {"hr": "", "pow": "", "bib": 301, "rank": 5, "IRM": "", "gname": "SYLVAIN", "lat": 46.36132302180599, "nationality": "SUI", "spd": "18.65 kmh", "lon": 6.203260738887328, "valid": 1, "fname": "BRUNNER", "team": "U17", "cad": ""}, {"hr": "", "pow": "", "bib": 304, "rank": 6, "IRM": "", "gname": "MAXIME", "lat": 46.361303268890836, "nationality": "SUI", "spd": "15.91 kmh", "lon": 6.203299113040199, "valid": 1, "fname": "JUILLERAT", "team": "U17", "cad": ""}, {"hr": "131", "pow": "0", "bib": 306, "rank": 7, "IRM": "", "gname": "THIBAUD", "lat": 46.361288561557274, "nationality": "SUI", "spd": "18.40 kmh", "lon": 6.203327685099674, "valid": 1, "fname": "ROSSIER", "team": "U17", "cad": "5"}, {"hr": "", "pow": "", "bib": 401, "rank": 8, "IRM": "", "gname": "MARGOT", "lat": 46.361223344731435, "nationality": "SUI", "spd": "15.10 kmh", "lon": 6.2034543823707, "valid": 1, "fname": "VESIN", "team": "W17", "cad": ""}], "no": 1}]}