{"timestamp": 29079, "groups": [{"distance": 0, "gap": "+0:00", "athletes": [{"hr": "136", "pow": "36", "bib": 302, "rank": 1, "IRM": "", "gname": "GABRIELE", "lat": 46.36156339093293, "nationality": "SUI", "spd": "18.19 kmh", "lon": 6.202776370718085, "valid": 1, "fname": "CERATO", "team": "U17", "cad": "75"}, {"hr": "", "pow": "", "bib": 303, "rank": 2, "IRM": "", "gname": "DAMIEN", "lat": 46.361550011314385, "nationality": "SUI", "spd": "17.71 kmh", "lon": 6.202804398712108, "valid": 1, "fname": "FORTIS", "team": "U17", "cad": ""}, {"hr": "125", "pow": "46", "bib": 305, "rank": 3, "IRM": "", "gname": "HENRY", "lat": 46.361538776520185, "nationality": "GBR", "spd": "18.33 kmh", "lon": 6.202827933668921, "valid": 1, "fname": "LAWTON", "team": "U17", "cad": "100"}, {"hr": "", "pow": "", "bib": 301, "rank": 4, "IRM": "", "gname": "SYLVAIN", "lat": 46.36153520181294, "nationality": "SUI", "spd": "18.35 kmh", "lon": 6.202835422064271, "valid": 1, "fname": "BRUNNER", "team": "U17", "cad": ""}, {"hr": "125", "pow": "", "bib": 307, "rank": 5, "IRM": "", "gname": "Z\u00c9ON", "lat": 46.361528256667434, "nationality": "SUI", "spd": "17.83 kmh", "lon": 6.202849970946665, "valid": 1, "fname": "TAILLEFERT", "team": "U17", "cad": ""}, {"hr": "134", "pow": "36", "bib": 306, "rank": 6, "IRM": "", "gname": "THIBAUD", "lat": 46.36150389759092, "nationality": "SUI", "spd": "18.68 kmh", "lon": 6.202900999012119, "valid": 1, "fname": "ROSSIER", "team": "U17", "cad": "75"}, {"hr": "", "pow": "", "bib": 304, "rank": 7, "IRM": "", "gname": "MAXIME", "lat": 46.361482653616434, "nationality": "SUI", "spd": "14.41 kmh", "lon": 6.202945501475911, "valid": 1, "fname": "JUILLERAT", "team": "U17", "cad": ""}, {"hr": "", "pow": "", "bib": 401, "rank": 8, "IRM": "", "gname": "MARGOT", "lat": 46.36135560338071, "nationality": "SUI", "spd": "12.12 kmh", "lon": 6.203197442390611, "valid": 1, "fname": "VESIN", "team": "W17", "cad": ""}], "no": 1}]}