{"timestamp": 29074, "groups": [{"distance": 0, "gap": "+0:00", "athletes": [{"hr": "143", "pow": "15", "bib": 302, "rank": 1, "IRM": "", "gname": "GABRIELE", "lat": 46.36143209225051, "nationality": "SUI", "spd": "17.85 kmh", "lon": 6.203048846825826, "valid": 1, "fname": "CERATO", "team": "U17", "cad": "74"}, {"hr": "", "pow": "", "bib": 303, "rank": 2, "IRM": "", "gname": "DAMIEN", "lat": 46.361423557702935, "nationality": "SUI", "spd": "17.98 kmh", "lon": 6.203065426962529, "valid": 1, "fname": "FORTIS", "team": "U17", "cad": ""}, {"hr": "124", "pow": "25", "bib": 305, "rank": 3, "IRM": "", "gname": "HENRY", "lat": 46.36141309080496, "nationality": "GBR", "spd": "17.20 kmh", "lon": 6.203085761092447, "valid": 1, "fname": "LAWTON", "team": "U17", "cad": "74"}, {"hr": "124", "pow": "", "bib": 307, "rank": 4, "IRM": "", "gname": "Z\u00c9ON", "lat": 46.361404770962984, "nationality": "SUI", "spd": "17.59 kmh", "lon": 6.2031019241187915, "valid": 1, "fname": "TAILLEFERT", "team": "U17", "cad": ""}, {"hr": "", "pow": "", "bib": 301, "rank": 5, "IRM": "", "gname": "SYLVAIN", "lat": 46.36140192611379, "nationality": "SUI", "spd": "17.64 kmh", "lon": 6.203107450831025, "valid": 1, "fname": "BRUNNER", "team": "U17", "cad": ""}, {"hr": "", "pow": "", "bib": 304, "rank": 6, "IRM": "", "gname": "MAXIME", "lat": 46.361372028359064, "nationality": "SUI", "spd": "15.37 kmh", "lon": 6.203165533448278, "valid": 1, "fname": "JUILLERAT", "team": "U17", "cad": ""}, {"hr": "133", "pow": "0", "bib": 306, "rank": 7, "IRM": "", "gname": "THIBAUD", "lat": 46.361369237186274, "nationality": "SUI", "spd": "18.04 kmh", "lon": 6.203170955882922, "valid": 1, "fname": "ROSSIER", "team": "U17", "cad": "0"}, {"hr": "", "pow": "", "bib": 401, "rank": 8, "IRM": "", "gname": "MARGOT", "lat": 46.36128909832127, "nationality": "SUI", "spd": "14.70 kmh", "lon": 6.2033266423237805, "valid": 1, "fname": "VESIN", "team": "W17", "cad": ""}], "no": 1}]}