{"timestamp": 29078, "groups": [{"distance": 0, "gap": "+0:00", "athletes": [{"hr": "137", "pow": "89", "bib": 302, "rank": 1, "IRM": "", "gname": "GABRIELE", "lat": 46.36153520181294, "nationality": "SUI", "spd": "17.28 kmh", "lon": 6.202835422064271, "valid": 1, "fname": "CERATO", "team": "U17", "cad": "71"}, {"hr": "", "pow": "", "bib": 303, "rank": 2, "IRM": "", "gname": "DAMIEN", "lat": 46.361525754372366, "nationality": "SUI", "spd": "17.87 kmh", "lon": 6.202855212823409, "valid": 1, "fname": "FORTIS", "team": "U17", "cad": ""}, {"hr": "125", "pow": "99", "bib": 305, "rank": 3, "IRM": "", "gname": "HENRY", "lat": 46.36151227261932, "nationality": "GBR", "spd": "17.93 kmh", "lon": 6.202883454771585, "valid": 1, "fname": "LAWTON", "team": "U17", "cad": "94"}, {"hr": "", "pow": "", "bib": 301, "rank": 4, "IRM": "", "gname": "SYLVAIN", "lat": 46.36150752336541, "nationality": "SUI", "spd": "18.10 kmh", "lon": 6.202893403639693, "valid": 1, "fname": "BRUNNER", "team": "U17", "cad": ""}, {"hr": "125", "pow": "", "bib": 307, "rank": 5, "IRM": "", "gname": "Z\u00c9ON", "lat": 46.36150011861469, "nationality": "SUI", "spd": "15.95 kmh", "lon": 6.202908915315774, "valid": 1, "fname": "TAILLEFERT", "team": "U17", "cad": ""}, {"hr": "134", "pow": "89", "bib": 306, "rank": 6, "IRM": "", "gname": "THIBAUD", "lat": 46.361474993529484, "nationality": "SUI", "spd": "17.78 kmh", "lon": 6.202961548037375, "valid": 1, "fname": "ROSSIER", "team": "U17", "cad": "67"}, {"hr": "", "pow": "", "bib": 304, "rank": 7, "IRM": "", "gname": "MAXIME", "lat": 46.36146008189355, "nationality": "SUI", "spd": "14.17 kmh", "lon": 6.20299278534369, "valid": 1, "fname": "JUILLERAT", "team": "U17", "cad": ""}, {"hr": "", "pow": "", "bib": 401, "rank": 8, "IRM": "", "gname": "MARGOT", "lat": 46.361336762964356, "nationality": "SUI", "spd": "10.33 kmh", "lon": 6.203234043824462, "valid": 1, "fname": "VESIN", "team": "W17", "cad": ""}], "no": 1}]}