{"timestamp": 29089, "groups": [{"distance": 0, "gap": "+0:00", "athletes": [{"hr": "", "pow": "", "bib": 303, "rank": 1, "IRM": "", "gname": "DAMIEN", "lat": 46.36180209523709, "nationality": "SUI", "spd": "17.15 kmh", "lon": 6.20231719650339, "valid": 1, "fname": "FORTIS", "team": "U17", "cad": ""}, {"hr": "140", "pow": "118", "bib": 302, "rank": 2, "IRM": "", "gname": "GABRIELE", "lat": 46.361799828605086, "nationality": "SUI", "spd": "18.10 kmh", "lon": 6.202321553987775, "valid": 0, "fname": "CERATO", "team": "U17", "cad": "84"}, {"hr": "", "pow": "", "bib": 301, "rank": 3, "IRM": "", "gname": "SYLVAIN", "lat": 46.361795232295684, "nationality": "SUI", "spd": "18.82 kmh", "lon": 6.202330390158097, "valid": 1, "fname": "BRUNNER", "team": "U17", "cad": ""}, {"hr": "127", "pow": "115", "bib": 305, "rank": 4, "IRM": "", "gname": "HENRY", "lat": 46.36179085514407, "nationality": "GBR", "spd": "17.60 kmh", "lon": 6.202338805008736, "valid": 1, "fname": "LAWTON", "team": "U17", "cad": "74"}, {"hr": "127", "pow": "", "bib": 307, "rank": 5, "IRM": "", "gname": "Z\u00c9ON", "lat": 46.36175870199339, "nationality": "SUI", "spd": "16.43 kmh", "lon": 6.202400617800469, "valid": 1, "fname": "TAILLEFERT", "team": "U17", "cad": ""}, {"hr": "142", "pow": "118", "bib": 306, "rank": 6, "IRM": "", "gname": "THIBAUD", "lat": 46.36173746470226, "nationality": "SUI", "spd": "11.22 kmh", "lon": 6.202441445409127, "valid": 1, "fname": "ROSSIER", "team": "U17", "cad": "100"}, {"hr": "", "pow": "", "bib": 304, "rank": 7, "IRM": "", "gname": "MAXIME", "lat": 46.36172979117722, "nationality": "SUI", "spd": "13.07 kmh", "lon": 6.202456197369506, "valid": 1, "fname": "JUILLERAT", "team": "U17", "cad": ""}, {"hr": "", "pow": "", "bib": 401, "rank": 8, "IRM": "", "gname": "MARGOT", "lat": 46.36154398537931, "nationality": "SUI", "spd": "14.24 kmh", "lon": 6.202817022007126, "valid": 1, "fname": "VESIN", "team": "W17", "cad": ""}], "no": 1}]}