{"timestamp": 29087, "groups": [{"distance": 0, "gap": "+0:00", "athletes": [{"hr": "139", "pow": "161", "bib": 302, "rank": 1, "IRM": "", "gname": "GABRIELE", "lat": 46.361761890289, "nationality": "SUI", "spd": "18.47 kmh", "lon": 6.202394488464818, "valid": 1, "fname": "CERATO", "team": "U17", "cad": "69"}, {"hr": "", "pow": "", "bib": 303, "rank": 2, "IRM": "", "gname": "DAMIEN", "lat": 46.36174746190037, "nationality": "SUI", "spd": "16.33 kmh", "lon": 6.202422226305814, "valid": 1, "fname": "FORTIS", "team": "U17", "cad": ""}, {"hr": "127", "pow": "170", "bib": 305, "rank": 3, "IRM": "", "gname": "HENRY", "lat": 46.3617414635815, "nationality": "GBR", "spd": "17.77 kmh", "lon": 6.2024337577678015, "valid": 1, "fname": "LAWTON", "team": "U17", "cad": "91"}, {"hr": "", "pow": "", "bib": 301, "rank": 4, "IRM": "", "gname": "SYLVAIN", "lat": 46.361734546601184, "nationality": "SUI", "spd": "15.90 kmh", "lon": 6.202447055309553, "valid": 1, "fname": "BRUNNER", "team": "U17", "cad": ""}, {"hr": "127", "pow": "", "bib": 307, "rank": 5, "IRM": "", "gname": "Z\u00c9ON", "lat": 46.361707689263554, "nationality": "SUI", "spd": "12.90 kmh", "lon": 6.202498687170883, "valid": 1, "fname": "TAILLEFERT", "team": "U17", "cad": ""}, {"hr": "142", "pow": "161", "bib": 306, "rank": 6, "IRM": "", "gname": "THIBAUD", "lat": 46.361705473668295, "nationality": "SUI", "spd": "13.62 kmh", "lon": 6.202502946539725, "valid": 1, "fname": "ROSSIER", "team": "U17", "cad": "91"}, {"hr": "", "pow": "", "bib": 304, "rank": 7, "IRM": "", "gname": "MAXIME", "lat": 46.36168985642367, "nationality": "SUI", "spd": "14.29 kmh", "lon": 6.20253296989571, "valid": 1, "fname": "JUILLERAT", "team": "U17", "cad": ""}, {"hr": "", "pow": "", "bib": 401, "rank": 8, "IRM": "", "gname": "MARGOT", "lat": 46.36150721696193, "nationality": "SUI", "spd": "13.82 kmh", "lon": 6.202894045502151, "valid": 1, "fname": "VESIN", "team": "W17", "cad": ""}], "no": 1}]}