{"timestamp": 29084, "groups": [{"distance": 0, "gap": "+0:00", "athletes": [{"hr": "136", "pow": "92", "bib": 302, "rank": 1, "IRM": "", "gname": "GABRIELE", "lat": 46.36169423357528, "nationality": "SUI", "spd": "19.01 kmh", "lon": 6.202524555045071, "valid": 1, "fname": "CERATO", "team": "U17", "cad": "71"}, {"hr": "125", "pow": "101", "bib": 305, "rank": 2, "IRM": "", "gname": "HENRY", "lat": 46.36167488764596, "nationality": "GBR", "spd": "19.13 kmh", "lon": 6.202561746607156, "valid": 1, "fname": "LAWTON", "team": "U17", "cad": "71"}, {"hr": "", "pow": "", "bib": 303, "rank": 3, "IRM": "", "gname": "DAMIEN", "lat": 46.3616739149456, "nationality": "SUI", "spd": "19.55 kmh", "lon": 6.202563616573964, "valid": 1, "fname": "FORTIS", "team": "U17", "cad": ""}, {"hr": "", "pow": "", "bib": 301, "rank": 4, "IRM": "", "gname": "SYLVAIN", "lat": 46.36166294504713, "nationality": "SUI", "spd": "16.37 kmh", "lon": 6.202584705644085, "valid": 1, "fname": "BRUNNER", "team": "U17", "cad": ""}, {"hr": "125", "pow": "", "bib": 307, "rank": 5, "IRM": "", "gname": "Z\u00c9ON", "lat": 46.361649597436674, "nationality": "SUI", "spd": "19.20 kmh", "lon": 6.2026103657441825, "valid": 1, "fname": "TAILLEFERT", "team": "U17", "cad": ""}, {"hr": "140", "pow": "92", "bib": 306, "rank": 6, "IRM": "", "gname": "THIBAUD", "lat": 46.36164413950689, "nationality": "SUI", "spd": "17.98 kmh", "lon": 6.20262085833572, "valid": 1, "fname": "ROSSIER", "team": "U17", "cad": "71"}, {"hr": "", "pow": "", "bib": 304, "rank": 7, "IRM": "", "gname": "MAXIME", "lat": 46.361625496083384, "nationality": "SUI", "spd": "17.95 kmh", "lon": 6.202656699366221, "valid": 1, "fname": "JUILLERAT", "team": "U17", "cad": ""}, {"hr": "", "pow": "", "bib": 401, "rank": 8, "IRM": "", "gname": "MARGOT", "lat": 46.36144835619967, "nationality": "SUI", "spd": "11.66 kmh", "lon": 6.203017250716262, "valid": 1, "fname": "VESIN", "team": "W17", "cad": ""}], "no": 1}]}