{"timestamp": 29091, "groups": [{"distance": 0, "gap": "+0:00", "athletes": [{"hr": "145", "pow": "125", "bib": 302, "rank": 1, "IRM": "", "gname": "GABRIELE", "lat": 46.36187061103871, "nationality": "SUI", "spd": "21.85 kmh", "lon": 6.202181422720858, "valid": 1, "fname": "CERATO", "team": "U17", "cad": "91"}, {"hr": "", "pow": "", "bib": 303, "rank": 2, "IRM": "", "gname": "DAMIEN", "lat": 46.361854437113706, "nationality": "SUI", "spd": "17.35 kmh", "lon": 6.2022135985078375, "valid": 1, "fname": "FORTIS", "team": "U17", "cad": ""}, {"hr": "", "pow": "", "bib": 301, "rank": 3, "IRM": "", "gname": "SYLVAIN", "lat": 46.36185290429075, "nationality": "SUI", "spd": "19.68 kmh", "lon": 6.202216647847127, "valid": 1, "fname": "BRUNNER", "team": "U17", "cad": ""}, {"hr": "127", "pow": "136", "bib": 305, "rank": 4, "IRM": "", "gname": "HENRY", "lat": 46.36185052577236, "nationality": "GBR", "spd": "17.60 kmh", "lon": 6.202221379580506, "valid": 1, "fname": "LAWTON", "team": "U17", "cad": "103"}, {"hr": "127", "pow": "", "bib": 307, "rank": 5, "IRM": "", "gname": "Z\u00c9ON", "lat": 46.36180901221741, "nationality": "SUI", "spd": "16.84 kmh", "lon": 6.202303898961639, "valid": 1, "fname": "TAILLEFERT", "team": "U17", "cad": ""}, {"hr": "143", "pow": "125", "bib": 306, "rank": 6, "IRM": "", "gname": "THIBAUD", "lat": 46.36178896378227, "nationality": "SUI", "spd": "15.43 kmh", "lon": 6.2023424410553085, "valid": 1, "fname": "ROSSIER", "team": "U17", "cad": "72"}, {"hr": "", "pow": "", "bib": 304, "rank": 7, "IRM": "", "gname": "MAXIME", "lat": 46.36178080390705, "nationality": "SUI", "spd": "16.52 kmh", "lon": 6.2023581279990925, "valid": 1, "fname": "JUILLERAT", "team": "U17", "cad": ""}, {"hr": "", "pow": "", "bib": 401, "rank": 8, "IRM": "", "gname": "MARGOT", "lat": 46.36158383208476, "nationality": "SUI", "spd": "13.78 kmh", "lon": 6.202736796277862, "valid": 1, "fname": "VESIN", "team": "W17", "cad": ""}], "no": 1}]}