{"timestamp": 29092, "groups": [{"distance": 0, "gap": "+0:00", "athletes": [{"hr": "146", "pow": "72", "bib": 302, "rank": 1, "IRM": "", "gname": "GABRIELE", "lat": 46.3618985718437, "nationality": "SUI", "spd": "22.37 kmh", "lon": 6.202125798566242, "valid": 1, "fname": "CERATO", "team": "U17", "cad": "79"}, {"hr": "", "pow": "", "bib": 303, "rank": 2, "IRM": "", "gname": "DAMIEN", "lat": 46.36188810636282, "nationality": "SUI", "spd": "19.49 kmh", "lon": 6.202146618193112, "valid": 1, "fname": "FORTIS", "team": "U17", "cad": ""}, {"hr": "", "pow": "", "bib": 301, "rank": 3, "IRM": "", "gname": "SYLVAIN", "lat": 46.361882503630625, "nationality": "SUI", "spd": "19.74 kmh", "lon": 6.202157764053961, "valid": 1, "fname": "BRUNNER", "team": "U17", "cad": ""}, {"hr": "127", "pow": "83", "bib": 305, "rank": 4, "IRM": "", "gname": "HENRY", "lat": 46.36188186935906, "nationality": "GBR", "spd": "18.17 kmh", "lon": 6.202159025849529, "valid": 1, "fname": "LAWTON", "team": "U17", "cad": "76"}, {"hr": "127", "pow": "", "bib": 307, "rank": 5, "IRM": "", "gname": "Z\u00c9ON", "lat": 46.361836730365745, "nationality": "SUI", "spd": "17.46 kmh", "lon": 6.202248823634107, "valid": 1, "fname": "TAILLEFERT", "team": "U17", "cad": ""}, {"hr": "144", "pow": "72", "bib": 306, "rank": 6, "IRM": "", "gname": "THIBAUD", "lat": 46.36181923504164, "nationality": "SUI", "spd": "18.20 kmh", "lon": 6.202283628161854, "valid": 1, "fname": "ROSSIER", "team": "U17", "cad": "75"}, {"hr": "", "pow": "", "bib": 304, "rank": 7, "IRM": "", "gname": "MAXIME", "lat": 46.36181659224343, "nationality": "SUI", "spd": "19.31 kmh", "lon": 6.202288885643386, "valid": 1, "fname": "JUILLERAT", "team": "U17", "cad": ""}, {"hr": "", "pow": "", "bib": 401, "rank": 8, "IRM": "", "gname": "MARGOT", "lat": 46.361616633702354, "nationality": "SUI", "spd": "16.40 kmh", "lon": 6.20267373684159, "valid": 1, "fname": "VESIN", "team": "W17", "cad": ""}], "no": 1}]}