{"timestamp": 29095, "groups": [{"distance": 0, "gap": "+0:00", "athletes": [{"hr": "152", "pow": "62", "bib": 302, "rank": 1, "IRM": "", "gname": "GABRIELE", "lat": 46.36199027694137, "nationality": "SUI", "spd": "20.82 kmh", "lon": 6.201943363957057, "valid": 1, "fname": "CERATO", "team": "U17", "cad": "84"}, {"hr": "", "pow": "", "bib": 303, "rank": 2, "IRM": "", "gname": "DAMIEN", "lat": 46.36199017122944, "nationality": "SUI", "spd": "23.17 kmh", "lon": 6.201943574256319, "valid": 1, "fname": "FORTIS", "team": "U17", "cad": ""}, {"hr": "127", "pow": "74", "bib": 305, "rank": 3, "IRM": "", "gname": "HENRY", "lat": 46.36197447300811, "nationality": "GBR", "spd": "20.50 kmh", "lon": 6.201974803696623, "valid": 1, "fname": "LAWTON", "team": "U17", "cad": "107"}, {"hr": "", "pow": "", "bib": 301, "rank": 4, "IRM": "", "gname": "SYLVAIN", "lat": 46.36196966311538, "nationality": "SUI", "spd": "19.79 kmh", "lon": 6.201984372313013, "valid": 1, "fname": "BRUNNER", "team": "U17", "cad": ""}, {"hr": "127", "pow": "", "bib": 307, "rank": 5, "IRM": "", "gname": "Z\u00c9ON", "lat": 46.361951110671995, "nationality": "SUI", "spd": "25.97 kmh", "lon": 6.202021279833372, "valid": 1, "fname": "TAILLEFERT", "team": "U17", "cad": ""}, {"hr": "", "pow": "", "bib": 304, "rank": 6, "IRM": "", "gname": "MAXIME", "lat": 46.361915750032026, "nationality": "SUI", "spd": "22.51 kmh", "lon": 6.20209162493628, "valid": 1, "fname": "JUILLERAT", "team": "U17", "cad": ""}, {"hr": "148", "pow": "62", "bib": 306, "rank": 7, "IRM": "", "gname": "THIBAUD", "lat": 46.36191009444387, "nationality": "SUI", "spd": "20.63 kmh", "lon": 6.20210287594676, "valid": 1, "fname": "ROSSIER", "team": "U17", "cad": "107"}, {"hr": "", "pow": "", "bib": 401, "rank": 8, "IRM": "", "gname": "MARGOT", "lat": 46.36170979678099, "nationality": "SUI", "spd": "24.60 kmh", "lon": 6.202494635576131, "valid": 1, "fname": "VESIN", "team": "W17", "cad": ""}], "no": 1}]}