{"timestamp": 29096, "groups": [{"distance": 0, "gap": "+0:00", "athletes": [{"hr": "", "pow": "", "bib": 303, "rank": 1, "IRM": "", "gname": "DAMIEN", "lat": 46.36202236051156, "nationality": "SUI", "spd": "23.34 kmh", "lon": 6.201879538131251, "valid": 1, "fname": "FORTIS", "team": "U17", "cad": ""}, {"hr": "154", "pow": "21", "bib": 302, "rank": 2, "IRM": "", "gname": "GABRIELE", "lat": 46.362021461960175, "nationality": "SUI", "spd": "21.25 kmh", "lon": 6.201881325674972, "valid": 1, "fname": "CERATO", "team": "U17", "cad": "92"}, {"hr": "127", "pow": "74", "bib": 305, "rank": 3, "IRM": "", "gname": "HENRY", "lat": 46.36200534089113, "nationality": "GBR", "spd": "20.83 kmh", "lon": 6.201913396312321, "valid": 1, "fname": "LAWTON", "team": "U17", "cad": "108"}, {"hr": "", "pow": "", "bib": 301, "rank": 4, "IRM": "", "gname": "SYLVAIN", "lat": 46.36200100670207, "nationality": "SUI", "spd": "19.97 kmh", "lon": 6.201922018582035, "valid": 1, "fname": "BRUNNER", "team": "U17", "cad": ""}, {"hr": "127", "pow": "", "bib": 307, "rank": 5, "IRM": "", "gname": "Z\u00c9ON", "lat": 46.3619869998716, "nationality": "SUI", "spd": "24.42 kmh", "lon": 6.201949883234159, "valid": 1, "fname": "TAILLEFERT", "team": "U17", "cad": ""}, {"hr": "", "pow": "", "bib": 304, "rank": 6, "IRM": "", "gname": "MAXIME", "lat": 46.361947146474684, "nationality": "SUI", "spd": "22.18 kmh", "lon": 6.202029166055671, "valid": 1, "fname": "JUILLERAT", "team": "U17", "cad": ""}, {"hr": "148", "pow": "21", "bib": 306, "rank": 7, "IRM": "", "gname": "THIBAUD", "lat": 46.361942283725995, "nationality": "SUI", "spd": "20.84 kmh", "lon": 6.202038839821691, "valid": 1, "fname": "ROSSIER", "team": "U17", "cad": "108"}, {"hr": "", "pow": "", "bib": 401, "rank": 8, "IRM": "", "gname": "MARGOT", "lat": 46.361744705916024, "nationality": "SUI", "spd": "25.07 kmh", "lon": 6.202427524545106, "valid": 1, "fname": "VESIN", "team": "W17", "cad": ""}], "no": 1}]}