{"timestamp": 29104, "groups": [{"distance": 0, "gap": "+0:00", "athletes": [{"hr": "", "pow": "", "bib": 303, "rank": 1, "IRM": "", "gname": "DAMIEN", "lat": 46.36226401009919, "nationality": "SUI", "spd": "21.50 kmh", "lon": 6.20140151723829, "valid": 1, "fname": "FORTIS", "team": "U17", "cad": ""}, {"hr": "161", "pow": "72", "bib": 302, "rank": 2, "IRM": "", "gname": "GABRIELE", "lat": 46.362263160001945, "nationality": "SUI", "spd": "19.92 kmh", "lon": 6.20140319500815, "valid": 1, "fname": "CERATO", "team": "U17", "cad": "93"}, {"hr": "128", "pow": "82", "bib": 305, "rank": 3, "IRM": "", "gname": "HENRY", "lat": 46.36225030228114, "nationality": "GBR", "spd": "20.13 kmh", "lon": 6.2014285712772725, "valid": 1, "fname": "LAWTON", "team": "U17", "cad": "79"}, {"hr": "", "pow": "", "bib": 301, "rank": 4, "IRM": "", "gname": "SYLVAIN", "lat": 46.36224440473151, "nationality": "SUI", "spd": "19.96 kmh", "lon": 6.201440210805671, "valid": 1, "fname": "BRUNNER", "team": "U17", "cad": ""}, {"hr": "128", "pow": "", "bib": 307, "rank": 5, "IRM": "", "gname": "Z\u00c9ON", "lat": 46.36223027186484, "nationality": "SUI", "spd": "19.80 kmh", "lon": 6.2014681037295825, "valid": 1, "fname": "TAILLEFERT", "team": "U17", "cad": ""}, {"hr": "151", "pow": "72", "bib": 306, "rank": 6, "IRM": "", "gname": "THIBAUD", "lat": 46.3622020061315, "nationality": "SUI", "spd": "21.68 kmh", "lon": 6.201523889577405, "valid": 1, "fname": "ROSSIER", "team": "U17", "cad": "106"}, {"hr": "", "pow": "", "bib": 304, "rank": 7, "IRM": "", "gname": "MAXIME", "lat": 46.362177459573594, "nationality": "SUI", "spd": "17.80 kmh", "lon": 6.201572335182093, "valid": 1, "fname": "JUILLERAT", "team": "U17", "cad": ""}, {"hr": "", "pow": "", "bib": 401, "rank": 8, "IRM": "", "gname": "MARGOT", "lat": 46.36199461113042, "nationality": "SUI", "spd": "25.08 kmh", "lon": 6.201934741687344, "valid": 1, "fname": "VESIN", "team": "W17", "cad": ""}], "no": 1}]}