{"timestamp": 29101, "groups": [{"distance": 0, "gap": "+0:00", "athletes": [{"hr": "161", "pow": "90", "bib": 302, "rank": 1, "IRM": "", "gname": "GABRIELE", "lat": 46.36217331534953, "nationality": "SUI", "spd": "20.12 kmh", "lon": 6.201580514310158, "valid": 1, "fname": "CERATO", "team": "U17", "cad": "83"}, {"hr": "", "pow": "", "bib": 303, "rank": 2, "IRM": "", "gname": "DAMIEN", "lat": 46.36216879920792, "nationality": "SUI", "spd": "20.21 kmh", "lon": 6.201589427462535, "valid": 1, "fname": "FORTIS", "team": "U17", "cad": ""}, {"hr": "127", "pow": "101", "bib": 305, "rank": 3, "IRM": "", "gname": "HENRY", "lat": 46.36215657906005, "nationality": "GBR", "spd": "20.33 kmh", "lon": 6.201613545404263, "valid": 1, "fname": "LAWTON", "team": "U17", "cad": "83"}, {"hr": "", "pow": "", "bib": 301, "rank": 4, "IRM": "", "gname": "SYLVAIN", "lat": 46.362156047749274, "nationality": "SUI", "spd": "20.88 kmh", "lon": 6.201614594010425, "valid": 1, "fname": "BRUNNER", "team": "U17", "cad": ""}, {"hr": "127", "pow": "", "bib": 307, "rank": 5, "IRM": "", "gname": "Z\u00c9ON", "lat": 46.36214260558661, "nationality": "SUI", "spd": "25.91 kmh", "lon": 6.201641123746326, "valid": 1, "fname": "TAILLEFERT", "team": "U17", "cad": ""}, {"hr": "150", "pow": "90", "bib": 306, "rank": 6, "IRM": "", "gname": "THIBAUD", "lat": 46.36210599827407, "nationality": "SUI", "spd": "22.31 kmh", "lon": 6.201713372710893, "valid": 1, "fname": "ROSSIER", "team": "U17", "cad": "83"}, {"hr": "", "pow": "", "bib": 304, "rank": 7, "IRM": "", "gname": "MAXIME", "lat": 46.36209866618534, "nationality": "SUI", "spd": "19.30 kmh", "lon": 6.20172784347593, "valid": 1, "fname": "JUILLERAT", "team": "U17", "cad": ""}, {"hr": "", "pow": "", "bib": 401, "rank": 8, "IRM": "", "gname": "MARGOT", "lat": 46.361884142165515, "nationality": "SUI", "spd": "19.18 kmh", "lon": 6.20215450441541, "valid": 1, "fname": "VESIN", "team": "W17", "cad": ""}], "no": 1}]}