{"timestamp": 29111, "groups": [{"distance": 0, "gap": "+0:00", "athletes": [{"hr": "163", "pow": "137", "bib": 302, "rank": 1, "IRM": "", "gname": "GABRIELE", "lat": 46.3624706899915, "nationality": "SUI", "spd": "19.91 kmh", "lon": 6.200993609441241, "valid": 1, "fname": "CERATO", "team": "U17", "cad": "76"}, {"hr": "", "pow": "", "bib": 303, "rank": 2, "IRM": "", "gname": "DAMIEN", "lat": 46.36246713020929, "nationality": "SUI", "spd": "20.29 kmh", "lon": 6.2010006351025275, "valid": 1, "fname": "FORTIS", "team": "U17", "cad": ""}, {"hr": "130", "pow": "147", "bib": 305, "rank": 3, "IRM": "", "gname": "HENRY", "lat": 46.36246048882458, "nationality": "GBR", "spd": "19.00 kmh", "lon": 6.201013742679553, "valid": 1, "fname": "LAWTON", "team": "U17", "cad": "115"}, {"hr": "", "pow": "", "bib": 301, "rank": 4, "IRM": "", "gname": "SYLVAIN", "lat": 46.36244794989024, "nationality": "SUI", "spd": "20.42 kmh", "lon": 6.201038489784978, "valid": 1, "fname": "BRUNNER", "team": "U17", "cad": ""}, {"hr": "130", "pow": "", "bib": 307, "rank": 5, "IRM": "", "gname": "Z\u00c9ON", "lat": 46.36243657983961, "nationality": "SUI", "spd": "20.76 kmh", "lon": 6.201060929956847, "valid": 1, "fname": "TAILLEFERT", "team": "U17", "cad": ""}, {"hr": "155", "pow": "137", "bib": 306, "rank": 6, "IRM": "", "gname": "THIBAUD", "lat": 46.36242281889048, "nationality": "SUI", "spd": "21.06 kmh", "lon": 6.201088088856444, "valid": 1, "fname": "ROSSIER", "team": "U17", "cad": "76"}, {"hr": "", "pow": "", "bib": 304, "rank": 7, "IRM": "", "gname": "MAXIME", "lat": 46.36240092888646, "nationality": "SUI", "spd": "22.46 kmh", "lon": 6.201131291430323, "valid": 1, "fname": "JUILLERAT", "team": "U17", "cad": ""}, {"hr": "", "pow": "", "bib": 401, "rank": 8, "IRM": "", "gname": "MARGOT", "lat": 46.36222623390293, "nationality": "SUI", "spd": "22.44 kmh", "lon": 6.201476073136415, "valid": 1, "fname": "VESIN", "team": "W17", "cad": ""}], "no": 1}]}