{"timestamp": 29115, "groups": [{"distance": 0, "gap": "+0:00", "athletes": [{"hr": "168", "pow": "133", "bib": 302, "rank": 1, "IRM": "", "gname": "GABRIELE", "lat": 46.36258644377152, "nationality": "SUI", "spd": "19.61 kmh", "lon": 6.200763490231465, "valid": 1, "fname": "CERATO", "team": "U17", "cad": "76"}, {"hr": "", "pow": "", "bib": 303, "rank": 2, "IRM": "", "gname": "DAMIEN", "lat": 46.36258116814104, "nationality": "SUI", "spd": "19.10 kmh", "lon": 6.200774015757627, "valid": 1, "fname": "FORTIS", "team": "U17", "cad": ""}, {"hr": "129", "pow": "143", "bib": 305, "rank": 3, "IRM": "", "gname": "HENRY", "lat": 46.36257557597274, "nationality": "GBR", "spd": "19.90 kmh", "lon": 6.20078517281536, "valid": 1, "fname": "LAWTON", "team": "U17", "cad": "113"}, {"hr": "", "pow": "", "bib": 301, "rank": 4, "IRM": "", "gname": "SYLVAIN", "lat": 46.362554051400416, "nationality": "SUI", "spd": "18.32 kmh", "lon": 6.2008281169621045, "valid": 1, "fname": "BRUNNER", "team": "U17", "cad": ""}, {"hr": "129", "pow": "", "bib": 307, "rank": 5, "IRM": "", "gname": "Z\u00c9ON", "lat": 46.36254281430751, "nationality": "SUI", "spd": "18.73 kmh", "lon": 6.2008505363328315, "valid": 1, "fname": "TAILLEFERT", "team": "U17", "cad": ""}, {"hr": "158", "pow": "92", "bib": 306, "rank": 6, "IRM": "", "gname": "THIBAUD", "lat": 46.362539015853564, "nationality": "SUI", "spd": "19.69 kmh", "lon": 6.200858114711669, "valid": 1, "fname": "ROSSIER", "team": "U17", "cad": "74"}, {"hr": "", "pow": "", "bib": 304, "rank": 7, "IRM": "", "gname": "MAXIME", "lat": 46.36253073311372, "nationality": "SUI", "spd": "21.88 kmh", "lon": 6.200874639787744, "valid": 1, "fname": "JUILLERAT", "team": "U17", "cad": ""}, {"hr": "", "pow": "", "bib": 401, "rank": 8, "IRM": "", "gname": "MARGOT", "lat": 46.36236464036038, "nationality": "SUI", "spd": "23.11 kmh", "lon": 6.201202911231192, "valid": 1, "fname": "VESIN", "team": "W17", "cad": ""}], "no": 1}]}