{"timestamp": 29110, "groups": [{"distance": 0, "gap": "+0:00", "athletes": [{"hr": "163", "pow": "137", "bib": 302, "rank": 1, "IRM": "", "gname": "GABRIELE", "lat": 46.36244157416091, "nationality": "SUI", "spd": "19.80 kmh", "lon": 6.201051073058923, "valid": 1, "fname": "CERATO", "team": "U17", "cad": "90"}, {"hr": "", "pow": "", "bib": 303, "rank": 2, "IRM": "", "gname": "DAMIEN", "lat": 46.36243626105314, "nationality": "SUI", "spd": "20.09 kmh", "lon": 6.201061559120544, "valid": 1, "fname": "FORTIS", "team": "U17", "cad": ""}, {"hr": "130", "pow": "229", "bib": 305, "rank": 3, "IRM": "", "gname": "HENRY", "lat": 46.36243089481429, "nationality": "GBR", "spd": "19.03 kmh", "lon": 6.201072150042781, "valid": 1, "fname": "LAWTON", "team": "U17", "cad": "114"}, {"hr": "", "pow": "", "bib": 301, "rank": 4, "IRM": "", "gname": "SYLVAIN", "lat": 46.3624182496178, "nationality": "SUI", "spd": "19.28 kmh", "lon": 6.2010971068694385, "valid": 1, "fname": "BRUNNER", "team": "U17", "cad": ""}, {"hr": "130", "pow": "", "bib": 307, "rank": 5, "IRM": "", "gname": "Z\u00c9ON", "lat": 46.36240517937268, "nationality": "SUI", "spd": "20.20 kmh", "lon": 6.201122902581026, "valid": 1, "fname": "TAILLEFERT", "team": "U17", "cad": ""}, {"hr": "155", "pow": "219", "bib": 306, "rank": 6, "IRM": "", "gname": "THIBAUD", "lat": 46.36239205599648, "nationality": "SUI", "spd": "21.24 kmh", "lon": 6.201148803153229, "valid": 1, "fname": "ROSSIER", "team": "U17", "cad": "74"}, {"hr": "", "pow": "", "bib": 304, "rank": 7, "IRM": "", "gname": "MAXIME", "lat": 46.362366818734564, "nationality": "SUI", "spd": "21.58 kmh", "lon": 6.201198611945928, "valid": 1, "fname": "JUILLERAT", "team": "U17", "cad": ""}, {"hr": "", "pow": "", "bib": 401, "rank": 8, "IRM": "", "gname": "MARGOT", "lat": 46.36219015790117, "nationality": "SUI", "spd": "21.73 kmh", "lon": 6.201547273494819, "valid": 1, "fname": "VESIN", "team": "W17", "cad": ""}], "no": 1}]}