{"timestamp": 29121, "groups": [{"distance": 0, "gap": "+0:00", "athletes": [{"hr": "169", "pow": "89", "bib": 302, "rank": 1, "IRM": "", "gname": "GABRIELE", "lat": 46.36276363073537, "nationality": "SUI", "spd": "19.53 kmh", "lon": 6.200417725084369, "valid": 1, "fname": "CERATO", "team": "U17", "cad": "82"}, {"hr": "", "pow": "", "bib": 303, "rank": 2, "IRM": "", "gname": "DAMIEN", "lat": 46.362756462529646, "nationality": "SUI", "spd": "19.85 kmh", "lon": 6.200430907991452, "valid": 1, "fname": "FORTIS", "team": "U17", "cad": ""}, {"hr": "129", "pow": "100", "bib": 305, "rank": 3, "IRM": "", "gname": "HENRY", "lat": 46.362750072268724, "nationality": "GBR", "spd": "19.87 kmh", "lon": 6.20044266019544, "valid": 1, "fname": "LAWTON", "team": "U17", "cad": "119"}, {"hr": "129", "pow": "", "bib": 307, "rank": 4, "IRM": "", "gname": "Z\u00c9ON", "lat": 46.36273173499826, "nationality": "SUI", "spd": "22.13 kmh", "lon": 6.200476383911234, "valid": 1, "fname": "TAILLEFERT", "team": "U17", "cad": ""}, {"hr": "", "pow": "", "bib": 301, "rank": 5, "IRM": "", "gname": "SYLVAIN", "lat": 46.362726067114664, "nationality": "SUI", "spd": "20.29 kmh", "lon": 6.200486807605206, "valid": 1, "fname": "BRUNNER", "team": "U17", "cad": ""}, {"hr": "161", "pow": "89", "bib": 306, "rank": 6, "IRM": "", "gname": "THIBAUD", "lat": 46.362713428197, "nationality": "SUI", "spd": "20.22 kmh", "lon": 6.200510140816723, "valid": 1, "fname": "ROSSIER", "team": "U17", "cad": "119"}, {"hr": "", "pow": "", "bib": 304, "rank": 7, "IRM": "", "gname": "MAXIME", "lat": 46.36269923675102, "nationality": "SUI", "spd": "18.89 kmh", "lon": 6.200538454482101, "valid": 1, "fname": "JUILLERAT", "team": "U17", "cad": ""}, {"hr": "", "pow": "", "bib": 401, "rank": 8, "IRM": "", "gname": "MARGOT", "lat": 46.36253632528202, "nationality": "SUI", "spd": "19.42 kmh", "lon": 6.2008634827300115, "valid": 1, "fname": "VESIN", "team": "W17", "cad": ""}], "no": 1}]}