{"timestamp": 29122, "groups": [{"distance": 0, "gap": "+0:00", "athletes": [{"hr": "168", "pow": "57", "bib": 302, "rank": 1, "IRM": "", "gname": "GABRIELE", "lat": 46.362795582039965, "nationality": "SUI", "spd": "19.93 kmh", "lon": 6.200358964064426, "valid": 1, "fname": "CERATO", "team": "U17", "cad": "82"}, {"hr": "", "pow": "", "bib": 303, "rank": 2, "IRM": "", "gname": "DAMIEN", "lat": 46.36278902507659, "nationality": "SUI", "spd": "20.14 kmh", "lon": 6.20037102284765, "valid": 1, "fname": "FORTIS", "team": "U17", "cad": ""}, {"hr": "129", "pow": "68", "bib": 305, "rank": 3, "IRM": "", "gname": "HENRY", "lat": 46.36278207914081, "nationality": "GBR", "spd": "20.13 kmh", "lon": 6.20038379698242, "valid": 1, "fname": "LAWTON", "team": "U17", "cad": "121"}, {"hr": "129", "pow": "", "bib": 307, "rank": 4, "IRM": "", "gname": "Z\u00c9ON", "lat": 46.362765242192474, "nationality": "SUI", "spd": "22.92 kmh", "lon": 6.200414761485103, "valid": 1, "fname": "TAILLEFERT", "team": "U17", "cad": ""}, {"hr": "", "pow": "", "bib": 301, "rank": 5, "IRM": "", "gname": "SYLVAIN", "lat": 46.36276024111871, "nationality": "SUI", "spd": "20.76 kmh", "lon": 6.200423958862137, "valid": 1, "fname": "BRUNNER", "team": "U17", "cad": ""}, {"hr": "161", "pow": "89", "bib": 306, "rank": 6, "IRM": "", "gname": "THIBAUD", "lat": 46.36272906775893, "nationality": "SUI", "spd": "20.22 kmh", "lon": 6.2004812891789856, "valid": 0, "fname": "ROSSIER", "team": "U17", "cad": "119"}, {"hr": "", "pow": "", "bib": 304, "rank": 7, "IRM": "", "gname": "MAXIME", "lat": 46.36272778970674, "nationality": "SUI", "spd": "18.56 kmh", "lon": 6.200483639619783, "valid": 1, "fname": "JUILLERAT", "team": "U17", "cad": ""}, {"hr": "", "pow": "", "bib": 401, "rank": 8, "IRM": "", "gname": "MARGOT", "lat": 46.36256708220768, "nationality": "SUI", "spd": "19.61 kmh", "lon": 6.200802118912482, "valid": 1, "fname": "VESIN", "team": "W17", "cad": ""}], "no": 1}]}