{"timestamp": 29130, "groups": [{"distance": 0, "gap": "+0:00", "athletes": [{"hr": "", "pow": "", "bib": 303, "rank": 1, "IRM": "", "gname": "DAMIEN", "lat": 46.36289207462463, "nationality": "SUI", "spd": "19.76 kmh", "lon": 6.199951807626676, "valid": 1, "fname": "FORTIS", "team": "U17", "cad": ""}, {"hr": "132", "pow": "", "bib": 307, "rank": 2, "IRM": "", "gname": "Z\u00c9ON", "lat": 46.362908165039734, "nationality": "SUI", "spd": "21.11 kmh", "lon": 6.199965088604221, "valid": 1, "fname": "TAILLEFERT", "team": "U17", "cad": ""}, {"hr": "168", "pow": "0", "bib": 302, "rank": 3, "IRM": "", "gname": "GABRIELE", "lat": 46.36291027397763, "nationality": "SUI", "spd": "17.24 kmh", "lon": 6.199966829314869, "valid": 1, "fname": "CERATO", "team": "U17", "cad": "52"}, {"hr": "132", "pow": "0", "bib": 305, "rank": 4, "IRM": "", "gname": "HENRY", "lat": 46.36292074055833, "nationality": "GBR", "spd": "16.93 kmh", "lon": 6.199975468397349, "valid": 1, "fname": "LAWTON", "team": "U17", "cad": "0"}, {"hr": "", "pow": "", "bib": 301, "rank": 5, "IRM": "", "gname": "SYLVAIN", "lat": 46.36293612799413, "nationality": "SUI", "spd": "21.01 kmh", "lon": 6.19998816913801, "valid": 1, "fname": "BRUNNER", "team": "U17", "cad": ""}, {"hr": "160", "pow": "0", "bib": 306, "rank": 6, "IRM": "", "gname": "THIBAUD", "lat": 46.36294846918629, "nationality": "SUI", "spd": "21.65 kmh", "lon": 6.199998355518844, "valid": 1, "fname": "ROSSIER", "team": "U17", "cad": "0"}, {"hr": "", "pow": "", "bib": 304, "rank": 7, "IRM": "", "gname": "MAXIME", "lat": 46.362970373686, "nationality": "SUI", "spd": "18.00 kmh", "lon": 6.20007630876757, "valid": 1, "fname": "JUILLERAT", "team": "U17", "cad": ""}, {"hr": "", "pow": "", "bib": 401, "rank": 8, "IRM": "", "gname": "MARGOT", "lat": 46.36278624670228, "nationality": "SUI", "spd": "17.05 kmh", "lon": 6.200376132501558, "valid": 1, "fname": "VESIN", "team": "W17", "cad": ""}], "no": 1}]}