{"timestamp": 29139, "groups": [{"distance": 0, "gap": "+0:00", "athletes": [{"hr": "", "pow": "", "bib": 303, "rank": 1, "IRM": "", "gname": "DAMIEN", "lat": 46.362474009513214, "nationality": "SUI", "spd": "23.03 kmh", "lon": 6.199629627305744, "valid": 1, "fname": "FORTIS", "team": "U17", "cad": ""}, {"hr": "161", "pow": "0", "bib": 302, "rank": 2, "IRM": "", "gname": "GABRIELE", "lat": 46.36248530452196, "nationality": "SUI", "spd": "24.17 kmh", "lon": 6.1996379653664455, "valid": 1, "fname": "CERATO", "team": "U17", "cad": "90"}, {"hr": "132", "pow": "", "bib": 307, "rank": 3, "IRM": "", "gname": "Z\u00c9ON", "lat": 46.362492594208454, "nationality": "SUI", "spd": "23.20 kmh", "lon": 6.199643346668032, "valid": 1, "fname": "TAILLEFERT", "team": "U17", "cad": ""}, {"hr": "132", "pow": "4", "bib": 305, "rank": 4, "IRM": "", "gname": "HENRY", "lat": 46.36251173964881, "nationality": "GBR", "spd": "24.17 kmh", "lon": 6.199657479976596, "valid": 1, "fname": "LAWTON", "team": "U17", "cad": "110"}, {"hr": "154", "pow": "0", "bib": 306, "rank": 5, "IRM": "", "gname": "THIBAUD", "lat": 46.36252183306088, "nationality": "SUI", "spd": "24.77 kmh", "lon": 6.199664931009563, "valid": 1, "fname": "ROSSIER", "team": "U17", "cad": "97"}, {"hr": "", "pow": "", "bib": 304, "rank": 6, "IRM": "", "gname": "MAXIME", "lat": 46.362538254882104, "nationality": "SUI", "spd": "24.42 kmh", "lon": 6.1996770537219295, "valid": 1, "fname": "JUILLERAT", "team": "U17", "cad": ""}, {"hr": "", "pow": "", "bib": 301, "rank": 7, "IRM": "", "gname": "SYLVAIN", "lat": 46.36254506392993, "nationality": "SUI", "spd": "23.30 kmh", "lon": 6.199682080212423, "valid": 1, "fname": "BRUNNER", "team": "U17", "cad": ""}, {"hr": "", "pow": "", "bib": 401, "rank": 8, "IRM": "", "gname": "MARGOT", "lat": 46.36263710623523, "nationality": "SUI", "spd": "5.87 kmh", "lon": 6.199750026536858, "valid": 1, "fname": "VESIN", "team": "W17", "cad": ""}], "no": 1}]}