{"timestamp": 29142, "groups": [{"distance": 0, "gap": "+0:00", "athletes": [{"hr": "", "pow": "", "bib": 303, "rank": 1, "IRM": "", "gname": "DAMIEN", "lat": 46.36232733461242, "nationality": "SUI", "spd": "21.97 kmh", "lon": 6.1995213507869975, "valid": 1, "fname": "FORTIS", "team": "U17", "cad": ""}, {"hr": "158", "pow": "0", "bib": 302, "rank": 2, "IRM": "", "gname": "GABRIELE", "lat": 46.36234263494342, "nationality": "SUI", "spd": "22.93 kmh", "lon": 6.199532645606812, "valid": 1, "fname": "CERATO", "team": "U17", "cad": "83"}, {"hr": "133", "pow": "", "bib": 307, "rank": 3, "IRM": "", "gname": "Z\u00c9ON", "lat": 46.36234415696587, "nationality": "SUI", "spd": "22.24 kmh", "lon": 6.199533769175275, "valid": 1, "fname": "TAILLEFERT", "team": "U17", "cad": ""}, {"hr": "133", "pow": "0", "bib": 305, "rank": 4, "IRM": "", "gname": "HENRY", "lat": 46.36236097931932, "nationality": "GBR", "spd": "22.27 kmh", "lon": 6.199546187563554, "valid": 1, "fname": "LAWTON", "team": "U17", "cad": "75"}, {"hr": "153", "pow": "0", "bib": 306, "rank": 5, "IRM": "", "gname": "THIBAUD", "lat": 46.36237203400873, "nationality": "SUI", "spd": "22.44 kmh", "lon": 6.199554348218707, "valid": 1, "fname": "ROSSIER", "team": "U17", "cad": "83"}, {"hr": "", "pow": "", "bib": 304, "rank": 6, "IRM": "", "gname": "MAXIME", "lat": 46.36238180699502, "nationality": "SUI", "spd": "23.44 kmh", "lon": 6.1995615627109455, "valid": 1, "fname": "JUILLERAT", "team": "U17", "cad": ""}, {"hr": "", "pow": "", "bib": 301, "rank": 7, "IRM": "", "gname": "SYLVAIN", "lat": 46.362410925687776, "nationality": "SUI", "spd": "24.05 kmh", "lon": 6.1995830583497025, "valid": 0, "fname": "BRUNNER", "team": "U17", "cad": ""}, {"hr": "", "pow": "", "bib": 401, "rank": 8, "IRM": "", "gname": "MARGOT", "lat": 46.36247016440385, "nationality": "SUI", "spd": "25.01 kmh", "lon": 6.199626788816995, "valid": 1, "fname": "VESIN", "team": "W17", "cad": ""}], "no": 1}]}