{"timestamp": 29146, "groups": [{"distance": 0, "gap": "+0:00", "athletes": [{"hr": "", "pow": "", "bib": 303, "rank": 1, "IRM": "", "gname": "DAMIEN", "lat": 46.36215204851124, "nationality": "SUI", "spd": "19.43 kmh", "lon": 6.199391715713156, "valid": 1, "fname": "FORTIS", "team": "U17", "cad": ""}, {"hr": "153", "pow": "0", "bib": 302, "rank": 2, "IRM": "", "gname": "GABRIELE", "lat": 46.36215741201647, "nationality": "SUI", "spd": "20.54 kmh", "lon": 6.199395687969268, "valid": 1, "fname": "CERATO", "team": "U17", "cad": "80"}, {"hr": "133", "pow": "", "bib": 307, "rank": 3, "IRM": "", "gname": "Z\u00c9ON", "lat": 46.3621584526966, "nationality": "SUI", "spd": "20.76 kmh", "lon": 6.199396458705529, "valid": 1, "fname": "TAILLEFERT", "team": "U17", "cad": ""}, {"hr": "133", "pow": "0", "bib": 305, "rank": 4, "IRM": "", "gname": "HENRY", "lat": 46.362170460544135, "nationality": "GBR", "spd": "21.77 kmh", "lon": 6.199405351816227, "valid": 1, "fname": "LAWTON", "team": "U17", "cad": "68"}, {"hr": "150", "pow": "0", "bib": 306, "rank": 5, "IRM": "", "gname": "THIBAUD", "lat": 46.36218551037971, "nationality": "SUI", "spd": "20.64 kmh", "lon": 6.199416497848302, "valid": 1, "fname": "ROSSIER", "team": "U17", "cad": "80"}, {"hr": "", "pow": "", "bib": 304, "rank": 6, "IRM": "", "gname": "MAXIME", "lat": 46.362192955245185, "nationality": "SUI", "spd": "21.02 kmh", "lon": 6.199422011576935, "valid": 1, "fname": "JUILLERAT", "team": "U17", "cad": ""}, {"hr": "", "pow": "", "bib": 301, "rank": 7, "IRM": "", "gname": "SYLVAIN", "lat": 46.362197117965664, "nationality": "SUI", "spd": "21.10 kmh", "lon": 6.1994250945219775, "valid": 1, "fname": "BRUNNER", "team": "U17", "cad": ""}, {"hr": "", "pow": "", "bib": 401, "rank": 8, "IRM": "", "gname": "MARGOT", "lat": 46.362271340207364, "nationality": "SUI", "spd": "22.02 kmh", "lon": 6.199480015294587, "valid": 1, "fname": "VESIN", "team": "W17", "cad": ""}], "no": 1}]}