{"timestamp": 29148, "groups": [{"distance": 0, "gap": "+0:00", "athletes": [{"hr": "", "pow": "", "bib": 303, "rank": 1, "IRM": "", "gname": "DAMIEN", "lat": 46.362063430596415, "nationality": "SUI", "spd": "19.81 kmh", "lon": 6.199326084556202, "valid": 1, "fname": "FORTIS", "team": "U17", "cad": ""}, {"hr": "151", "pow": "0", "bib": 302, "rank": 2, "IRM": "", "gname": "GABRIELE", "lat": 46.362066312479826, "nationality": "SUI", "spd": "20.44 kmh", "lon": 6.19932821890277, "valid": 1, "fname": "CERATO", "team": "U17", "cad": "78"}, {"hr": "134", "pow": "", "bib": 307, "rank": 3, "IRM": "", "gname": "Z\u00c9ON", "lat": 46.36206919436324, "nationality": "SUI", "spd": "20.20 kmh", "lon": 6.199330353249337, "valid": 1, "fname": "TAILLEFERT", "team": "U17", "cad": ""}, {"hr": "134", "pow": "0", "bib": 305, "rank": 4, "IRM": "", "gname": "HENRY", "lat": 46.36208160247236, "nationality": "GBR", "spd": "20.67 kmh", "lon": 6.199339542797059, "valid": 1, "fname": "LAWTON", "team": "U17", "cad": "78"}, {"hr": "150", "pow": "0", "bib": 306, "rank": 5, "IRM": "", "gname": "THIBAUD", "lat": 46.36209441084306, "nationality": "SUI", "spd": "20.29 kmh", "lon": 6.199349028781804, "valid": 1, "fname": "ROSSIER", "team": "U17", "cad": "78"}, {"hr": "", "pow": "", "bib": 301, "rank": 6, "IRM": "", "gname": "SYLVAIN", "lat": 46.36210537801048, "nationality": "SUI", "spd": "20.80 kmh", "lon": 6.199357151156241, "valid": 1, "fname": "BRUNNER", "team": "U17", "cad": ""}, {"hr": "", "pow": "", "bib": 304, "rank": 7, "IRM": "", "gname": "MAXIME", "lat": 46.36210561816743, "nationality": "SUI", "spd": "19.81 kmh", "lon": 6.199357329018456, "valid": 1, "fname": "JUILLERAT", "team": "U17", "cad": ""}, {"hr": "", "pow": "", "bib": 401, "rank": 8, "IRM": "", "gname": "MARGOT", "lat": 46.36218286865326, "nationality": "SUI", "spd": "20.36 kmh", "lon": 6.199414541363948, "valid": 1, "fname": "VESIN", "team": "W17", "cad": ""}], "no": 1}]}