{"timestamp": 29156, "groups": [{"distance": 0, "gap": "+0:00", "athletes": [{"hr": "", "pow": "", "bib": 303, "rank": 1, "IRM": "", "gname": "DAMIEN", "lat": 46.36172336835416, "nationality": "SUI", "spd": "19.12 kmh", "lon": 6.199074231661224, "valid": 1, "fname": "FORTIS", "team": "U17", "cad": ""}, {"hr": "138", "pow": "0", "bib": 302, "rank": 2, "IRM": "", "gname": "GABRIELE", "lat": 46.36172977253952, "nationality": "SUI", "spd": "19.02 kmh", "lon": 6.199078974653596, "valid": 1, "fname": "CERATO", "team": "U17", "cad": "78"}, {"hr": "135", "pow": "", "bib": 307, "rank": 3, "IRM": "", "gname": "Z\u00c9ON", "lat": 46.36173369510305, "nationality": "SUI", "spd": "18.90 kmh", "lon": 6.199081879736425, "valid": 1, "fname": "TAILLEFERT", "team": "U17", "cad": ""}, {"hr": "135", "pow": "0", "bib": 305, "rank": 4, "IRM": "", "gname": "HENRY", "lat": 46.361746743630704, "nationality": "GBR", "spd": "18.47 kmh", "lon": 6.199091543583384, "valid": 1, "fname": "LAWTON", "team": "U17", "cad": "77"}, {"hr": "146", "pow": "0", "bib": 306, "rank": 5, "IRM": "", "gname": "THIBAUD", "lat": 46.36175490896703, "nationality": "SUI", "spd": "19.07 kmh", "lon": 6.199097590898658, "valid": 1, "fname": "ROSSIER", "team": "U17", "cad": "77"}, {"hr": "", "pow": "", "bib": 301, "rank": 6, "IRM": "", "gname": "SYLVAIN", "lat": 46.36176627639603, "nationality": "SUI", "spd": "18.78 kmh", "lon": 6.199106009710119, "valid": 1, "fname": "BRUNNER", "team": "U17", "cad": ""}, {"hr": "", "pow": "", "bib": 304, "rank": 7, "IRM": "", "gname": "MAXIME", "lat": 46.361779404976005, "nationality": "SUI", "spd": "18.17 kmh", "lon": 6.199115732844483, "valid": 1, "fname": "JUILLERAT", "team": "U17", "cad": ""}, {"hr": "", "pow": "", "bib": 401, "rank": 8, "IRM": "", "gname": "MARGOT", "lat": 46.361843126620265, "nationality": "SUI", "spd": "18.58 kmh", "lon": 6.199162925618589, "valid": 1, "fname": "VESIN", "team": "W17", "cad": ""}], "no": 1}]}