{"timestamp": 29155, "groups": [{"distance": 0, "gap": "+0:00", "athletes": [{"hr": "", "pow": "", "bib": 303, "rank": 1, "IRM": "", "gname": "DAMIEN", "lat": 46.36176715697152, "nationality": "SUI", "spd": "18.64 kmh", "lon": 6.1991066618715704, "valid": 1, "fname": "FORTIS", "team": "U17", "cad": ""}, {"hr": "140", "pow": "0", "bib": 302, "rank": 2, "IRM": "", "gname": "GABRIELE", "lat": 46.3617742015754, "nationality": "SUI", "spd": "18.60 kmh", "lon": 6.199111879163181, "valid": 1, "fname": "CERATO", "team": "U17", "cad": "79"}, {"hr": "135", "pow": "", "bib": 307, "rank": 3, "IRM": "", "gname": "Z\u00c9ON", "lat": 46.361777003406495, "nationality": "SUI", "spd": "18.59 kmh", "lon": 6.1991139542223435, "valid": 1, "fname": "TAILLEFERT", "team": "U17", "cad": ""}, {"hr": "135", "pow": "0", "bib": 305, "rank": 4, "IRM": "", "gname": "HENRY", "lat": 46.361791332771226, "nationality": "GBR", "spd": "18.33 kmh", "lon": 6.199124566667777, "valid": 1, "fname": "LAWTON", "team": "U17", "cad": "67"}, {"hr": "147", "pow": "0", "bib": 306, "rank": 5, "IRM": "", "gname": "THIBAUD", "lat": 46.36179837737511, "nationality": "SUI", "spd": "18.60 kmh", "lon": 6.199129783959386, "valid": 1, "fname": "ROSSIER", "team": "U17", "cad": "71"}, {"hr": "", "pow": "", "bib": 301, "rank": 6, "IRM": "", "gname": "SYLVAIN", "lat": 46.36180950464716, "nationality": "SUI", "spd": "18.13 kmh", "lon": 6.199138024908634, "valid": 1, "fname": "BRUNNER", "team": "U17", "cad": ""}, {"hr": "", "pow": "", "bib": 304, "rank": 7, "IRM": "", "gname": "MAXIME", "lat": 46.361822152913234, "nationality": "SUI", "spd": "17.51 kmh", "lon": 6.19914739231857, "valid": 1, "fname": "JUILLERAT", "team": "U17", "cad": ""}, {"hr": "", "pow": "", "bib": 401, "rank": 8, "IRM": "", "gname": "MARGOT", "lat": 46.36188595460982, "nationality": "SUI", "spd": "18.26 kmh", "lon": 6.19919464438008, "valid": 1, "fname": "VESIN", "team": "W17", "cad": ""}], "no": 1}]}