{"timestamp": 29154, "groups": [{"distance": 0, "gap": "+0:00", "athletes": [{"hr": "", "pow": "", "bib": 303, "rank": 1, "IRM": "", "gname": "DAMIEN", "lat": 46.3618101450657, "nationality": "SUI", "spd": "18.48 kmh", "lon": 6.199138499207871, "valid": 1, "fname": "FORTIS", "team": "U17", "cad": ""}, {"hr": "141", "pow": "0", "bib": 302, "rank": 2, "IRM": "", "gname": "GABRIELE", "lat": 46.36181758993117, "nationality": "SUI", "spd": "18.52 kmh", "lon": 6.199144012936504, "valid": 1, "fname": "CERATO", "team": "U17", "cad": "77"}, {"hr": "135", "pow": "", "bib": 307, "rank": 3, "IRM": "", "gname": "Z\u00c9ON", "lat": 46.361818950820556, "nationality": "SUI", "spd": "18.54 kmh", "lon": 6.199145020822383, "valid": 1, "fname": "TAILLEFERT", "team": "U17", "cad": ""}, {"hr": "135", "pow": "0", "bib": 305, "rank": 4, "IRM": "", "gname": "HENRY", "lat": 46.361831839243585, "nationality": "GBR", "spd": "18.63 kmh", "lon": 6.199154566094532, "valid": 1, "fname": "LAWTON", "team": "U17", "cad": "73"}, {"hr": "148", "pow": "0", "bib": 306, "rank": 5, "IRM": "", "gname": "THIBAUD", "lat": 46.36184120536466, "nationality": "SUI", "spd": "18.36 kmh", "lon": 6.1991615027208775, "valid": 1, "fname": "ROSSIER", "team": "U17", "cad": "73"}, {"hr": "", "pow": "", "bib": 301, "rank": 6, "IRM": "", "gname": "SYLVAIN", "lat": 46.36185097174732, "nationality": "SUI", "spd": "18.36 kmh", "lon": 6.199168735784245, "valid": 1, "fname": "BRUNNER", "team": "U17", "cad": ""}, {"hr": "", "pow": "", "bib": 304, "rank": 7, "IRM": "", "gname": "MAXIME", "lat": 46.361861618705476, "nationality": "SUI", "spd": "17.45 kmh", "lon": 6.199176621009064, "valid": 1, "fname": "JUILLERAT", "team": "U17", "cad": ""}, {"hr": "", "pow": "", "bib": 401, "rank": 8, "IRM": "", "gname": "MARGOT", "lat": 46.36192790202388, "nationality": "SUI", "spd": "18.20 kmh", "lon": 6.199225710980119, "valid": 1, "fname": "VESIN", "team": "W17", "cad": ""}], "no": 1}]}