{"timestamp": 29161, "groups": [{"distance": 0, "gap": "+0:00", "athletes": [{"hr": "", "pow": "", "bib": 303, "rank": 1, "IRM": "", "gname": "DAMIEN", "lat": 46.361487967887406, "nationality": "SUI", "spd": "21.54 kmh", "lon": 6.198902353850107, "valid": 1, "fname": "FORTIS", "team": "U17", "cad": ""}, {"hr": "133", "pow": "0", "bib": 302, "rank": 2, "IRM": "", "gname": "GABRIELE", "lat": 46.361497686946464, "nationality": "SUI", "spd": "20.83 kmh", "lon": 6.198909434601717, "valid": 1, "fname": "CERATO", "team": "U17", "cad": "90"}, {"hr": "135", "pow": "", "bib": 307, "rank": 3, "IRM": "", "gname": "Z\u00c9ON", "lat": 46.36150491599866, "nationality": "SUI", "spd": "20.66 kmh", "lon": 6.198914701276469, "valid": 1, "fname": "TAILLEFERT", "team": "U17", "cad": ""}, {"hr": "135", "pow": "0", "bib": 305, "rank": 4, "IRM": "", "gname": "HENRY", "lat": 46.36151246634206, "nationality": "GBR", "spd": "20.67 kmh", "lon": 6.198920202025654, "valid": 1, "fname": "LAWTON", "team": "U17", "cad": "72"}, {"hr": "138", "pow": "0", "bib": 306, "rank": 5, "IRM": "", "gname": "THIBAUD", "lat": 46.361524193471176, "nationality": "SUI", "spd": "21.13 kmh", "lon": 6.1989287457424735, "valid": 1, "fname": "ROSSIER", "team": "U17", "cad": "72"}, {"hr": "", "pow": "", "bib": 301, "rank": 6, "IRM": "", "gname": "SYLVAIN", "lat": 46.36154154319644, "nationality": "SUI", "spd": "20.71 kmh", "lon": 6.198941385761878, "valid": 1, "fname": "BRUNNER", "team": "U17", "cad": ""}, {"hr": "", "pow": "", "bib": 304, "rank": 7, "IRM": "", "gname": "MAXIME", "lat": 46.361553109679946, "nationality": "SUI", "spd": "20.26 kmh", "lon": 6.198949812441481, "valid": 1, "fname": "JUILLERAT", "team": "U17", "cad": ""}, {"hr": "", "pow": "", "bib": 401, "rank": 8, "IRM": "", "gname": "MARGOT", "lat": 46.36160925531865, "nationality": "SUI", "spd": "21.79 kmh", "lon": 6.198990716948719, "valid": 1, "fname": "VESIN", "team": "W17", "cad": ""}], "no": 1}]}