{"timestamp": 29178, "groups": [{"distance": 0, "gap": "+0:00", "athletes": [{"hr": "", "pow": "", "bib": 303, "rank": 1, "IRM": "", "gname": "DAMIEN", "lat": 46.36060744463053, "nationality": "SUI", "spd": "24.14 kmh", "lon": 6.198253781922193, "valid": 1, "fname": "FORTIS", "team": "U17", "cad": ""}, {"hr": "136", "pow": "0", "bib": 302, "rank": 2, "IRM": "", "gname": "GABRIELE", "lat": 46.360612025232726, "nationality": "SUI", "spd": "23.22 kmh", "lon": 6.198257111122756, "valid": 1, "fname": "CERATO", "team": "U17", "cad": "56"}, {"hr": "140", "pow": "", "bib": 307, "rank": 3, "IRM": "", "gname": "Z\u00c9ON", "lat": 46.360634293651, "nationality": "SUI", "spd": "23.77 kmh", "lon": 6.1982735532092645, "valid": 1, "fname": "TAILLEFERT", "team": "U17", "cad": ""}, {"hr": "140", "pow": "0", "bib": 305, "rank": 4, "IRM": "", "gname": "HENRY", "lat": 46.36064429941641, "nationality": "GBR", "spd": "26.23 kmh", "lon": 6.198280966176328, "valid": 1, "fname": "LAWTON", "team": "U17", "cad": "54"}, {"hr": "143", "pow": "0", "bib": 306, "rank": 5, "IRM": "", "gname": "THIBAUD", "lat": 46.3606546253663, "nationality": "SUI", "spd": "23.70 kmh", "lon": 6.198288616358337, "valid": 1, "fname": "ROSSIER", "team": "U17", "cad": "0"}, {"hr": "", "pow": "", "bib": 301, "rank": 6, "IRM": "", "gname": "SYLVAIN", "lat": 46.36068200114044, "nationality": "SUI", "spd": "24.13 kmh", "lon": 6.19830889823622, "valid": 1, "fname": "BRUNNER", "team": "U17", "cad": ""}, {"hr": "", "pow": "", "bib": 304, "rank": 7, "IRM": "", "gname": "MAXIME", "lat": 46.36070209271737, "nationality": "SUI", "spd": "24.84 kmh", "lon": 6.198323783474082, "valid": 1, "fname": "JUILLERAT", "team": "U17", "cad": ""}, {"hr": "", "pow": "", "bib": 401, "rank": 8, "IRM": "", "gname": "MARGOT", "lat": 46.360730589137226, "nationality": "SUI", "spd": "24.10 kmh", "lon": 6.1983448956042775, "valid": 1, "fname": "VESIN", "team": "W17", "cad": ""}], "no": 1}]}