{"timestamp": 29182, "groups": [{"distance": 0, "gap": "+0:00", "athletes": [{"hr": "", "pow": "", "bib": 303, "rank": 1, "IRM": "", "gname": "DAMIEN", "lat": 46.360433221024294, "nationality": "SUI", "spd": "18.38 kmh", "lon": 6.198127155486727, "valid": 1, "fname": "FORTIS", "team": "U17", "cad": ""}, {"hr": "130", "pow": "0", "bib": 302, "rank": 2, "IRM": "", "gname": "GABRIELE", "lat": 46.36044125716849, "nationality": "SUI", "spd": "18.63 kmh", "lon": 6.19813299618947, "valid": 1, "fname": "CERATO", "team": "U17", "cad": "42"}, {"hr": "139", "pow": "", "bib": 307, "rank": 3, "IRM": "", "gname": "Z\u00c9ON", "lat": 46.36045901704717, "nationality": "SUI", "spd": "18.48 kmh", "lon": 6.198145904142532, "valid": 1, "fname": "TAILLEFERT", "team": "U17", "cad": ""}, {"hr": "139", "pow": "0", "bib": 305, "rank": 4, "IRM": "", "gname": "HENRY", "lat": 46.36046006174592, "nationality": "GBR", "spd": "22.77 kmh", "lon": 6.198146663433889, "valid": 1, "fname": "LAWTON", "team": "U17", "cad": "0"}, {"hr": "141", "pow": "0", "bib": 306, "rank": 5, "IRM": "", "gname": "THIBAUD", "lat": 46.36048224150391, "nationality": "SUI", "spd": "18.46 kmh", "lon": 6.1981627837734585, "valid": 1, "fname": "ROSSIER", "team": "U17", "cad": "0"}, {"hr": "", "pow": "", "bib": 301, "rank": 6, "IRM": "", "gname": "SYLVAIN", "lat": 46.360498313792306, "nationality": "SUI", "spd": "20.03 kmh", "lon": 6.198174465178944, "valid": 1, "fname": "BRUNNER", "team": "U17", "cad": ""}, {"hr": "", "pow": "", "bib": 304, "rank": 7, "IRM": "", "gname": "MAXIME", "lat": 46.36051068945437, "nationality": "SUI", "spd": "20.87 kmh", "lon": 6.198183459861169, "valid": 1, "fname": "JUILLERAT", "team": "U17", "cad": ""}, {"hr": "", "pow": "", "bib": 401, "rank": 8, "IRM": "", "gname": "MARGOT", "lat": 46.36055127198258, "nationality": "SUI", "spd": "23.38 kmh", "lon": 6.19821295541002, "valid": 1, "fname": "VESIN", "team": "W17", "cad": ""}], "no": 1}]}