{"timestamp": 29187, "groups": [{"distance": 0, "gap": "+0:00", "athletes": [{"hr": "", "pow": "", "bib": 303, "rank": 1, "IRM": "", "gname": "DAMIEN", "lat": 46.36042031969119, "nationality": "SUI", "spd": "20.16 kmh", "lon": 6.197852721235255, "valid": 1, "fname": "FORTIS", "team": "U17", "cad": ""}, {"hr": "129", "pow": "77", "bib": 302, "rank": 2, "IRM": "", "gname": "GABRIELE", "lat": 46.36041941834894, "nationality": "SUI", "spd": "15.20 kmh", "lon": 6.197856326604231, "valid": 0, "fname": "CERATO", "team": "U17", "cad": "83"}, {"hr": "138", "pow": "", "bib": 307, "rank": 3, "IRM": "", "gname": "Z\u00c9ON", "lat": 46.36041662266029, "nationality": "SUI", "spd": "24.49 kmh", "lon": 6.197867509358853, "valid": 1, "fname": "TAILLEFERT", "team": "U17", "cad": ""}, {"hr": "139", "pow": "86", "bib": 305, "rank": 4, "IRM": "", "gname": "HENRY", "lat": 46.360398794382675, "nationality": "GBR", "spd": "14.63 kmh", "lon": 6.197928307925402, "valid": 0, "fname": "LAWTON", "team": "U17", "cad": "0"}, {"hr": "", "pow": "", "bib": 301, "rank": 5, "IRM": "", "gname": "SYLVAIN", "lat": 46.360398553352134, "nationality": "SUI", "spd": "21.70 kmh", "lon": 6.197929124751123, "valid": 1, "fname": "BRUNNER", "team": "U17", "cad": ""}, {"hr": "134", "pow": "77", "bib": 306, "rank": 6, "IRM": "", "gname": "THIBAUD", "lat": 46.360394087132065, "nationality": "SUI", "spd": "19.06 kmh", "lon": 6.197943889447322, "valid": 0, "fname": "ROSSIER", "team": "U17", "cad": "0"}, {"hr": "", "pow": "", "bib": 304, "rank": 7, "IRM": "", "gname": "MAXIME", "lat": 46.36038733160201, "nationality": "SUI", "spd": "19.91 kmh", "lon": 6.197966142958069, "valid": 1, "fname": "JUILLERAT", "team": "U17", "cad": ""}, {"hr": "", "pow": "", "bib": 401, "rank": 8, "IRM": "", "gname": "MARGOT", "lat": 46.360380777351104, "nationality": "SUI", "spd": "23.18 kmh", "lon": 6.197995015360069, "valid": 1, "fname": "VESIN", "team": "W17", "cad": ""}], "no": 1}]}