{"timestamp": 29186, "groups": [{"distance": 0, "gap": "+0:00", "athletes": [{"hr": "129", "pow": "77", "bib": 302, "rank": 1, "IRM": "", "gname": "GABRIELE", "lat": 46.360412450820384, "nationality": "SUI", "spd": "15.20 kmh", "lon": 6.197882027775374, "valid": 1, "fname": "CERATO", "team": "U17", "cad": "83"}, {"hr": "", "pow": "", "bib": 303, "rank": 2, "IRM": "", "gname": "DAMIEN", "lat": 46.36040165735519, "nationality": "SUI", "spd": "19.68 kmh", "lon": 6.197918605629636, "valid": 1, "fname": "FORTIS", "team": "U17", "cad": ""}, {"hr": "139", "pow": "", "bib": 307, "rank": 3, "IRM": "", "gname": "Z\u00c9ON", "lat": 46.3603972300792, "nationality": "SUI", "spd": "22.67 kmh", "lon": 6.197933536209702, "valid": 1, "fname": "TAILLEFERT", "team": "U17", "cad": ""}, {"hr": "139", "pow": "86", "bib": 305, "rank": 4, "IRM": "", "gname": "HENRY", "lat": 46.36039173895317, "nationality": "GBR", "spd": "14.63 kmh", "lon": 6.197951624624854, "valid": 1, "fname": "LAWTON", "team": "U17", "cad": "0"}, {"hr": "134", "pow": "77", "bib": 306, "rank": 5, "IRM": "", "gname": "THIBAUD", "lat": 46.36038368289327, "nationality": "SUI", "spd": "19.06 kmh", "lon": 6.197978162233926, "valid": 1, "fname": "ROSSIER", "team": "U17", "cad": "0"}, {"hr": "", "pow": "", "bib": 301, "rank": 6, "IRM": "", "gname": "SYLVAIN", "lat": 46.36038045997559, "nationality": "SUI", "spd": "18.94 kmh", "lon": 6.198006440878774, "valid": 1, "fname": "BRUNNER", "team": "U17", "cad": ""}, {"hr": "", "pow": "", "bib": 304, "rank": 7, "IRM": "", "gname": "MAXIME", "lat": 46.360382789662516, "nationality": "SUI", "spd": "17.29 kmh", "lon": 6.198040667862624, "valid": 1, "fname": "JUILLERAT", "team": "U17", "cad": ""}, {"hr": "", "pow": "", "bib": 401, "rank": 8, "IRM": "", "gname": "MARGOT", "lat": 46.36040465685145, "nationality": "SUI", "spd": "17.46 kmh", "lon": 6.198096453906882, "valid": 1, "fname": "VESIN", "team": "W17", "cad": ""}], "no": 1}]}