{"timestamp": 29196, "groups": [{"distance": 0, "gap": "+0:00", "athletes": [{"hr": "140", "pow": "68", "bib": 302, "rank": 1, "IRM": "", "gname": "GABRIELE", "lat": 46.36059001585234, "nationality": "SUI", "spd": "23.94 kmh", "lon": 6.19711700131962, "valid": 1, "fname": "CERATO", "team": "U17", "cad": "94"}, {"hr": "", "pow": "", "bib": 303, "rank": 2, "IRM": "", "gname": "DAMIEN", "lat": 46.36058740826694, "nationality": "SUI", "spd": "24.38 kmh", "lon": 6.197129437496136, "valid": 1, "fname": "FORTIS", "team": "U17", "cad": ""}, {"hr": "148", "pow": "", "bib": 307, "rank": 3, "IRM": "", "gname": "Z\u00c9ON", "lat": 46.36058422701275, "nationality": "SUI", "spd": "24.61 kmh", "lon": 6.197144609631484, "valid": 1, "fname": "TAILLEFERT", "team": "U17", "cad": ""}, {"hr": "", "pow": "", "bib": 301, "rank": 4, "IRM": "", "gname": "SYLVAIN", "lat": 46.3605763781807, "nationality": "SUI", "spd": "24.49 kmh", "lon": 6.197182042522794, "valid": 1, "fname": "BRUNNER", "team": "U17", "cad": ""}, {"hr": "148", "pow": "82", "bib": 305, "rank": 5, "IRM": "", "gname": "HENRY", "lat": 46.360575621980935, "nationality": "GBR", "spd": "23.87 kmh", "lon": 6.197185649013983, "valid": 1, "fname": "LAWTON", "team": "U17", "cad": "85"}, {"hr": "148", "pow": "68", "bib": 306, "rank": 6, "IRM": "", "gname": "THIBAUD", "lat": 46.36057105870649, "nationality": "SUI", "spd": "23.88 kmh", "lon": 6.197207412322884, "valid": 1, "fname": "ROSSIER", "team": "U17", "cad": "98"}, {"hr": "", "pow": "", "bib": 401, "rank": 7, "IRM": "", "gname": "MARGOT", "lat": 46.36056430506031, "nationality": "SUI", "spd": "24.18 kmh", "lon": 6.197239622020057, "valid": 1, "fname": "VESIN", "team": "W17", "cad": ""}, {"hr": "", "pow": "", "bib": 304, "rank": 8, "IRM": "", "gname": "MAXIME", "lat": 46.36056383569493, "nationality": "SUI", "spd": "25.10 kmh", "lon": 6.197241860531831, "valid": 1, "fname": "JUILLERAT", "team": "U17", "cad": ""}], "no": 1}]}