{"timestamp": 29194, "groups": [{"distance": 0, "gap": "+0:00", "athletes": [{"hr": "138", "pow": "52", "bib": 302, "rank": 1, "IRM": "", "gname": "GABRIELE", "lat": 46.36055476129775, "nationality": "SUI", "spd": "23.77 kmh", "lon": 6.1972851384261025, "valid": 1, "fname": "CERATO", "team": "U17", "cad": "98"}, {"hr": "", "pow": "", "bib": 303, "rank": 2, "IRM": "", "gname": "DAMIEN", "lat": 46.3605518408021, "nationality": "SUI", "spd": "24.02 kmh", "lon": 6.197299066943799, "valid": 1, "fname": "FORTIS", "team": "U17", "cad": ""}, {"hr": "146", "pow": "", "bib": 307, "rank": 3, "IRM": "", "gname": "Z\u00c9ON", "lat": 46.36054847701694, "nationality": "SUI", "spd": "24.05 kmh", "lon": 6.197315109611504, "valid": 1, "fname": "TAILLEFERT", "team": "U17", "cad": ""}, {"hr": "", "pow": "", "bib": 301, "rank": 4, "IRM": "", "gname": "SYLVAIN", "lat": 46.36054081071587, "nationality": "SUI", "spd": "24.49 kmh", "lon": 6.197351671970457, "valid": 1, "fname": "BRUNNER", "team": "U17", "cad": ""}, {"hr": "146", "pow": "65", "bib": 305, "rank": 5, "IRM": "", "gname": "HENRY", "lat": 46.360539611226585, "nationality": "GBR", "spd": "23.67 kmh", "lon": 6.197357392611654, "valid": 1, "fname": "LAWTON", "team": "U17", "cad": "94"}, {"hr": "144", "pow": "63", "bib": 306, "rank": 6, "IRM": "", "gname": "THIBAUD", "lat": 46.3605360909863, "nationality": "SUI", "spd": "23.81 kmh", "lon": 6.197374181449949, "valid": 1, "fname": "ROSSIER", "team": "U17", "cad": "82"}, {"hr": "", "pow": "", "bib": 401, "rank": 7, "IRM": "", "gname": "MARGOT", "lat": 46.360529311264266, "nationality": "SUI", "spd": "24.74 kmh", "lon": 6.197406515508888, "valid": 1, "fname": "VESIN", "team": "W17", "cad": ""}, {"hr": "", "pow": "", "bib": 304, "rank": 8, "IRM": "", "gname": "MAXIME", "lat": 46.3605275902579, "nationality": "SUI", "spd": "24.61 kmh", "lon": 6.197414723385387, "valid": 1, "fname": "JUILLERAT", "team": "U17", "cad": ""}], "no": 1}]}