{"timestamp": 29206, "groups": [{"distance": 0, "gap": "+0:00", "athletes": [{"hr": "155", "pow": "83", "bib": 302, "rank": 1, "IRM": "", "gname": "GABRIELE", "lat": 46.3607325746003, "nationality": "SUI", "spd": "24.93 kmh", "lon": 6.196236952254542, "valid": 1, "fname": "CERATO", "team": "U17", "cad": "102"}, {"hr": "", "pow": "", "bib": 303, "rank": 2, "IRM": "", "gname": "DAMIEN", "lat": 46.36073034430611, "nationality": "SUI", "spd": "24.80 kmh", "lon": 6.196256175266335, "valid": 1, "fname": "FORTIS", "team": "U17", "cad": ""}, {"hr": "154", "pow": "", "bib": 307, "rank": 3, "IRM": "", "gname": "Z\u00c9ON", "lat": 46.360729987459045, "nationality": "SUI", "spd": "24.88 kmh", "lon": 6.196259250948222, "valid": 1, "fname": "TAILLEFERT", "team": "U17", "cad": ""}, {"hr": "154", "pow": "96", "bib": 305, "rank": 4, "IRM": "", "gname": "HENRY", "lat": 46.36072658521143, "nationality": "GBR", "spd": "25.20 kmh", "lon": 6.196287938085676, "valid": 1, "fname": "LAWTON", "team": "U17", "cad": "84"}, {"hr": "", "pow": "", "bib": 301, "rank": 5, "IRM": "", "gname": "SYLVAIN", "lat": 46.36072534496262, "nationality": "SUI", "spd": "24.43 kmh", "lon": 6.196296723181459, "valid": 1, "fname": "BRUNNER", "team": "U17", "cad": ""}, {"hr": "156", "pow": "83", "bib": 306, "rank": 6, "IRM": "", "gname": "THIBAUD", "lat": 46.36072004244956, "nationality": "SUI", "spd": "24.62 kmh", "lon": 6.196334282648938, "valid": 1, "fname": "ROSSIER", "team": "U17", "cad": "96"}, {"hr": "", "pow": "", "bib": 401, "rank": 7, "IRM": "", "gname": "MARGOT", "lat": 46.36071671714476, "nationality": "SUI", "spd": "24.68 kmh", "lon": 6.196357836891257, "valid": 1, "fname": "VESIN", "team": "W17", "cad": ""}, {"hr": "", "pow": "", "bib": 304, "rank": 8, "IRM": "", "gname": "MAXIME", "lat": 46.360716465500076, "nationality": "SUI", "spd": "24.86 kmh", "lon": 6.196359619374459, "valid": 1, "fname": "JUILLERAT", "team": "U17", "cad": ""}], "no": 1}]}