{"timestamp": 29203, "groups": [{"distance": 0, "gap": "+0:00", "athletes": [{"hr": "152", "pow": "33", "bib": 302, "rank": 1, "IRM": "", "gname": "GABRIELE", "lat": 46.360696819239834, "nationality": "SUI", "spd": "25.19 kmh", "lon": 6.196498780384476, "valid": 1, "fname": "CERATO", "team": "U17", "cad": "99"}, {"hr": "", "pow": "", "bib": 303, "rank": 2, "IRM": "", "gname": "DAMIEN", "lat": 46.36069388937669, "nationality": "SUI", "spd": "24.80 kmh", "lon": 6.196519533581761, "valid": 1, "fname": "FORTIS", "team": "U17", "cad": ""}, {"hr": "152", "pow": "", "bib": 307, "rank": 3, "IRM": "", "gname": "Z\u00c9ON", "lat": 46.36069335013807, "nationality": "SUI", "spd": "25.30 kmh", "lon": 6.196523353188623, "valid": 1, "fname": "TAILLEFERT", "team": "U17", "cad": ""}, {"hr": "152", "pow": "47", "bib": 305, "rank": 4, "IRM": "", "gname": "HENRY", "lat": 46.36068894635604, "nationality": "GBR", "spd": "26.90 kmh", "lon": 6.196554546644665, "valid": 1, "fname": "LAWTON", "team": "U17", "cad": "99"}, {"hr": "", "pow": "", "bib": 301, "rank": 5, "IRM": "", "gname": "SYLVAIN", "lat": 46.36068874863522, "nationality": "SUI", "spd": "25.42 kmh", "lon": 6.196555947167182, "valid": 1, "fname": "BRUNNER", "team": "U17", "cad": ""}, {"hr": "155", "pow": "33", "bib": 306, "rank": 6, "IRM": "", "gname": "THIBAUD", "lat": 46.36068315852823, "nationality": "SUI", "spd": "24.91 kmh", "lon": 6.196595543758321, "valid": 1, "fname": "ROSSIER", "team": "U17", "cad": "99"}, {"hr": "", "pow": "", "bib": 401, "rank": 7, "IRM": "", "gname": "MARGOT", "lat": 46.36067974335033, "nationality": "SUI", "spd": "24.98 kmh", "lon": 6.196619734601783, "valid": 1, "fname": "VESIN", "team": "W17", "cad": ""}, {"hr": "", "pow": "", "bib": 304, "rank": 8, "IRM": "", "gname": "MAXIME", "lat": 46.36067922208634, "nationality": "SUI", "spd": "24.89 kmh", "lon": 6.196623426888416, "valid": 1, "fname": "JUILLERAT", "team": "U17", "cad": ""}], "no": 1}]}