{"timestamp": 29204, "groups": [{"distance": 0, "gap": "+0:00", "athletes": [{"hr": "154", "pow": "76", "bib": 302, "rank": 1, "IRM": "", "gname": "GABRIELE", "lat": 46.360709293626485, "nationality": "SUI", "spd": "25.19 kmh", "lon": 6.196410420145727, "valid": 1, "fname": "CERATO", "team": "U17", "cad": "98"}, {"hr": "", "pow": "", "bib": 303, "rank": 2, "IRM": "", "gname": "DAMIEN", "lat": 46.360706237940995, "nationality": "SUI", "spd": "24.71 kmh", "lon": 6.196432064584614, "valid": 1, "fname": "FORTIS", "team": "U17", "cad": ""}, {"hr": "153", "pow": "", "bib": 307, "rank": 3, "IRM": "", "gname": "Z\u00c9ON", "lat": 46.360705878448584, "nationality": "SUI", "spd": "25.34 kmh", "lon": 6.196434610989189, "valid": 1, "fname": "TAILLEFERT", "team": "U17", "cad": ""}, {"hr": "153", "pow": "102", "bib": 305, "rank": 4, "IRM": "", "gname": "HENRY", "lat": 46.36070167238738, "nationality": "GBR", "spd": "26.03 kmh", "lon": 6.196464403922715, "valid": 1, "fname": "LAWTON", "team": "U17", "cad": "86"}, {"hr": "", "pow": "", "bib": 301, "rank": 5, "IRM": "", "gname": "SYLVAIN", "lat": 46.360701151123386, "nationality": "SUI", "spd": "25.37 kmh", "lon": 6.196468096209348, "valid": 1, "fname": "BRUNNER", "team": "U17", "cad": ""}, {"hr": "156", "pow": "88", "bib": 306, "rank": 6, "IRM": "", "gname": "THIBAUD", "lat": 46.360695309371714, "nationality": "SUI", "spd": "24.82 kmh", "lon": 6.1965094752836904, "valid": 1, "fname": "ROSSIER", "team": "U17", "cad": "98"}, {"hr": "", "pow": "", "bib": 401, "rank": 7, "IRM": "", "gname": "MARGOT", "lat": 46.36069210988926, "nationality": "SUI", "spd": "24.85 kmh", "lon": 6.1965321382844065, "valid": 1, "fname": "VESIN", "team": "W17", "cad": ""}, {"hr": "", "pow": "", "bib": 304, "rank": 8, "IRM": "", "gname": "MAXIME", "lat": 46.36069180432071, "nationality": "SUI", "spd": "25.22 kmh", "lon": 6.1965343027282955, "valid": 1, "fname": "JUILLERAT", "team": "U17", "cad": ""}], "no": 1}]}