{"timestamp": 29215, "groups": [{"distance": 0, "gap": "+0:00", "athletes": [{"hr": "154", "pow": "117", "bib": 302, "rank": 1, "IRM": "", "gname": "GABRIELE", "lat": 46.3608085463074, "nationality": "SUI", "spd": "23.50 kmh", "lon": 6.195482351696333, "valid": 1, "fname": "CERATO", "team": "U17", "cad": "93"}, {"hr": "", "pow": "", "bib": 303, "rank": 2, "IRM": "", "gname": "DAMIEN", "lat": 46.36080743841171, "nationality": "SUI", "spd": "23.39 kmh", "lon": 6.195497862236036, "valid": 1, "fname": "FORTIS", "team": "U17", "cad": ""}, {"hr": "159", "pow": "", "bib": 307, "rank": 3, "IRM": "", "gname": "Z\u00c9ON", "lat": 46.36080626588877, "nationality": "SUI", "spd": "23.06 kmh", "lon": 6.195514277557222, "valid": 1, "fname": "TAILLEFERT", "team": "U17", "cad": ""}, {"hr": "159", "pow": "148", "bib": 305, "rank": 4, "IRM": "", "gname": "HENRY", "lat": 46.36080525031772, "nationality": "GBR", "spd": "23.93 kmh", "lon": 6.195528495551949, "valid": 1, "fname": "LAWTON", "team": "U17", "cad": "83"}, {"hr": "", "pow": "", "bib": 301, "rank": 5, "IRM": "", "gname": "SYLVAIN", "lat": 46.36080370849621, "nationality": "SUI", "spd": "26.76 kmh", "lon": 6.195550081053036, "valid": 1, "fname": "BRUNNER", "team": "U17", "cad": ""}, {"hr": "159", "pow": "117", "bib": 306, "rank": 6, "IRM": "", "gname": "THIBAUD", "lat": 46.36080195432803, "nationality": "SUI", "spd": "26.99 kmh", "lon": 6.195574639407566, "valid": 1, "fname": "ROSSIER", "team": "U17", "cad": "93"}, {"hr": "", "pow": "", "bib": 401, "rank": 7, "IRM": "", "gname": "MARGOT", "lat": 46.360799960115784, "nationality": "SUI", "spd": "23.26 kmh", "lon": 6.195602558379031, "valid": 1, "fname": "VESIN", "team": "W17", "cad": ""}, {"hr": "", "pow": "", "bib": 304, "rank": 8, "IRM": "", "gname": "MAXIME", "lat": 46.360799267680974, "nationality": "SUI", "spd": "23.26 kmh", "lon": 6.195612252466345, "valid": 1, "fname": "JUILLERAT", "team": "U17", "cad": ""}], "no": 1}]}