{"timestamp": 29216, "groups": [{"distance": 0, "gap": "+0:00", "athletes": [{"hr": "156", "pow": "91", "bib": 302, "rank": 1, "IRM": "", "gname": "GABRIELE", "lat": 46.36081447354936, "nationality": "SUI", "spd": "23.39 kmh", "lon": 6.195399370308922, "valid": 1, "fname": "CERATO", "team": "U17", "cad": "91"}, {"hr": "", "pow": "", "bib": 303, "rank": 2, "IRM": "", "gname": "DAMIEN", "lat": 46.360813559535416, "nationality": "SUI", "spd": "23.52 kmh", "lon": 6.195412166504177, "valid": 1, "fname": "FORTIS", "team": "U17", "cad": ""}, {"hr": "160", "pow": "", "bib": 307, "rank": 3, "IRM": "", "gname": "Z\u00c9ON", "lat": 46.36081241470987, "nationality": "SUI", "spd": "23.64 kmh", "lon": 6.19542819406187, "valid": 1, "fname": "TAILLEFERT", "team": "U17", "cad": ""}, {"hr": "160", "pow": "103", "bib": 305, "rank": 4, "IRM": "", "gname": "HENRY", "lat": 46.360811112932424, "nationality": "GBR", "spd": "23.63 kmh", "lon": 6.195446418946021, "valid": 1, "fname": "LAWTON", "team": "U17", "cad": "91"}, {"hr": "", "pow": "", "bib": 301, "rank": 5, "IRM": "", "gname": "SYLVAIN", "lat": 46.360809608040775, "nationality": "SUI", "spd": "26.68 kmh", "lon": 6.195467487429117, "valid": 1, "fname": "BRUNNER", "team": "U17", "cad": ""}, {"hr": "159", "pow": "91", "bib": 306, "rank": 6, "IRM": "", "gname": "THIBAUD", "lat": 46.360807936964775, "nationality": "SUI", "spd": "23.04 kmh", "lon": 6.19549088249317, "valid": 1, "fname": "ROSSIER", "team": "U17", "cad": "91"}, {"hr": "", "pow": "", "bib": 401, "rank": 7, "IRM": "", "gname": "MARGOT", "lat": 46.36080585966035, "nationality": "SUI", "spd": "23.02 kmh", "lon": 6.195519964755112, "valid": 1, "fname": "VESIN", "team": "W17", "cad": ""}, {"hr": "", "pow": "", "bib": 304, "rank": 8, "IRM": "", "gname": "MAXIME", "lat": 46.36080518569047, "nationality": "SUI", "spd": "23.14 kmh", "lon": 6.195529400333432, "valid": 1, "fname": "JUILLERAT", "team": "U17", "cad": ""}], "no": 1}]}