{"timestamp": 29214, "groups": [{"distance": 0, "gap": "+0:00", "athletes": [{"hr": "153", "pow": "136", "bib": 302, "rank": 1, "IRM": "", "gname": "GABRIELE", "lat": 46.360802526740805, "nationality": "SUI", "spd": "23.58 kmh", "lon": 6.195566625628719, "valid": 1, "fname": "CERATO", "team": "U17", "cad": "92"}, {"hr": "", "pow": "", "bib": 303, "rank": 2, "IRM": "", "gname": "DAMIEN", "lat": 46.360801437310045, "nationality": "SUI", "spd": "23.38 kmh", "lon": 6.195581877659427, "valid": 1, "fname": "FORTIS", "team": "U17", "cad": ""}, {"hr": "159", "pow": "", "bib": 307, "rank": 3, "IRM": "", "gname": "Z\u00c9ON", "lat": 46.360800024743035, "nationality": "SUI", "spd": "22.80 kmh", "lon": 6.195601653597548, "valid": 1, "fname": "TAILLEFERT", "team": "U17", "cad": ""}, {"hr": "159", "pow": "114", "bib": 305, "rank": 4, "IRM": "", "gname": "HENRY", "lat": 46.36079936923808, "nationality": "GBR", "spd": "23.93 kmh", "lon": 6.1956108306668725, "valid": 1, "fname": "LAWTON", "team": "U17", "cad": "93"}, {"hr": "", "pow": "", "bib": 301, "rank": 5, "IRM": "", "gname": "SYLVAIN", "lat": 46.360797762789325, "nationality": "SUI", "spd": "26.93 kmh", "lon": 6.195633320949442, "valid": 1, "fname": "BRUNNER", "team": "U17", "cad": ""}, {"hr": "158", "pow": "136", "bib": 306, "rank": 6, "IRM": "", "gname": "THIBAUD", "lat": 46.36079612864318, "nationality": "SUI", "spd": "27.33 kmh", "lon": 6.195656198995503, "valid": 1, "fname": "ROSSIER", "team": "U17", "cad": "92"}, {"hr": "", "pow": "", "bib": 401, "rank": 7, "IRM": "", "gname": "MARGOT", "lat": 46.36079404210629, "nationality": "SUI", "spd": "23.38 kmh", "lon": 6.1956854105119445, "valid": 1, "fname": "VESIN", "team": "W17", "cad": ""}, {"hr": "", "pow": "", "bib": 304, "rank": 8, "IRM": "", "gname": "MAXIME", "lat": 46.36079341429873, "nationality": "SUI", "spd": "23.28 kmh", "lon": 6.195694199817776, "valid": 1, "fname": "JUILLERAT", "team": "U17", "cad": ""}], "no": 1}]}