{"timestamp": 29229, "groups": [{"distance": 0, "gap": "+0:00", "athletes": [{"hr": "164", "pow": "65", "bib": 302, "rank": 1, "IRM": "", "gname": "GABRIELE", "lat": 46.3608573345017, "nationality": "SUI", "spd": "22.64 kmh", "lon": 6.19432525639497, "valid": 1, "fname": "CERATO", "team": "U17", "cad": "95"}, {"hr": "167", "pow": "", "bib": 307, "rank": 2, "IRM": "", "gname": "Z\u00c9ON", "lat": 46.36085726657271, "nationality": "SUI", "spd": "22.98 kmh", "lon": 6.194339419591412, "valid": 1, "fname": "TAILLEFERT", "team": "U17", "cad": ""}, {"hr": "", "pow": "", "bib": 303, "rank": 3, "IRM": "", "gname": "DAMIEN", "lat": 46.36085722731099, "nationality": "SUI", "spd": "26.21 kmh", "lon": 6.19434760565908, "valid": 1, "fname": "FORTIS", "team": "U17", "cad": ""}, {"hr": "167", "pow": "77", "bib": 305, "rank": 4, "IRM": "", "gname": "HENRY", "lat": 46.36085714691795, "nationality": "GBR", "spd": "23.77 kmh", "lon": 6.194364367607162, "valid": 1, "fname": "LAWTON", "team": "U17", "cad": "97"}, {"hr": "", "pow": "", "bib": 301, "rank": 5, "IRM": "", "gname": "SYLVAIN", "lat": 46.3608571288451, "nationality": "SUI", "spd": "23.30 kmh", "lon": 6.194368135797041, "valid": 1, "fname": "BRUNNER", "team": "U17", "cad": ""}, {"hr": "162", "pow": "65", "bib": 306, "rank": 6, "IRM": "", "gname": "THIBAUD", "lat": 46.36085660588253, "nationality": "SUI", "spd": "22.98 kmh", "lon": 6.194407234063178, "valid": 1, "fname": "ROSSIER", "team": "U17", "cad": "97"}, {"hr": "", "pow": "", "bib": 401, "rank": 7, "IRM": "", "gname": "MARGOT", "lat": 46.360855982841436, "nationality": "SUI", "spd": "27.16 kmh", "lon": 6.194426574297114, "valid": 1, "fname": "VESIN", "team": "W17", "cad": ""}, {"hr": "", "pow": "", "bib": 304, "rank": 8, "IRM": "", "gname": "MAXIME", "lat": 46.36085545597447, "nationality": "SUI", "spd": "23.10 kmh", "lon": 6.1944429291258105, "valid": 1, "fname": "JUILLERAT", "team": "U17", "cad": ""}], "no": 1}]}