{"timestamp": 29221, "groups": [{"distance": 0, "gap": "+0:00", "athletes": [{"hr": "159", "pow": "100", "bib": 302, "rank": 1, "IRM": "", "gname": "GABRIELE", "lat": 46.36083806518315, "nationality": "SUI", "spd": "23.40 kmh", "lon": 6.194982768273051, "valid": 1, "fname": "CERATO", "team": "U17", "cad": "96"}, {"hr": "", "pow": "", "bib": 303, "rank": 2, "IRM": "", "gname": "DAMIEN", "lat": 46.36083746723096, "nationality": "SUI", "spd": "26.53 kmh", "lon": 6.19500132970562, "valid": 1, "fname": "FORTIS", "team": "U17", "cad": ""}, {"hr": "164", "pow": "", "bib": 307, "rank": 3, "IRM": "", "gname": "Z\u00c9ON", "lat": 46.36083740869019, "nationality": "SUI", "spd": "27.49 kmh", "lon": 6.1950031469088085, "valid": 1, "fname": "TAILLEFERT", "team": "U17", "cad": ""}, {"hr": "", "pow": "", "bib": 301, "rank": 4, "IRM": "", "gname": "SYLVAIN", "lat": 46.36083582808929, "nationality": "SUI", "spd": "23.20 kmh", "lon": 6.1950522113949, "valid": 1, "fname": "BRUNNER", "team": "U17", "cad": ""}, {"hr": "160", "pow": "100", "bib": 306, "rank": 5, "IRM": "", "gname": "THIBAUD", "lat": 46.36083525522601, "nationality": "SUI", "spd": "23.56 kmh", "lon": 6.195069994026103, "valid": 1, "fname": "ROSSIER", "team": "U17", "cad": "92"}, {"hr": "163", "pow": "91", "bib": 305, "rank": 6, "IRM": "", "gname": "HENRY", "lat": 46.36083516462719, "nationality": "GBR", "spd": "23.70 kmh", "lon": 6.195072806364371, "valid": 0, "fname": "LAWTON", "team": "U17", "cad": "90"}, {"hr": "", "pow": "", "bib": 401, "rank": 7, "IRM": "", "gname": "MARGOT", "lat": 46.36083434784401, "nationality": "SUI", "spd": "23.30 kmh", "lon": 6.195098160675526, "valid": 1, "fname": "VESIN", "team": "W17", "cad": ""}, {"hr": "", "pow": "", "bib": 304, "rank": 8, "IRM": "", "gname": "MAXIME", "lat": 46.36083394642156, "nationality": "SUI", "spd": "23.38 kmh", "lon": 6.195110621497391, "valid": 1, "fname": "JUILLERAT", "team": "U17", "cad": ""}], "no": 1}]}