{"timestamp": 29228, "groups": [{"distance": 0, "gap": "+0:00", "athletes": [{"hr": "163", "pow": "78", "bib": 302, "rank": 1, "IRM": "", "gname": "GABRIELE", "lat": 46.360856651878855, "nationality": "SUI", "spd": "30.18 kmh", "lon": 6.194405806260672, "valid": 1, "fname": "CERATO", "team": "U17", "cad": "91"}, {"hr": "167", "pow": "", "bib": 307, "rank": 2, "IRM": "", "gname": "Z\u00c9ON", "lat": 46.36085616682673, "nationality": "SUI", "spd": "22.82 kmh", "lon": 6.1944208630870925, "valid": 1, "fname": "TAILLEFERT", "team": "U17", "cad": ""}, {"hr": "", "pow": "", "bib": 303, "rank": 3, "IRM": "", "gname": "DAMIEN", "lat": 46.36085590757473, "nationality": "SUI", "spd": "26.18 kmh", "lon": 6.194428910701213, "valid": 1, "fname": "FORTIS", "team": "U17", "cad": ""}, {"hr": "167", "pow": "90", "bib": 305, "rank": 4, "IRM": "", "gname": "HENRY", "lat": 46.36085533471144, "nationality": "GBR", "spd": "23.43 kmh", "lon": 6.194446693332416, "valid": 1, "fname": "LAWTON", "team": "U17", "cad": "86"}, {"hr": "", "pow": "", "bib": 301, "rank": 5, "IRM": "", "gname": "SYLVAIN", "lat": 46.36085517999654, "nationality": "SUI", "spd": "23.26 kmh", "lon": 6.194451495940843, "valid": 1, "fname": "BRUNNER", "team": "U17", "cad": ""}, {"hr": "162", "pow": "78", "bib": 306, "rank": 6, "IRM": "", "gname": "THIBAUD", "lat": 46.36085398827364, "nationality": "SUI", "spd": "26.92 kmh", "lon": 6.194488489005754, "valid": 1, "fname": "ROSSIER", "team": "U17", "cad": "90"}, {"hr": "", "pow": "", "bib": 401, "rank": 7, "IRM": "", "gname": "MARGOT", "lat": 46.360853239788035, "nationality": "SUI", "spd": "26.75 kmh", "lon": 6.194511723246522, "valid": 1, "fname": "VESIN", "team": "W17", "cad": ""}, {"hr": "", "pow": "", "bib": 304, "rank": 8, "IRM": "", "gname": "MAXIME", "lat": 46.3608527840063, "nationality": "SUI", "spd": "26.77 kmh", "lon": 6.194525871471347, "valid": 1, "fname": "JUILLERAT", "team": "U17", "cad": ""}], "no": 1}]}