{"timestamp": 29227, "groups": [{"distance": 0, "gap": "+0:00", "athletes": [{"hr": "163", "pow": "83", "bib": 302, "rank": 1, "IRM": "", "gname": "GABRIELE", "lat": 46.360854000818094, "nationality": "SUI", "spd": "30.25 kmh", "lon": 6.194488099605071, "valid": 1, "fname": "CERATO", "team": "U17", "cad": "96"}, {"hr": "167", "pow": "", "bib": 307, "rank": 2, "IRM": "", "gname": "Z\u00c9ON", "lat": 46.36085353667339, "nationality": "SUI", "spd": "22.80 kmh", "lon": 6.194502507430351, "valid": 1, "fname": "TAILLEFERT", "team": "U17", "cad": ""}, {"hr": "", "pow": "", "bib": 303, "rank": 3, "IRM": "", "gname": "DAMIEN", "lat": 46.360853298328806, "nationality": "SUI", "spd": "26.22 kmh", "lon": 6.194509906043334, "valid": 1, "fname": "FORTIS", "team": "U17", "cad": ""}, {"hr": "167", "pow": "95", "bib": 305, "rank": 4, "IRM": "", "gname": "HENRY", "lat": 46.3608526794692, "nationality": "GBR", "spd": "23.17 kmh", "lon": 6.1945291164770415, "valid": 1, "fname": "LAWTON", "team": "U17", "cad": "86"}, {"hr": "", "pow": "", "bib": 301, "rank": 5, "IRM": "", "gname": "SYLVAIN", "lat": 46.360852470395, "nationality": "SUI", "spd": "23.45 kmh", "lon": 6.194535606488429, "valid": 1, "fname": "BRUNNER", "team": "U17", "cad": ""}, {"hr": "162", "pow": "83", "bib": 306, "rank": 6, "IRM": "", "gname": "THIBAUD", "lat": 46.36085127449063, "nationality": "SUI", "spd": "26.78 kmh", "lon": 6.194572729353568, "valid": 1, "fname": "ROSSIER", "team": "U17", "cad": "87"}, {"hr": "", "pow": "", "bib": 401, "rank": 7, "IRM": "", "gname": "MARGOT", "lat": 46.36085045910127, "nationality": "SUI", "spd": "26.39 kmh", "lon": 6.19459804039798, "valid": 1, "fname": "VESIN", "team": "W17", "cad": ""}, {"hr": "", "pow": "", "bib": 304, "rank": 8, "IRM": "", "gname": "MAXIME", "lat": 46.36085006186031, "nationality": "SUI", "spd": "26.59 kmh", "lon": 6.194610371419617, "valid": 1, "fname": "JUILLERAT", "team": "U17", "cad": ""}], "no": 1}]}