{"timestamp": 29220, "groups": [{"distance": 0, "gap": "+0:00", "athletes": [{"hr": "163", "pow": "91", "bib": 305, "rank": 1, "IRM": "", "gname": "HENRY", "lat": 46.36083377079924, "nationality": "GBR", "spd": "23.70 kmh", "lon": 6.1951160731069566, "valid": 1, "fname": "LAWTON", "team": "U17", "cad": "90"}, {"hr": "", "pow": "", "bib": 303, "rank": 2, "IRM": "", "gname": "DAMIEN", "lat": 46.360833507365754, "nationality": "SUI", "spd": "22.91 kmh", "lon": 6.195124250521306, "valid": 0, "fname": "FORTIS", "team": "U17", "cad": ""}, {"hr": "162", "pow": "", "bib": 307, "rank": 3, "IRM": "", "gname": "Z\u00c9ON", "lat": 46.36083335683234, "nationality": "SUI", "spd": "23.82 kmh", "lon": 6.195128923329505, "valid": 0, "fname": "TAILLEFERT", "team": "U17", "cad": ""}, {"hr": "", "pow": "", "bib": 301, "rank": 4, "IRM": "", "gname": "SYLVAIN", "lat": 46.36083310176182, "nationality": "SUI", "spd": "22.92 kmh", "lon": 6.195136841143398, "valid": 1, "fname": "BRUNNER", "team": "U17", "cad": ""}, {"hr": "160", "pow": "79", "bib": 306, "rank": 5, "IRM": "", "gname": "THIBAUD", "lat": 46.360831858279276, "nationality": "SUI", "spd": "23.29 kmh", "lon": 6.195155984090083, "valid": 1, "fname": "ROSSIER", "team": "U17", "cad": "90"}, {"hr": "", "pow": "", "bib": 401, "rank": 6, "IRM": "", "gname": "MARGOT", "lat": 46.360829956391676, "nationality": "SUI", "spd": "23.47 kmh", "lon": 6.195182610516573, "valid": 1, "fname": "VESIN", "team": "W17", "cad": ""}, {"hr": "156", "pow": "113", "bib": 302, "rank": 7, "IRM": "", "gname": "GABRIELE", "lat": 46.36082945783861, "nationality": "SUI", "spd": "23.33 kmh", "lon": 6.19518959025944, "valid": 0, "fname": "CERATO", "team": "U17", "cad": "91"}, {"hr": "", "pow": "", "bib": 304, "rank": 8, "IRM": "", "gname": "MAXIME", "lat": 46.36082895928555, "nationality": "SUI", "spd": "23.16 kmh", "lon": 6.195196570002306, "valid": 1, "fname": "JUILLERAT", "team": "U17", "cad": ""}], "no": 1}]}