{"timestamp": 29235, "groups": [{"distance": 0, "gap": "+0:00", "athletes": [{"hr": "168", "pow": "82", "bib": 302, "rank": 1, "IRM": "", "gname": "GABRIELE", "lat": 46.36085555492244, "nationality": "SUI", "spd": "22.15 kmh", "lon": 6.193844967005024, "valid": 1, "fname": "CERATO", "team": "U17", "cad": "93"}, {"hr": "169", "pow": "", "bib": 307, "rank": 2, "IRM": "", "gname": "Z\u00c9ON", "lat": 46.36085600887969, "nationality": "SUI", "spd": "25.53 kmh", "lon": 6.19386249673897, "valid": 1, "fname": "TAILLEFERT", "team": "U17", "cad": ""}, {"hr": "", "pow": "", "bib": 303, "rank": 3, "IRM": "", "gname": "DAMIEN", "lat": 46.36085603578086, "nationality": "SUI", "spd": "22.31 kmh", "lon": 6.193863535538019, "valid": 1, "fname": "FORTIS", "team": "U17", "cad": ""}, {"hr": "169", "pow": "94", "bib": 305, "rank": 4, "IRM": "", "gname": "HENRY", "lat": 46.360856409034604, "nationality": "GBR", "spd": "22.90 kmh", "lon": 6.193877948874819, "valid": 1, "fname": "LAWTON", "team": "U17", "cad": "90"}, {"hr": "", "pow": "", "bib": 301, "rank": 5, "IRM": "", "gname": "SYLVAIN", "lat": 46.360856600705446, "nationality": "SUI", "spd": "25.34 kmh", "lon": 6.193885350318041, "valid": 1, "fname": "BRUNNER", "team": "U17", "cad": ""}, {"hr": "162", "pow": "82", "bib": 306, "rank": 6, "IRM": "", "gname": "THIBAUD", "lat": 46.360857747367845, "nationality": "SUI", "spd": "22.21 kmh", "lon": 6.193929629127491, "valid": 1, "fname": "ROSSIER", "team": "U17", "cad": "97"}, {"hr": "", "pow": "", "bib": 401, "rank": 7, "IRM": "", "gname": "MARGOT", "lat": 46.36085795921456, "nationality": "SUI", "spd": "22.58 kmh", "lon": 6.19393780967, "valid": 1, "fname": "VESIN", "team": "W17", "cad": ""}, {"hr": "", "pow": "", "bib": 304, "rank": 8, "IRM": "", "gname": "MAXIME", "lat": 46.360858477062095, "nationality": "SUI", "spd": "22.20 kmh", "lon": 6.193957806551687, "valid": 1, "fname": "JUILLERAT", "team": "U17", "cad": ""}], "no": 1}]}