{"timestamp": 29248, "groups": [{"distance": 0, "gap": "+0:00", "athletes": [{"hr": "171", "pow": "62", "bib": 302, "rank": 1, "IRM": "", "gname": "GABRIELE", "lat": 46.3608128787399, "nationality": "SUI", "spd": "23.14 kmh", "lon": 6.1927756267644805, "valid": 1, "fname": "CERATO", "team": "U17", "cad": "92"}, {"hr": "", "pow": "", "bib": 303, "rank": 2, "IRM": "", "gname": "DAMIEN", "lat": 46.36081388387558, "nationality": "SUI", "spd": "23.16 kmh", "lon": 6.192797668523598, "valid": 1, "fname": "FORTIS", "team": "U17", "cad": ""}, {"hr": "", "pow": "", "bib": 301, "rank": 3, "IRM": "", "gname": "SYLVAIN", "lat": 46.360814098698704, "nationality": "SUI", "spd": "23.40 kmh", "lon": 6.1928022058483245, "valid": 1, "fname": "BRUNNER", "team": "U17", "cad": ""}, {"hr": "171", "pow": "75", "bib": 305, "rank": 4, "IRM": "", "gname": "HENRY", "lat": 46.36081412938772, "nationality": "GBR", "spd": "23.10 kmh", "lon": 6.192802854037572, "valid": 1, "fname": "LAWTON", "team": "U17", "cad": "101"}, {"hr": "171", "pow": "", "bib": 307, "rank": 5, "IRM": "", "gname": "Z\u00c9ON", "lat": 46.360814706341245, "nationality": "SUI", "spd": "22.60 kmh", "lon": 6.192815039995409, "valid": 1, "fname": "TAILLEFERT", "team": "U17", "cad": ""}, {"hr": "163", "pow": "62", "bib": 306, "rank": 6, "IRM": "", "gname": "THIBAUD", "lat": 46.36081642492622, "nationality": "SUI", "spd": "23.20 kmh", "lon": 6.192851338593224, "valid": 1, "fname": "ROSSIER", "team": "U17", "cad": "101"}, {"hr": "", "pow": "", "bib": 401, "rank": 7, "IRM": "", "gname": "MARGOT", "lat": 46.360816842296856, "nationality": "SUI", "spd": "23.50 kmh", "lon": 6.192860153966979, "valid": 1, "fname": "VESIN", "team": "W17", "cad": ""}, {"hr": "", "pow": "", "bib": 304, "rank": 8, "IRM": "", "gname": "MAXIME", "lat": 46.360818020755126, "nationality": "SUI", "spd": "23.32 kmh", "lon": 6.1928850444340515, "valid": 1, "fname": "JUILLERAT", "team": "U17", "cad": ""}], "no": 1}]}