{"timestamp": 29255, "groups": [{"distance": 0, "gap": "+0:00", "athletes": [{"hr": "170", "pow": "32", "bib": 302, "rank": 1, "IRM": "", "gname": "GABRIELE", "lat": 46.360792143784664, "nationality": "SUI", "spd": "22.64 kmh", "lon": 6.19219881800968, "valid": 1, "fname": "CERATO", "team": "U17", "cad": "89"}, {"hr": "", "pow": "", "bib": 303, "rank": 2, "IRM": "", "gname": "DAMIEN", "lat": 46.360793254002736, "nationality": "SUI", "spd": "22.28 kmh", "lon": 6.192229702257968, "valid": 1, "fname": "FORTIS", "team": "U17", "cad": ""}, {"hr": "172", "pow": "44", "bib": 305, "rank": 3, "IRM": "", "gname": "HENRY", "lat": 46.36079339394619, "nationality": "GBR", "spd": "23.27 kmh", "lon": 6.192233595230442, "valid": 1, "fname": "LAWTON", "team": "U17", "cad": "89"}, {"hr": "172", "pow": "", "bib": 307, "rank": 4, "IRM": "", "gname": "Z\u00c9ON", "lat": 46.36079344059401, "nationality": "SUI", "spd": "22.52 kmh", "lon": 6.192234892887933, "valid": 1, "fname": "TAILLEFERT", "team": "U17", "cad": ""}, {"hr": "", "pow": "", "bib": 301, "rank": 5, "IRM": "", "gname": "SYLVAIN", "lat": 46.36079445751645, "nationality": "SUI", "spd": "22.86 kmh", "lon": 6.1922631818212395, "valid": 0, "fname": "BRUNNER", "team": "U17", "cad": ""}, {"hr": "", "pow": "", "bib": 401, "rank": 6, "IRM": "", "gname": "MARGOT", "lat": 46.360794555476865, "nationality": "SUI", "spd": "26.82 kmh", "lon": 6.19226590690197, "valid": 1, "fname": "VESIN", "team": "W17", "cad": ""}, {"hr": "163", "pow": "32", "bib": 306, "rank": 7, "IRM": "", "gname": "THIBAUD", "lat": 46.360794770056835, "nationality": "SUI", "spd": "22.81 kmh", "lon": 6.19227187612643, "valid": 1, "fname": "ROSSIER", "team": "U17", "cad": "89"}, {"hr": "", "pow": "", "bib": 304, "rank": 8, "IRM": "", "gname": "MAXIME", "lat": 46.360795600387995, "nationality": "SUI", "spd": "23.12 kmh", "lon": 6.192294974429772, "valid": 1, "fname": "JUILLERAT", "team": "U17", "cad": ""}], "no": 1}]}