{"timestamp": 29266, "groups": [{"distance": 0, "gap": "+0:00", "athletes": [{"hr": "167", "pow": "18", "bib": 302, "rank": 1, "IRM": "", "gname": "GABRIELE", "lat": 46.36074443028196, "nationality": "SUI", "spd": "21.48 kmh", "lon": 6.191340836081614, "valid": 1, "fname": "CERATO", "team": "U17", "cad": "93"}, {"hr": "", "pow": "", "bib": 301, "rank": 2, "IRM": "", "gname": "SYLVAIN", "lat": 46.36074576227923, "nationality": "SUI", "spd": "21.88 kmh", "lon": 6.191358664352737, "valid": 1, "fname": "BRUNNER", "team": "U17", "cad": ""}, {"hr": "170", "pow": "", "bib": 307, "rank": 3, "IRM": "", "gname": "Z\u00c9ON", "lat": 46.3607463993214, "nationality": "SUI", "spd": "21.89 kmh", "lon": 6.191367190917188, "valid": 1, "fname": "TAILLEFERT", "team": "U17", "cad": ""}, {"hr": "170", "pow": "29", "bib": 305, "rank": 4, "IRM": "", "gname": "HENRY", "lat": 46.360746708190334, "nationality": "GBR", "spd": "21.37 kmh", "lon": 6.191371325009043, "valid": 1, "fname": "LAWTON", "team": "U17", "cad": "97"}, {"hr": "", "pow": "", "bib": 303, "rank": 5, "IRM": "", "gname": "DAMIEN", "lat": 46.36074690123341, "nationality": "SUI", "spd": "21.58 kmh", "lon": 6.191373908816453, "valid": 1, "fname": "FORTIS", "team": "U17", "cad": ""}, {"hr": "", "pow": "", "bib": 401, "rank": 6, "IRM": "", "gname": "MARGOT", "lat": 46.36074871583839, "nationality": "SUI", "spd": "22.44 kmh", "lon": 6.1913981966061, "valid": 1, "fname": "VESIN", "team": "W17", "cad": ""}, {"hr": "160", "pow": "18", "bib": 306, "rank": 7, "IRM": "", "gname": "THIBAUD", "lat": 46.360750279487355, "nationality": "SUI", "spd": "21.48 kmh", "lon": 6.1914191254461155, "valid": 1, "fname": "ROSSIER", "team": "U17", "cad": "83"}, {"hr": "", "pow": "", "bib": 304, "rank": 8, "IRM": "", "gname": "MAXIME", "lat": 46.36075172731047, "nationality": "SUI", "spd": "21.29 kmh", "lon": 6.191438504001685, "valid": 1, "fname": "JUILLERAT", "team": "U17", "cad": ""}], "no": 1}]}