{"timestamp": 29264, "groups": [{"distance": 0, "gap": "+0:00", "athletes": [{"hr": "168", "pow": "74", "bib": 302, "rank": 1, "IRM": "", "gname": "GABRIELE", "lat": 46.360755858432434, "nationality": "SUI", "spd": "21.50 kmh", "lon": 6.191493797480244, "valid": 1, "fname": "CERATO", "team": "U17", "cad": "94"}, {"hr": "", "pow": "", "bib": 301, "rank": 2, "IRM": "", "gname": "SYLVAIN", "lat": 46.36075746069002, "nationality": "SUI", "spd": "21.82 kmh", "lon": 6.19151524308174, "valid": 1, "fname": "BRUNNER", "team": "U17", "cad": ""}, {"hr": "170", "pow": "", "bib": 307, "rank": 3, "IRM": "", "gname": "Z\u00c9ON", "lat": 46.36075806877572, "nationality": "SUI", "spd": "21.98 kmh", "lon": 6.19152338207508, "valid": 1, "fname": "TAILLEFERT", "team": "U17", "cad": ""}, {"hr": "170", "pow": "85", "bib": 305, "rank": 4, "IRM": "", "gname": "HENRY", "lat": 46.3607583679925, "nationality": "GBR", "spd": "21.23 kmh", "lon": 6.191527386976564, "valid": 1, "fname": "LAWTON", "team": "U17", "cad": "92"}, {"hr": "", "pow": "", "bib": 303, "rank": 5, "IRM": "", "gname": "DAMIEN", "lat": 46.36075846451404, "nationality": "SUI", "spd": "21.67 kmh", "lon": 6.191528678880269, "valid": 1, "fname": "FORTIS", "team": "U17", "cad": ""}, {"hr": "", "pow": "", "bib": 401, "rank": 6, "IRM": "", "gname": "MARGOT", "lat": 46.36076055903149, "nationality": "SUI", "spd": "22.85 kmh", "lon": 6.19155671319066, "valid": 1, "fname": "VESIN", "team": "W17", "cad": ""}, {"hr": "162", "pow": "74", "bib": 306, "rank": 7, "IRM": "", "gname": "THIBAUD", "lat": 46.36076181381152, "nationality": "SUI", "spd": "21.20 kmh", "lon": 6.191573507938821, "valid": 1, "fname": "ROSSIER", "team": "U17", "cad": "83"}, {"hr": "", "pow": "", "bib": 304, "rank": 8, "IRM": "", "gname": "MAXIME", "lat": 46.36076295385247, "nationality": "SUI", "spd": "21.58 kmh", "lon": 6.191591102664093, "valid": 1, "fname": "JUILLERAT", "team": "U17", "cad": ""}], "no": 1}]}