{"timestamp": 29278, "groups": [{"distance": 0, "gap": "+0:00", "athletes": [{"hr": "165", "pow": "33", "bib": 302, "rank": 1, "IRM": "", "gname": "GABRIELE", "lat": 46.360643673620245, "nationality": "SUI", "spd": "21.93 kmh", "lon": 6.1904325507722575, "valid": 1, "fname": "CERATO", "team": "U17", "cad": "85"}, {"hr": "", "pow": "", "bib": 301, "rank": 2, "IRM": "", "gname": "SYLVAIN", "lat": 46.360644246163126, "nationality": "SUI", "spd": "22.15 kmh", "lon": 6.190435960297271, "valid": 1, "fname": "BRUNNER", "team": "U17", "cad": ""}, {"hr": "166", "pow": "", "bib": 307, "rank": 3, "IRM": "", "gname": "Z\u00c9ON", "lat": 46.36064657874523, "nationality": "SUI", "spd": "21.17 kmh", "lon": 6.190449850954733, "valid": 1, "fname": "TAILLEFERT", "team": "U17", "cad": ""}, {"hr": "", "pow": "", "bib": 303, "rank": 4, "IRM": "", "gname": "DAMIEN", "lat": 46.360646748387566, "nationality": "SUI", "spd": "22.02 kmh", "lon": 6.190450861184367, "valid": 1, "fname": "FORTIS", "team": "U17", "cad": ""}, {"hr": "166", "pow": "44", "bib": 305, "rank": 5, "IRM": "", "gname": "HENRY", "lat": 46.36065001400251, "nationality": "GBR", "spd": "21.80 kmh", "lon": 6.190470308104814, "valid": 1, "fname": "LAWTON", "team": "U17", "cad": "86"}, {"hr": "", "pow": "", "bib": 401, "rank": 6, "IRM": "", "gname": "MARGOT", "lat": 46.36065137114119, "nationality": "SUI", "spd": "21.85 kmh", "lon": 6.190478389941884, "valid": 1, "fname": "VESIN", "team": "W17", "cad": ""}, {"hr": "159", "pow": "33", "bib": 306, "rank": 7, "IRM": "", "gname": "THIBAUD", "lat": 46.360654106623834, "nationality": "SUI", "spd": "21.71 kmh", "lon": 6.190494679894726, "valid": 1, "fname": "ROSSIER", "team": "U17", "cad": "85"}, {"hr": "", "pow": "", "bib": 304, "rank": 8, "IRM": "", "gname": "MAXIME", "lat": 46.36065682528016, "nationality": "SUI", "spd": "21.67 kmh", "lon": 6.190516404987088, "valid": 1, "fname": "JUILLERAT", "team": "U17", "cad": ""}], "no": 1}]}