{"timestamp": 29275, "groups": [{"distance": 0, "gap": "+0:00", "athletes": [{"hr": "166", "pow": "32", "bib": 302, "rank": 1, "IRM": "", "gname": "GABRIELE", "lat": 46.360672584310656, "nationality": "SUI", "spd": "25.26 kmh", "lon": 6.190658041705632, "valid": 1, "fname": "CERATO", "team": "U17", "cad": "94"}, {"hr": "", "pow": "", "bib": 301, "rank": 2, "IRM": "", "gname": "SYLVAIN", "lat": 46.36067411168046, "nationality": "SUI", "spd": "21.20 kmh", "lon": 6.190671769177447, "valid": 1, "fname": "BRUNNER", "team": "U17", "cad": ""}, {"hr": "167", "pow": "", "bib": 307, "rank": 3, "IRM": "", "gname": "Z\u00c9ON", "lat": 46.360674511366014, "nationality": "SUI", "spd": "21.97 kmh", "lon": 6.190675361413062, "valid": 1, "fname": "TAILLEFERT", "team": "U17", "cad": ""}, {"hr": "", "pow": "", "bib": 303, "rank": 4, "IRM": "", "gname": "DAMIEN", "lat": 46.360675639050264, "nationality": "SUI", "spd": "21.77 kmh", "lon": 6.190685496649262, "valid": 1, "fname": "FORTIS", "team": "U17", "cad": ""}, {"hr": "167", "pow": "52", "bib": 305, "rank": 5, "IRM": "", "gname": "HENRY", "lat": 46.360676766734514, "nationality": "GBR", "spd": "21.70 kmh", "lon": 6.190695631885463, "valid": 1, "fname": "LAWTON", "team": "U17", "cad": "93"}, {"hr": "", "pow": "", "bib": 401, "rank": 6, "IRM": "", "gname": "MARGOT", "lat": 46.36067855104503, "nationality": "SUI", "spd": "21.38 kmh", "lon": 6.190711668651602, "valid": 1, "fname": "VESIN", "team": "W17", "cad": ""}, {"hr": "159", "pow": "32", "bib": 306, "rank": 7, "IRM": "", "gname": "THIBAUD", "lat": 46.360680221159676, "nationality": "SUI", "spd": "25.25 kmh", "lon": 6.190726679064708, "valid": 1, "fname": "ROSSIER", "team": "U17", "cad": "93"}, {"hr": "", "pow": "", "bib": 304, "rank": 8, "IRM": "", "gname": "MAXIME", "lat": 46.36068260499852, "nationality": "SUI", "spd": "21.67 kmh", "lon": 6.190748104184271, "valid": 1, "fname": "JUILLERAT", "team": "U17", "cad": ""}], "no": 1}]}