{"timestamp": 29281, "groups": [{"distance": 0, "gap": "+0:00", "athletes": [{"hr": "", "pow": "", "bib": 301, "rank": 1, "IRM": "", "gname": "SYLVAIN", "lat": 46.3606043165986, "nationality": "SUI", "spd": "22.60 kmh", "lon": 6.190198177497254, "valid": 1, "fname": "BRUNNER", "team": "U17", "cad": ""}, {"hr": "163", "pow": "44", "bib": 302, "rank": 2, "IRM": "", "gname": "GABRIELE", "lat": 46.36060512239968, "nationality": "SUI", "spd": "22.44 kmh", "lon": 6.190202976088013, "valid": 1, "fname": "CERATO", "team": "U17", "cad": "96"}, {"hr": "166", "pow": "", "bib": 307, "rank": 3, "IRM": "", "gname": "Z\u00c9ON", "lat": 46.360607879087624, "nationality": "SUI", "spd": "21.90 kmh", "lon": 6.19021939231956, "valid": 1, "fname": "TAILLEFERT", "team": "U17", "cad": ""}, {"hr": "", "pow": "", "bib": 303, "rank": 4, "IRM": "", "gname": "DAMIEN", "lat": 46.36060804872996, "nationality": "SUI", "spd": "21.90 kmh", "lon": 6.190220402549193, "valid": 1, "fname": "FORTIS", "team": "U17", "cad": ""}, {"hr": "166", "pow": "56", "bib": 305, "rank": 5, "IRM": "", "gname": "HENRY", "lat": 46.36061099626552, "nationality": "GBR", "spd": "21.97 kmh", "lon": 6.190237955289078, "valid": 1, "fname": "LAWTON", "team": "U17", "cad": "87"}, {"hr": "", "pow": "", "bib": 401, "rank": 6, "IRM": "", "gname": "MARGOT", "lat": 46.3606118232719, "nationality": "SUI", "spd": "22.38 kmh", "lon": 6.190242880158542, "valid": 1, "fname": "VESIN", "team": "W17", "cad": ""}, {"hr": "158", "pow": "44", "bib": 306, "rank": 7, "IRM": "", "gname": "THIBAUD", "lat": 46.360614813218056, "nationality": "SUI", "spd": "22.24 kmh", "lon": 6.190260685455835, "valid": 1, "fname": "ROSSIER", "team": "U17", "cad": "87"}, {"hr": "", "pow": "", "bib": 304, "rank": 8, "IRM": "", "gname": "MAXIME", "lat": 46.36061846052825, "nationality": "SUI", "spd": "22.21 kmh", "lon": 6.190282405392958, "valid": 1, "fname": "JUILLERAT", "team": "U17", "cad": ""}], "no": 1}]}