{"timestamp": 29295, "groups": [{"distance": 0, "gap": "+0:00", "athletes": [{"hr": "162", "pow": "33", "bib": 302, "rank": 1, "IRM": "", "gname": "GABRIELE", "lat": 46.36044462104337, "nationality": "SUI", "spd": "23.37 kmh", "lon": 6.1891142959774195, "valid": 1, "fname": "CERATO", "team": "U17", "cad": "99"}, {"hr": "", "pow": "", "bib": 301, "rank": 2, "IRM": "", "gname": "SYLVAIN", "lat": 46.36044515639771, "nationality": "SUI", "spd": "22.03 kmh", "lon": 6.189118645731388, "valid": 1, "fname": "BRUNNER", "team": "U17", "cad": ""}, {"hr": "", "pow": "", "bib": 303, "rank": 3, "IRM": "", "gname": "DAMIEN", "lat": 46.36044671522357, "nationality": "SUI", "spd": "22.27 kmh", "lon": 6.189131311191471, "valid": 1, "fname": "FORTIS", "team": "U17", "cad": ""}, {"hr": "161", "pow": "", "bib": 307, "rank": 4, "IRM": "", "gname": "Z\u00c9ON", "lat": 46.360447722949374, "nationality": "SUI", "spd": "22.30 kmh", "lon": 6.189139498963647, "valid": 1, "fname": "TAILLEFERT", "team": "U17", "cad": ""}, {"hr": "", "pow": "", "bib": 401, "rank": 5, "IRM": "", "gname": "MARGOT", "lat": 46.36044866769232, "nationality": "SUI", "spd": "22.28 kmh", "lon": 6.189147175000062, "valid": 1, "fname": "VESIN", "team": "W17", "cad": ""}, {"hr": "161", "pow": "45", "bib": 305, "rank": 6, "IRM": "", "gname": "HENRY", "lat": 46.36044893536948, "nationality": "GBR", "spd": "22.10 kmh", "lon": 6.189149349877046, "valid": 1, "fname": "LAWTON", "team": "U17", "cad": "87"}, {"hr": "159", "pow": "33", "bib": 306, "rank": 7, "IRM": "", "gname": "THIBAUD", "lat": 46.360450352483895, "nationality": "SUI", "spd": "23.06 kmh", "lon": 6.189160863931668, "valid": 1, "fname": "ROSSIER", "team": "U17", "cad": "88"}, {"hr": "", "pow": "", "bib": 304, "rank": 8, "IRM": "", "gname": "MAXIME", "lat": 46.360455154927195, "nationality": "SUI", "spd": "22.31 kmh", "lon": 6.1891998837834405, "valid": 1, "fname": "JUILLERAT", "team": "U17", "cad": ""}], "no": 1}]}