{"timestamp": 29299, "groups": [{"distance": 0, "gap": "+0:00", "athletes": [{"hr": "160", "pow": "0", "bib": 302, "rank": 1, "IRM": "", "gname": "GABRIELE", "lat": 46.36041058635412, "nationality": "SUI", "spd": "23.23 kmh", "lon": 6.188787900982834, "valid": 1, "fname": "CERATO", "team": "U17", "cad": "97"}, {"hr": "", "pow": "", "bib": 301, "rank": 2, "IRM": "", "gname": "SYLVAIN", "lat": 46.36041180048284, "nationality": "SUI", "spd": "22.24 kmh", "lon": 6.18880169348501, "valid": 1, "fname": "BRUNNER", "team": "U17", "cad": ""}, {"hr": "", "pow": "", "bib": 303, "rank": 3, "IRM": "", "gname": "DAMIEN", "lat": 46.360412277056724, "nationality": "SUI", "spd": "22.76 kmh", "lon": 6.188807107364369, "valid": 1, "fname": "FORTIS", "team": "U17", "cad": ""}, {"hr": "162", "pow": "", "bib": 307, "rank": 4, "IRM": "", "gname": "Z\u00c9ON", "lat": 46.36041265150764, "nationality": "SUI", "spd": "22.84 kmh", "lon": 6.188811361126722, "valid": 1, "fname": "TAILLEFERT", "team": "U17", "cad": ""}, {"hr": "", "pow": "", "bib": 401, "rank": 5, "IRM": "", "gname": "MARGOT", "lat": 46.36041308269353, "nationality": "SUI", "spd": "23.00 kmh", "lon": 6.188816259398522, "valid": 1, "fname": "VESIN", "team": "W17", "cad": ""}, {"hr": "159", "pow": "0", "bib": 306, "rank": 6, "IRM": "", "gname": "THIBAUD", "lat": 46.36041384294235, "nationality": "SUI", "spd": "23.51 kmh", "lon": 6.188824895825118, "valid": 1, "fname": "ROSSIER", "team": "U17", "cad": "95"}, {"hr": "162", "pow": "5", "bib": 305, "rank": 7, "IRM": "", "gname": "HENRY", "lat": 46.360414342210234, "nationality": "GBR", "spd": "22.50 kmh", "lon": 6.188830567508257, "valid": 1, "fname": "LAWTON", "team": "U17", "cad": "89"}, {"hr": "", "pow": "", "bib": 304, "rank": 8, "IRM": "", "gname": "MAXIME", "lat": 46.360418801580174, "nationality": "SUI", "spd": "22.43 kmh", "lon": 6.188881225950828, "valid": 1, "fname": "JUILLERAT", "team": "U17", "cad": ""}], "no": 1}]}