{"timestamp": 29290, "groups": [{"distance": 0, "gap": "+0:00", "athletes": [{"hr": "161", "pow": "11", "bib": 302, "rank": 1, "IRM": "", "gname": "GABRIELE", "lat": 46.36049629644836, "nationality": "SUI", "spd": "21.83 kmh", "lon": 6.189502531615598, "valid": 1, "fname": "CERATO", "team": "U17", "cad": "85"}, {"hr": "", "pow": "", "bib": 301, "rank": 2, "IRM": "", "gname": "SYLVAIN", "lat": 46.360497527603705, "nationality": "SUI", "spd": "21.91 kmh", "lon": 6.1895107883857, "valid": 1, "fname": "BRUNNER", "team": "U17", "cad": ""}, {"hr": "", "pow": "", "bib": 303, "rank": 3, "IRM": "", "gname": "DAMIEN", "lat": 46.360500198263765, "nationality": "SUI", "spd": "21.59 kmh", "lon": 6.189528699225461, "valid": 1, "fname": "FORTIS", "team": "U17", "cad": ""}, {"hr": "163", "pow": "", "bib": 307, "rank": 4, "IRM": "", "gname": "Z\u00c9ON", "lat": 46.360500539199094, "nationality": "SUI", "spd": "21.56 kmh", "lon": 6.189530985715643, "valid": 1, "fname": "TAILLEFERT", "team": "U17", "cad": ""}, {"hr": "163", "pow": "22", "bib": 305, "rank": 5, "IRM": "", "gname": "HENRY", "lat": 46.36050105060208, "nationality": "GBR", "spd": "22.00 kmh", "lon": 6.189534415450916, "valid": 1, "fname": "LAWTON", "team": "U17", "cad": "86"}, {"hr": "", "pow": "", "bib": 401, "rank": 6, "IRM": "", "gname": "MARGOT", "lat": 46.36050175141359, "nationality": "SUI", "spd": "21.72 kmh", "lon": 6.189539115458513, "valid": 1, "fname": "VESIN", "team": "W17", "cad": ""}, {"hr": "159", "pow": "11", "bib": 306, "rank": 7, "IRM": "", "gname": "THIBAUD", "lat": 46.3605063161588, "nationality": "SUI", "spd": "21.61 kmh", "lon": 6.189569729021507, "valid": 1, "fname": "ROSSIER", "team": "U17", "cad": "86"}, {"hr": "", "pow": "", "bib": 304, "rank": 8, "IRM": "", "gname": "MAXIME", "lat": 46.36050906258227, "nationality": "SUI", "spd": "21.54 kmh", "lon": 6.189588147970197, "valid": 1, "fname": "JUILLERAT", "team": "U17", "cad": ""}], "no": 1}]}