{"timestamp": 29292, "groups": [{"distance": 0, "gap": "+0:00", "athletes": [{"hr": "162", "pow": "56", "bib": 302, "rank": 1, "IRM": "", "gname": "GABRIELE", "lat": 46.36047332548314, "nationality": "SUI", "spd": "22.11 kmh", "lon": 6.189347519550479, "valid": 1, "fname": "CERATO", "team": "U17", "cad": "87"}, {"hr": "", "pow": "", "bib": 301, "rank": 2, "IRM": "", "gname": "SYLVAIN", "lat": 46.36047407882955, "nationality": "SUI", "spd": "22.12 kmh", "lon": 6.189353528672061, "valid": 1, "fname": "BRUNNER", "team": "U17", "cad": ""}, {"hr": "", "pow": "", "bib": 303, "rank": 3, "IRM": "", "gname": "DAMIEN", "lat": 46.360476332790874, "nationality": "SUI", "spd": "22.46 kmh", "lon": 6.18936864491271, "valid": 1, "fname": "FORTIS", "team": "U17", "cad": ""}, {"hr": "161", "pow": "", "bib": 307, "rank": 4, "IRM": "", "gname": "Z\u00c9ON", "lat": 46.36047758288708, "nationality": "SUI", "spd": "21.58 kmh", "lon": 6.1893770287100445, "valid": 1, "fname": "TAILLEFERT", "team": "U17", "cad": ""}, {"hr": "161", "pow": "68", "bib": 305, "rank": 5, "IRM": "", "gname": "HENRY", "lat": 46.36047839734369, "nationality": "GBR", "spd": "21.80 kmh", "lon": 6.189382490881035, "valid": 1, "fname": "LAWTON", "team": "U17", "cad": "86"}, {"hr": "", "pow": "", "bib": 401, "rank": 6, "IRM": "", "gname": "MARGOT", "lat": 46.360478700397316, "nationality": "SUI", "spd": "21.88 kmh", "lon": 6.189384523316752, "valid": 1, "fname": "VESIN", "team": "W17", "cad": ""}, {"hr": "159", "pow": "56", "bib": 306, "rank": 7, "IRM": "", "gname": "THIBAUD", "lat": 46.36048195822377, "nationality": "SUI", "spd": "22.76 kmh", "lon": 6.1894063720007155, "valid": 1, "fname": "ROSSIER", "team": "U17", "cad": "87"}, {"hr": "", "pow": "", "bib": 304, "rank": 8, "IRM": "", "gname": "MAXIME", "lat": 46.360486541909836, "nationality": "SUI", "spd": "21.30 kmh", "lon": 6.189437112590942, "valid": 1, "fname": "JUILLERAT", "team": "U17", "cad": ""}], "no": 1}]}