{"timestamp": 29316, "groups": [{"distance": 0, "gap": "+0:00", "athletes": [{"hr": "159", "pow": "16", "bib": 302, "rank": 1, "IRM": "", "gname": "GABRIELE", "lat": 46.36051899756576, "nationality": "SUI", "spd": "24.61 kmh", "lon": 6.187369889778828, "valid": 1, "fname": "CERATO", "team": "U17", "cad": "97"}, {"hr": "", "pow": "", "bib": 301, "rank": 2, "IRM": "", "gname": "SYLVAIN", "lat": 46.36051576315392, "nationality": "SUI", "spd": "24.79 kmh", "lon": 6.187384493638347, "valid": 1, "fname": "BRUNNER", "team": "U17", "cad": ""}, {"hr": "", "pow": "", "bib": 303, "rank": 3, "IRM": "", "gname": "DAMIEN", "lat": 46.36051474897394, "nationality": "SUI", "spd": "24.64 kmh", "lon": 6.1873890728146375, "valid": 1, "fname": "FORTIS", "team": "U17", "cad": ""}, {"hr": "159", "pow": "", "bib": 307, "rank": 4, "IRM": "", "gname": "Z\u00c9ON", "lat": 46.3605135155118, "nationality": "SUI", "spd": "24.29 kmh", "lon": 6.187394642083098, "valid": 1, "fname": "TAILLEFERT", "team": "U17", "cad": ""}, {"hr": "157", "pow": "16", "bib": 306, "rank": 5, "IRM": "", "gname": "THIBAUD", "lat": 46.360510281099955, "nationality": "SUI", "spd": "24.05 kmh", "lon": 6.187409245942617, "valid": 1, "fname": "ROSSIER", "team": "U17", "cad": "93"}, {"hr": "", "pow": "", "bib": 401, "rank": 6, "IRM": "", "gname": "MARGOT", "lat": 46.36050600509786, "nationality": "SUI", "spd": "24.35 kmh", "lon": 6.187428552739949, "valid": 1, "fname": "VESIN", "team": "W17", "cad": ""}, {"hr": "", "pow": "", "bib": 304, "rank": 7, "IRM": "", "gname": "MAXIME", "lat": 46.360500687505514, "nationality": "SUI", "spd": "24.18 kmh", "lon": 6.18745256247509, "valid": 1, "fname": "JUILLERAT", "team": "U17", "cad": ""}, {"hr": "159", "pow": "14", "bib": 305, "rank": 8, "IRM": "", "gname": "HENRY", "lat": 46.36050055045417, "nationality": "GBR", "spd": "24.17 kmh", "lon": 6.187453181282697, "valid": 1, "fname": "LAWTON", "team": "U17", "cad": "96"}], "no": 1}]}