{"timestamp": 29314, "groups": [{"distance": 0, "gap": "+0:00", "athletes": [{"hr": "160", "pow": "7", "bib": 302, "rank": 1, "IRM": "", "gname": "GABRIELE", "lat": 46.36048218557338, "nationality": "SUI", "spd": "24.32 kmh", "lon": 6.187536101502003, "valid": 1, "fname": "CERATO", "team": "U17", "cad": "96"}, {"hr": "", "pow": "", "bib": 301, "rank": 2, "IRM": "", "gname": "SYLVAIN", "lat": 46.36047791324527, "nationality": "SUI", "spd": "24.12 kmh", "lon": 6.187555544385956, "valid": 1, "fname": "BRUNNER", "team": "U17", "cad": ""}, {"hr": "", "pow": "", "bib": 303, "rank": 3, "IRM": "", "gname": "DAMIEN", "lat": 46.36047730785035, "nationality": "SUI", "spd": "24.32 kmh", "lon": 6.187559343239046, "valid": 1, "fname": "FORTIS", "team": "U17", "cad": ""}, {"hr": "159", "pow": "", "bib": 307, "rank": 4, "IRM": "", "gname": "Z\u00c9ON", "lat": 46.360476702455436, "nationality": "SUI", "spd": "24.23 kmh", "lon": 6.187563142092137, "valid": 1, "fname": "TAILLEFERT", "team": "U17", "cad": ""}, {"hr": "157", "pow": "7", "bib": 306, "rank": 5, "IRM": "", "gname": "THIBAUD", "lat": 46.36047492663035, "nationality": "SUI", "spd": "24.02 kmh", "lon": 6.187574285394535, "valid": 1, "fname": "ROSSIER", "team": "U17", "cad": "92"}, {"hr": "", "pow": "", "bib": 401, "rank": 6, "IRM": "", "gname": "MARGOT", "lat": 46.360471173181885, "nationality": "SUI", "spd": "23.38 kmh", "lon": 6.187597838283697, "valid": 1, "fname": "VESIN", "team": "W17", "cad": ""}, {"hr": "159", "pow": "30", "bib": 305, "rank": 7, "IRM": "", "gname": "HENRY", "lat": 46.360467238114936, "nationality": "GBR", "spd": "23.43 kmh", "lon": 6.187622530828785, "valid": 1, "fname": "LAWTON", "team": "U17", "cad": "95"}, {"hr": "", "pow": "", "bib": 304, "rank": 8, "IRM": "", "gname": "MAXIME", "lat": 46.36046715739561, "nationality": "SUI", "spd": "22.96 kmh", "lon": 6.18762303734253, "valid": 1, "fname": "JUILLERAT", "team": "U17", "cad": ""}], "no": 1}]}