{"timestamp": 29322, "groups": [{"distance": 0, "gap": "+0:00", "athletes": [{"hr": "165", "pow": "37", "bib": 302, "rank": 1, "IRM": "", "gname": "GABRIELE", "lat": 46.36066793800154, "nationality": "SUI", "spd": "24.96 kmh", "lon": 6.186878619611133, "valid": 1, "fname": "CERATO", "team": "U17", "cad": "97"}, {"hr": "", "pow": "", "bib": 303, "rank": 2, "IRM": "", "gname": "DAMIEN", "lat": 46.36066472281471, "nationality": "SUI", "spd": "25.25 kmh", "lon": 6.1868874819850905, "valid": 1, "fname": "FORTIS", "team": "U17", "cad": ""}, {"hr": "", "pow": "", "bib": 301, "rank": 3, "IRM": "", "gname": "SYLVAIN", "lat": 46.360657248549224, "nationality": "SUI", "spd": "23.65 kmh", "lon": 6.186908084127147, "valid": 1, "fname": "BRUNNER", "team": "U17", "cad": ""}, {"hr": "160", "pow": "", "bib": 307, "rank": 4, "IRM": "", "gname": "Z\u00c9ON", "lat": 46.36065549481095, "nationality": "SUI", "spd": "24.59 kmh", "lon": 6.186912918149306, "valid": 1, "fname": "TAILLEFERT", "team": "U17", "cad": ""}, {"hr": "158", "pow": "37", "bib": 306, "rank": 5, "IRM": "", "gname": "THIBAUD", "lat": 46.360654868475855, "nationality": "SUI", "spd": "24.76 kmh", "lon": 6.186914644585791, "valid": 1, "fname": "ROSSIER", "team": "U17", "cad": "104"}, {"hr": "", "pow": "", "bib": 401, "rank": 6, "IRM": "", "gname": "MARGOT", "lat": 46.36064309337603, "nationality": "SUI", "spd": "24.18 kmh", "lon": 6.186947101591714, "valid": 1, "fname": "VESIN", "team": "W17", "cad": ""}, {"hr": "", "pow": "49", "bib": 305, "rank": 7, "IRM": "", "gname": "HENRY", "lat": 46.360636997047756, "nationality": "GBR", "spd": "24.83 kmh", "lon": 6.186963905573503, "valid": 1, "fname": "LAWTON", "team": "U17", "cad": "104"}, {"hr": "", "pow": "", "bib": 304, "rank": 8, "IRM": "", "gname": "MAXIME", "lat": 46.360636370712655, "nationality": "SUI", "spd": "24.18 kmh", "lon": 6.186965632009988, "valid": 1, "fname": "JUILLERAT", "team": "U17", "cad": ""}], "no": 1}]}