{"timestamp": 29325, "groups": [{"distance": 0, "gap": "+0:00", "athletes": [{"hr": "163", "pow": "26", "bib": 302, "rank": 1, "IRM": "", "gname": "GABRIELE", "lat": 46.36076919482591, "nationality": "SUI", "spd": "25.27 kmh", "lon": 6.18664022302596, "valid": 1, "fname": "CERATO", "team": "U17", "cad": "102"}, {"hr": "", "pow": "", "bib": 303, "rank": 2, "IRM": "", "gname": "DAMIEN", "lat": 46.36076526499327, "nationality": "SUI", "spd": "25.84 kmh", "lon": 6.1866487761911255, "valid": 1, "fname": "FORTIS", "team": "U17", "cad": ""}, {"hr": "162", "pow": "", "bib": 307, "rank": 3, "IRM": "", "gname": "Z\u00c9ON", "lat": 46.360752828814014, "nationality": "SUI", "spd": "25.49 kmh", "lon": 6.1866758431695, "valid": 1, "fname": "TAILLEFERT", "team": "U17", "cad": ""}, {"hr": "159", "pow": "26", "bib": 306, "rank": 4, "IRM": "", "gname": "THIBAUD", "lat": 46.360751983153826, "nationality": "SUI", "spd": "25.46 kmh", "lon": 6.186677683724029, "valid": 1, "fname": "ROSSIER", "team": "U17", "cad": "105"}, {"hr": "", "pow": "", "bib": 301, "rank": 5, "IRM": "", "gname": "SYLVAIN", "lat": 46.36075173443024, "nationality": "SUI", "spd": "24.72 kmh", "lon": 6.186678225063597, "valid": 1, "fname": "BRUNNER", "team": "U17", "cad": ""}, {"hr": "", "pow": "", "bib": 401, "rank": 6, "IRM": "", "gname": "MARGOT", "lat": 46.36073636331268, "nationality": "SUI", "spd": "25.08 kmh", "lon": 6.186711679848866, "valid": 1, "fname": "VESIN", "team": "W17", "cad": ""}, {"hr": "", "pow": "67", "bib": 305, "rank": 7, "IRM": "", "gname": "HENRY", "lat": 46.36072830466853, "nationality": "GBR", "spd": "24.47 kmh", "lon": 6.186729219250853, "valid": 1, "fname": "LAWTON", "team": "U17", "cad": "105"}, {"hr": "", "pow": "", "bib": 304, "rank": 8, "IRM": "", "gname": "MAXIME", "lat": 46.36072626513513, "nationality": "SUI", "spd": "24.58 kmh", "lon": 6.186733658235306, "valid": 1, "fname": "JUILLERAT", "team": "U17", "cad": ""}], "no": 1}]}