{"timestamp": 29328, "groups": [{"distance": 0, "gap": "+0:00", "athletes": [{"hr": "159", "pow": "35", "bib": 302, "rank": 1, "IRM": "", "gname": "GABRIELE", "lat": 46.36087960594425, "nationality": "SUI", "spd": "25.90 kmh", "lon": 6.18641689320508, "valid": 1, "fname": "CERATO", "team": "U17", "cad": "93"}, {"hr": "", "pow": "", "bib": 303, "rank": 2, "IRM": "", "gname": "DAMIEN", "lat": 46.36087606814821, "nationality": "SUI", "spd": "25.52 kmh", "lon": 6.186423618204763, "valid": 1, "fname": "FORTIS", "team": "U17", "cad": ""}, {"hr": "160", "pow": "35", "bib": 306, "rank": 3, "IRM": "", "gname": "THIBAUD", "lat": 46.36086218910219, "nationality": "SUI", "spd": "25.67 kmh", "lon": 6.186450000895827, "valid": 1, "fname": "ROSSIER", "team": "U17", "cad": "93"}, {"hr": "", "pow": "", "bib": 301, "rank": 4, "IRM": "", "gname": "SYLVAIN", "lat": 46.36086088283904, "nationality": "SUI", "spd": "25.44 kmh", "lon": 6.186452483972633, "valid": 1, "fname": "BRUNNER", "team": "U17", "cad": ""}, {"hr": "162", "pow": "", "bib": 307, "rank": 5, "IRM": "", "gname": "Z\u00c9ON", "lat": 46.36086077398378, "nationality": "SUI", "spd": "25.15 kmh", "lon": 6.1864526908957, "valid": 1, "fname": "TAILLEFERT", "team": "U17", "cad": ""}, {"hr": "", "pow": "", "bib": 401, "rank": 6, "IRM": "", "gname": "MARGOT", "lat": 46.36084531653646, "nationality": "SUI", "spd": "25.72 kmh", "lon": 6.186482073971238, "valid": 1, "fname": "VESIN", "team": "W17", "cad": ""}, {"hr": "", "pow": "14", "bib": 305, "rank": 7, "IRM": "", "gname": "HENRY", "lat": 46.36083883964832, "nationality": "GBR", "spd": "25.63 kmh", "lon": 6.1864943858937345, "valid": 1, "fname": "LAWTON", "team": "U17", "cad": "106"}, {"hr": "", "pow": "", "bib": 304, "rank": 8, "IRM": "", "gname": "MAXIME", "lat": 46.360834975286494, "nationality": "SUI", "spd": "25.87 kmh", "lon": 6.186501731662618, "valid": 1, "fname": "JUILLERAT", "team": "U17", "cad": ""}], "no": 1}]}