{"timestamp": 29321, "groups": [{"distance": 0, "gap": "+0:00", "athletes": [{"hr": "162", "pow": "48", "bib": 302, "rank": 1, "IRM": "", "gname": "GABRIELE", "lat": 46.360638709030354, "nationality": "SUI", "spd": "24.90 kmh", "lon": 6.18695918664711, "valid": 1, "fname": "CERATO", "team": "U17", "cad": "97"}, {"hr": "", "pow": "", "bib": 303, "rank": 2, "IRM": "", "gname": "DAMIEN", "lat": 46.36063545208785, "nationality": "SUI", "spd": "25.30 kmh", "lon": 6.186968164116833, "valid": 1, "fname": "FORTIS", "team": "U17", "cad": ""}, {"hr": "", "pow": "", "bib": 301, "rank": 3, "IRM": "", "gname": "SYLVAIN", "lat": 46.36062960629361, "nationality": "SUI", "spd": "23.71 kmh", "lon": 6.1869842775240285, "valid": 1, "fname": "BRUNNER", "team": "U17", "cad": ""}, {"hr": "160", "pow": "", "bib": 307, "rank": 4, "IRM": "", "gname": "Z\u00c9ON", "lat": 46.36062630759543, "nationality": "SUI", "spd": "23.94 kmh", "lon": 6.186993370089517, "valid": 1, "fname": "TAILLEFERT", "team": "U17", "cad": ""}, {"hr": "157", "pow": "48", "bib": 306, "rank": 5, "IRM": "", "gname": "THIBAUD", "lat": 46.36062630759543, "nationality": "SUI", "spd": "24.97 kmh", "lon": 6.186993370089517, "valid": 1, "fname": "ROSSIER", "team": "U17", "cad": "94"}, {"hr": "", "pow": "", "bib": 401, "rank": 6, "IRM": "", "gname": "MARGOT", "lat": 46.36061579425511, "nationality": "SUI", "spd": "24.23 kmh", "lon": 6.187024834162052, "valid": 1, "fname": "VESIN", "team": "W17", "cad": ""}, {"hr": "", "pow": "", "bib": 304, "rank": 7, "IRM": "", "gname": "MAXIME", "lat": 46.36061032762494, "nationality": "SUI", "spd": "24.40 kmh", "lon": 6.187042511966104, "valid": 1, "fname": "JUILLERAT", "team": "U17", "cad": ""}, {"hr": "", "pow": "19", "bib": 305, "rank": 8, "IRM": "", "gname": "HENRY", "lat": 46.36060930033874, "nationality": "GBR", "spd": "24.83 kmh", "lon": 6.18704583396955, "valid": 1, "fname": "LAWTON", "team": "U17", "cad": "97"}], "no": 1}]}