{"timestamp": 29336, "groups": [{"distance": 0, "gap": "+0:00", "athletes": [{"hr": "157", "pow": "20", "bib": 302, "rank": 1, "IRM": "", "gname": "GABRIELE", "lat": 46.36123841975678, "nationality": "SUI", "spd": "25.98 kmh", "lon": 6.185870400472677, "valid": 1, "fname": "CERATO", "team": "U17", "cad": "103"}, {"hr": "", "pow": "", "bib": 303, "rank": 2, "IRM": "", "gname": "DAMIEN", "lat": 46.3612296092682, "nationality": "SUI", "spd": "25.87 kmh", "lon": 6.185882848840409, "valid": 1, "fname": "FORTIS", "team": "U17", "cad": ""}, {"hr": "159", "pow": "20", "bib": 306, "rank": 3, "IRM": "", "gname": "THIBAUD", "lat": 46.36121758327284, "nationality": "SUI", "spd": "26.27 kmh", "lon": 6.1858998404080445, "valid": 1, "fname": "ROSSIER", "team": "U17", "cad": "103"}, {"hr": "161", "pow": "", "bib": 307, "rank": 4, "IRM": "", "gname": "Z\u00c9ON", "lat": 46.36121018760725, "nationality": "SUI", "spd": "26.70 kmh", "lon": 6.18591028976782, "valid": 1, "fname": "TAILLEFERT", "team": "U17", "cad": ""}, {"hr": "", "pow": "", "bib": 301, "rank": 5, "IRM": "", "gname": "SYLVAIN", "lat": 46.361209094334946, "nationality": "SUI", "spd": "25.61 kmh", "lon": 6.185911834455787, "valid": 1, "fname": "BRUNNER", "team": "U17", "cad": ""}, {"hr": "", "pow": "", "bib": 401, "rank": 6, "IRM": "", "gname": "MARGOT", "lat": 46.36119693971931, "nationality": "SUI", "spd": "25.09 kmh", "lon": 6.185929007751418, "valid": 1, "fname": "VESIN", "team": "W17", "cad": ""}, {"hr": "160", "pow": "34", "bib": 305, "rank": 7, "IRM": "", "gname": "HENRY", "lat": 46.36119687540918, "nationality": "GBR", "spd": "26.07 kmh", "lon": 6.185929098615416, "valid": 1, "fname": "LAWTON", "team": "U17", "cad": "103"}, {"hr": "", "pow": "", "bib": 304, "rank": 8, "IRM": "", "gname": "MAXIME", "lat": 46.361185685445584, "nationality": "SUI", "spd": "26.23 kmh", "lon": 6.185944908951077, "valid": 1, "fname": "JUILLERAT", "team": "U17", "cad": ""}], "no": 1}]}