{"timestamp": 29333, "groups": [{"distance": 0, "gap": "+0:00", "athletes": [{"hr": "155", "pow": "22", "bib": 302, "rank": 1, "IRM": "", "gname": "GABRIELE", "lat": 46.3610990967574, "nationality": "SUI", "spd": "25.84 kmh", "lon": 6.186069555831477, "valid": 1, "fname": "CERATO", "team": "U17", "cad": "101"}, {"hr": "", "pow": "", "bib": 303, "rank": 2, "IRM": "", "gname": "DAMIEN", "lat": 46.36109195846956, "nationality": "SUI", "spd": "26.04 kmh", "lon": 6.186080191880351, "valid": 1, "fname": "FORTIS", "team": "U17", "cad": ""}, {"hr": "159", "pow": "22", "bib": 306, "rank": 3, "IRM": "", "gname": "THIBAUD", "lat": 46.36107818282637, "nationality": "SUI", "spd": "26.10 kmh", "lon": 6.1861007175887055, "valid": 1, "fname": "ROSSIER", "team": "U17", "cad": "97"}, {"hr": "", "pow": "", "bib": 301, "rank": 4, "IRM": "", "gname": "SYLVAIN", "lat": 46.36107336135125, "nationality": "SUI", "spd": "25.80 kmh", "lon": 6.18610790158663, "valid": 1, "fname": "BRUNNER", "team": "U17", "cad": ""}, {"hr": "162", "pow": "", "bib": 307, "rank": 5, "IRM": "", "gname": "Z\u00c9ON", "lat": 46.361068727725815, "nationality": "SUI", "spd": "25.19 kmh", "lon": 6.186114805688531, "valid": 1, "fname": "TAILLEFERT", "team": "U17", "cad": ""}, {"hr": "", "pow": "", "bib": 401, "rank": 6, "IRM": "", "gname": "MARGOT", "lat": 46.3610642193335, "nationality": "SUI", "spd": "26.77 kmh", "lon": 6.1861215231930835, "valid": 1, "fname": "VESIN", "team": "W17", "cad": ""}, {"hr": "159", "pow": "36", "bib": 305, "rank": 7, "IRM": "", "gname": "HENRY", "lat": 46.361061338971744, "nationality": "GBR", "spd": "27.27 kmh", "lon": 6.186125814932103, "valid": 1, "fname": "LAWTON", "team": "U17", "cad": "94"}, {"hr": "", "pow": "", "bib": 304, "rank": 8, "IRM": "", "gname": "MAXIME", "lat": 46.36104731286231, "nationality": "SUI", "spd": "25.87 kmh", "lon": 6.186146713835155, "valid": 1, "fname": "JUILLERAT", "team": "U17", "cad": ""}], "no": 1}]}