{"timestamp": 29334, "groups": [{"distance": 0, "gap": "+0:00", "athletes": [{"hr": "156", "pow": "71", "bib": 302, "rank": 1, "IRM": "", "gname": "GABRIELE", "lat": 46.36114433402839, "nationality": "SUI", "spd": "25.98 kmh", "lon": 6.186003334501822, "valid": 1, "fname": "CERATO", "team": "U17", "cad": "100"}, {"hr": "", "pow": "", "bib": 303, "rank": 2, "IRM": "", "gname": "DAMIEN", "lat": 46.36113642388171, "nationality": "SUI", "spd": "25.96 kmh", "lon": 6.186014510773583, "valid": 1, "fname": "FORTIS", "team": "U17", "cad": ""}, {"hr": "158", "pow": "12", "bib": 306, "rank": 3, "IRM": "", "gname": "THIBAUD", "lat": 46.36112408076482, "nationality": "SUI", "spd": "26.35 kmh", "lon": 6.186032329660415, "valid": 1, "fname": "ROSSIER", "team": "U17", "cad": "98"}, {"hr": "", "pow": "", "bib": 301, "rank": 4, "IRM": "", "gname": "SYLVAIN", "lat": 46.361117380792905, "nationality": "SUI", "spd": "25.63 kmh", "lon": 6.18604231261857, "valid": 1, "fname": "BRUNNER", "team": "U17", "cad": ""}, {"hr": "162", "pow": "", "bib": 307, "rank": 5, "IRM": "", "gname": "Z\u00c9ON", "lat": 46.361116566777625, "nationality": "SUI", "spd": "26.08 kmh", "lon": 6.1860435255013355, "valid": 1, "fname": "TAILLEFERT", "team": "U17", "cad": ""}, {"hr": "", "pow": "", "bib": 401, "rank": 6, "IRM": "", "gname": "MARGOT", "lat": 46.361106735977714, "nationality": "SUI", "spd": "25.99 kmh", "lon": 6.186058173393207, "valid": 1, "fname": "VESIN", "team": "W17", "cad": ""}, {"hr": "159", "pow": "26", "bib": 305, "rank": 7, "IRM": "", "gname": "HENRY", "lat": 46.361106548128035, "nationality": "GBR", "spd": "27.17 kmh", "lon": 6.18605845328923, "valid": 1, "fname": "LAWTON", "team": "U17", "cad": "92"}, {"hr": "", "pow": "", "bib": 304, "rank": 8, "IRM": "", "gname": "MAXIME", "lat": 46.36109289771796, "nationality": "SUI", "spd": "26.09 kmh", "lon": 6.186078792400236, "valid": 1, "fname": "JUILLERAT", "team": "U17", "cad": ""}], "no": 1}]}