{"timestamp": 29342, "groups": [{"distance": 0, "gap": "+0:00", "athletes": [{"hr": "161", "pow": "42", "bib": 302, "rank": 1, "IRM": "", "gname": "GABRIELE", "lat": 46.36151691216256, "nationality": "SUI", "spd": "26.58 kmh", "lon": 6.185473665630733, "valid": 1, "fname": "CERATO", "team": "U17", "cad": "98"}, {"hr": "", "pow": "", "bib": 303, "rank": 2, "IRM": "", "gname": "DAMIEN", "lat": 46.36151345615373, "nationality": "SUI", "spd": "26.57 kmh", "lon": 6.185478596891093, "valid": 1, "fname": "FORTIS", "team": "U17", "cad": ""}, {"hr": "162", "pow": "42", "bib": 306, "rank": 3, "IRM": "", "gname": "THIBAUD", "lat": 46.361499312117594, "nationality": "SUI", "spd": "26.48 kmh", "lon": 6.185498778530715, "valid": 1, "fname": "ROSSIER", "team": "U17", "cad": "104"}, {"hr": "162", "pow": "", "bib": 307, "rank": 4, "IRM": "", "gname": "Z\u00c9ON", "lat": 46.36149425610468, "nationality": "SUI", "spd": "26.23 kmh", "lon": 6.185505992781983, "valid": 1, "fname": "TAILLEFERT", "team": "U17", "cad": ""}, {"hr": "", "pow": "", "bib": 301, "rank": 5, "IRM": "", "gname": "SYLVAIN", "lat": 46.36148913609159, "nationality": "SUI", "spd": "26.51 kmh", "lon": 6.1855132983528875, "valid": 1, "fname": "BRUNNER", "team": "U17", "cad": ""}, {"hr": "", "pow": "", "bib": 401, "rank": 6, "IRM": "", "gname": "MARGOT", "lat": 46.36147217604826, "nationality": "SUI", "spd": "25.25 kmh", "lon": 6.185537498056507, "valid": 1, "fname": "VESIN", "team": "W17", "cad": ""}, {"hr": "157", "pow": "56", "bib": 305, "rank": 7, "IRM": "", "gname": "HENRY", "lat": 46.361465008029946, "nationality": "GBR", "spd": "26.27 kmh", "lon": 6.1855477258557725, "valid": 1, "fname": "LAWTON", "team": "U17", "cad": "104"}, {"hr": "", "pow": "", "bib": 304, "rank": 8, "IRM": "", "gname": "MAXIME", "lat": 46.361462000022264, "nationality": "SUI", "spd": "26.28 kmh", "lon": 6.1855520178786785, "valid": 1, "fname": "JUILLERAT", "team": "U17", "cad": ""}], "no": 1}]}