{"timestamp": 29356, "groups": [{"distance": 0, "gap": "+0:00", "athletes": [{"hr": "161", "pow": "30", "bib": 302, "rank": 1, "IRM": "", "gname": "GABRIELE", "lat": 46.36220784187057, "nationality": "SUI", "spd": "29.43 kmh", "lon": 6.184478954340548, "valid": 1, "fname": "CERATO", "team": "U17", "cad": "104"}, {"hr": "", "pow": "", "bib": 303, "rank": 2, "IRM": "", "gname": "DAMIEN", "lat": 46.36220702033956, "nationality": "SUI", "spd": "28.99 kmh", "lon": 6.184480156631523, "valid": 1, "fname": "FORTIS", "team": "U17", "cad": ""}, {"hr": "164", "pow": "13", "bib": 306, "rank": 3, "IRM": "", "gname": "THIBAUD", "lat": 46.362196150852355, "nationality": "SUI", "spd": "29.04 kmh", "lon": 6.1844960638659545, "valid": 1, "fname": "ROSSIER", "team": "U17", "cad": "105"}, {"hr": "161", "pow": "", "bib": 307, "rank": 4, "IRM": "", "gname": "Z\u00c9ON", "lat": 46.362186039701456, "nationality": "SUI", "spd": "29.12 kmh", "lon": 6.184510861293334, "valid": 1, "fname": "TAILLEFERT", "team": "U17", "cad": ""}, {"hr": "", "pow": "", "bib": 301, "rank": 5, "IRM": "", "gname": "SYLVAIN", "lat": 46.36218155287825, "nationality": "SUI", "spd": "28.48 kmh", "lon": 6.184517427651733, "valid": 1, "fname": "BRUNNER", "team": "U17", "cad": ""}, {"hr": "", "pow": "", "bib": 304, "rank": 6, "IRM": "", "gname": "MAXIME", "lat": 46.36216417433765, "nationality": "SUI", "spd": "28.54 kmh", "lon": 6.184542860730041, "valid": 1, "fname": "JUILLERAT", "team": "U17", "cad": ""}, {"hr": "157", "pow": "44", "bib": 305, "rank": 7, "IRM": "", "gname": "HENRY", "lat": 46.36216328961195, "nationality": "GBR", "spd": "29.13 kmh", "lon": 6.184544155504936, "valid": 1, "fname": "LAWTON", "team": "U17", "cad": "97"}, {"hr": "", "pow": "", "bib": 401, "rank": 8, "IRM": "", "gname": "MARGOT", "lat": 46.36214900761131, "nationality": "SUI", "spd": "28.03 kmh", "lon": 6.184565056871109, "valid": 1, "fname": "VESIN", "team": "W17", "cad": ""}], "no": 1}]}