{"timestamp": 29352, "groups": [{"distance": 0, "gap": "+0:00", "athletes": [{"hr": "161", "pow": "3", "bib": 302, "rank": 1, "IRM": "", "gname": "GABRIELE", "lat": 46.36200631981923, "nationality": "SUI", "spd": "28.50 kmh", "lon": 6.184770761198357, "valid": 1, "fname": "CERATO", "team": "U17", "cad": "103"}, {"hr": "", "pow": "", "bib": 303, "rank": 2, "IRM": "", "gname": "DAMIEN", "lat": 46.362001814148684, "nationality": "SUI", "spd": "27.97 kmh", "lon": 6.1847771158940725, "valid": 1, "fname": "FORTIS", "team": "U17", "cad": ""}, {"hr": "164", "pow": "3", "bib": 306, "rank": 3, "IRM": "", "gname": "THIBAUD", "lat": 46.36199087180594, "nationality": "SUI", "spd": "28.46 kmh", "lon": 6.184792548726524, "valid": 1, "fname": "ROSSIER", "team": "U17", "cad": "22"}, {"hr": "162", "pow": "", "bib": 307, "rank": 4, "IRM": "", "gname": "Z\u00c9ON", "lat": 46.36198366273308, "nationality": "SUI", "spd": "27.46 kmh", "lon": 6.184802716239667, "valid": 1, "fname": "TAILLEFERT", "team": "U17", "cad": ""}, {"hr": "", "pow": "", "bib": 301, "rank": 5, "IRM": "", "gname": "SYLVAIN", "lat": 46.361981538631255, "nationality": "SUI", "spd": "28.19 kmh", "lon": 6.18480571202479, "valid": 1, "fname": "BRUNNER", "team": "U17", "cad": ""}, {"hr": "158", "pow": "17", "bib": 305, "rank": 6, "IRM": "", "gname": "HENRY", "lat": 46.36197188362296, "nationality": "GBR", "spd": "29.07 kmh", "lon": 6.184819329229894, "valid": 1, "fname": "LAWTON", "team": "U17", "cad": "95"}, {"hr": "", "pow": "", "bib": 304, "rank": 7, "IRM": "", "gname": "MAXIME", "lat": 46.361961971147764, "nationality": "SUI", "spd": "28.66 kmh", "lon": 6.184833309560467, "valid": 1, "fname": "JUILLERAT", "team": "U17", "cad": ""}, {"hr": "", "pow": "", "bib": 401, "rank": 8, "IRM": "", "gname": "MARGOT", "lat": 46.36195006330419, "nationality": "SUI", "spd": "27.60 kmh", "lon": 6.184850104113428, "valid": 1, "fname": "VESIN", "team": "W17", "cad": ""}], "no": 1}]}