{"timestamp": 29357, "groups": [{"distance": 0, "gap": "+0:00", "athletes": [{"hr": "", "pow": "", "bib": 303, "rank": 1, "IRM": "", "gname": "DAMIEN", "lat": 46.36225871359851, "nationality": "SUI", "spd": "29.21 kmh", "lon": 6.184404504784048, "valid": 1, "fname": "FORTIS", "team": "U17", "cad": ""}, {"hr": "160", "pow": "21", "bib": 302, "rank": 2, "IRM": "", "gname": "GABRIELE", "lat": 46.36225820804096, "nationality": "SUI", "spd": "29.40 kmh", "lon": 6.184405244655417, "valid": 1, "fname": "CERATO", "team": "U17", "cad": "101"}, {"hr": "164", "pow": "21", "bib": 306, "rank": 3, "IRM": "", "gname": "THIBAUD", "lat": 46.362247717721914, "nationality": "SUI", "spd": "29.16 kmh", "lon": 6.184420596986323, "valid": 1, "fname": "ROSSIER", "team": "U17", "cad": "106"}, {"hr": "160", "pow": "", "bib": 307, "rank": 4, "IRM": "", "gname": "Z\u00c9ON", "lat": 46.362236469066545, "nationality": "SUI", "spd": "28.90 kmh", "lon": 6.184437059124281, "valid": 1, "fname": "TAILLEFERT", "team": "U17", "cad": ""}, {"hr": "", "pow": "", "bib": 301, "rank": 5, "IRM": "", "gname": "SYLVAIN", "lat": 46.362232487800874, "nationality": "SUI", "spd": "28.60 kmh", "lon": 6.184442885611312, "valid": 1, "fname": "BRUNNER", "team": "U17", "cad": ""}, {"hr": "156", "pow": "35", "bib": 305, "rank": 6, "IRM": "", "gname": "HENRY", "lat": 46.36221706829576, "nationality": "GBR", "spd": "29.30 kmh", "lon": 6.184465451688065, "valid": 1, "fname": "LAWTON", "team": "U17", "cad": "106"}, {"hr": "", "pow": "", "bib": 304, "rank": 7, "IRM": "", "gname": "MAXIME", "lat": 46.36221277105663, "nationality": "SUI", "spd": "28.12 kmh", "lon": 6.1844717405947005, "valid": 1, "fname": "JUILLERAT", "team": "U17", "cad": ""}, {"hr": "", "pow": "", "bib": 401, "rank": 8, "IRM": "", "gname": "MARGOT", "lat": 46.36219874183477, "nationality": "SUI", "spd": "28.16 kmh", "lon": 6.184492272025189, "valid": 1, "fname": "VESIN", "team": "W17", "cad": ""}], "no": 1}]}