{"timestamp": 29354, "groups": [{"distance": 0, "gap": "+0:00", "athletes": [{"hr": "161", "pow": "0", "bib": 302, "rank": 1, "IRM": "", "gname": "GABRIELE", "lat": 46.36210780467142, "nationality": "SUI", "spd": "28.93 kmh", "lon": 6.184625356387678, "valid": 1, "fname": "CERATO", "team": "U17", "cad": "106"}, {"hr": "", "pow": "", "bib": 303, "rank": 2, "IRM": "", "gname": "DAMIEN", "lat": 46.36210489771553, "nationality": "SUI", "spd": "29.00 kmh", "lon": 6.18462961064805, "valid": 1, "fname": "FORTIS", "team": "U17", "cad": ""}, {"hr": "164", "pow": "0", "bib": 306, "rank": 3, "IRM": "", "gname": "THIBAUD", "lat": 46.36209415461771, "nationality": "SUI", "spd": "28.97 kmh", "lon": 6.18464533291464, "valid": 1, "fname": "ROSSIER", "team": "U17", "cad": "106"}, {"hr": "161", "pow": "", "bib": 307, "rank": 4, "IRM": "", "gname": "Z\u00c9ON", "lat": 46.362084296245584, "nationality": "SUI", "spd": "28.10 kmh", "lon": 6.184659760406334, "valid": 1, "fname": "TAILLEFERT", "team": "U17", "cad": ""}, {"hr": "", "pow": "", "bib": 301, "rank": 5, "IRM": "", "gname": "SYLVAIN", "lat": 46.36208189484725, "nationality": "SUI", "spd": "28.08 kmh", "lon": 6.184663274795336, "valid": 1, "fname": "BRUNNER", "team": "U17", "cad": ""}, {"hr": "157", "pow": "14", "bib": 305, "rank": 6, "IRM": "", "gname": "HENRY", "lat": 46.362071088554735, "nationality": "GBR", "spd": "28.80 kmh", "lon": 6.184679089545848, "valid": 1, "fname": "LAWTON", "team": "U17", "cad": "106"}, {"hr": "", "pow": "", "bib": 304, "rank": 7, "IRM": "", "gname": "MAXIME", "lat": 46.362064700436086, "nationality": "SUI", "spd": "28.66 kmh", "lon": 6.184688422498164, "valid": 1, "fname": "JUILLERAT", "team": "U17", "cad": ""}, {"hr": "", "pow": "", "bib": 401, "rank": 8, "IRM": "", "gname": "MARGOT", "lat": 46.362050153556915, "nationality": "SUI", "spd": "27.98 kmh", "lon": 6.184708939087187, "valid": 1, "fname": "VESIN", "team": "W17", "cad": ""}], "no": 1}]}