{"timestamp": 29358, "groups": [{"distance": 0, "gap": "+0:00", "athletes": [{"hr": "", "pow": "", "bib": 303, "rank": 1, "IRM": "", "gname": "DAMIEN", "lat": 46.362310280468066, "nationality": "SUI", "spd": "29.39 kmh", "lon": 6.184329037904416, "valid": 1, "fname": "FORTIS", "team": "U17", "cad": ""}, {"hr": "160", "pow": "0", "bib": 302, "rank": 2, "IRM": "", "gname": "GABRIELE", "lat": 46.362308321432586, "nationality": "SUI", "spd": "29.05 kmh", "lon": 6.18433190490597, "valid": 1, "fname": "CERATO", "team": "U17", "cad": "106"}, {"hr": "165", "pow": "0", "bib": 306, "rank": 3, "IRM": "", "gname": "THIBAUD", "lat": 46.36229871583923, "nationality": "SUI", "spd": "29.17 kmh", "lon": 6.18434596246198, "valid": 1, "fname": "ROSSIER", "team": "U17", "cad": "106"}, {"hr": "160", "pow": "", "bib": 307, "rank": 4, "IRM": "", "gname": "Z\u00c9ON", "lat": 46.36228557134307, "nationality": "SUI", "spd": "28.55 kmh", "lon": 6.184365199117573, "valid": 1, "fname": "TAILLEFERT", "team": "U17", "cad": ""}, {"hr": "", "pow": "", "bib": 301, "rank": 5, "IRM": "", "gname": "SYLVAIN", "lat": 46.36228335952881, "nationality": "SUI", "spd": "28.80 kmh", "lon": 6.184368436054812, "valid": 1, "fname": "BRUNNER", "team": "U17", "cad": ""}, {"hr": "156", "pow": "12", "bib": 305, "rank": 6, "IRM": "", "gname": "HENRY", "lat": 46.362265728209444, "nationality": "GBR", "spd": "29.33 kmh", "lon": 6.184394239068804, "valid": 1, "fname": "LAWTON", "team": "U17", "cad": "98"}, {"hr": "", "pow": "", "bib": 304, "rank": 7, "IRM": "", "gname": "MAXIME", "lat": 46.36226294764295, "nationality": "SUI", "spd": "28.16 kmh", "lon": 6.184398308361333, "valid": 1, "fname": "JUILLERAT", "team": "U17", "cad": ""}, {"hr": "", "pow": "", "bib": 401, "rank": 8, "IRM": "", "gname": "MARGOT", "lat": 46.36224910800516, "nationality": "SUI", "spd": "28.32 kmh", "lon": 6.184418562340058, "valid": 1, "fname": "VESIN", "team": "W17", "cad": ""}], "no": 1}]}