{"timestamp": 29364, "groups": [{"distance": 0, "gap": "+0:00", "athletes": [{"hr": "160", "pow": "0", "bib": 302, "rank": 1, "IRM": "", "gname": "GABRIELE", "lat": 46.3626201550058, "nationality": "SUI", "spd": "29.51 kmh", "lon": 6.183879851199723, "valid": 1, "fname": "CERATO", "team": "U17", "cad": "101"}, {"hr": "", "pow": "", "bib": 303, "rank": 2, "IRM": "", "gname": "DAMIEN", "lat": 46.362616008431196, "nationality": "SUI", "spd": "29.09 kmh", "lon": 6.183885806682714, "valid": 1, "fname": "FORTIS", "team": "U17", "cad": ""}, {"hr": "166", "pow": "0", "bib": 306, "rank": 3, "IRM": "", "gname": "THIBAUD", "lat": 46.36260860839036, "nationality": "SUI", "spd": "29.23 kmh", "lon": 6.183896434929281, "valid": 1, "fname": "ROSSIER", "team": "U17", "cad": "106"}, {"hr": "", "pow": "", "bib": 301, "rank": 4, "IRM": "", "gname": "SYLVAIN", "lat": 46.362589534147176, "nationality": "SUI", "spd": "29.34 kmh", "lon": 6.183923830151037, "valid": 1, "fname": "BRUNNER", "team": "U17", "cad": ""}, {"hr": "159", "pow": "", "bib": 307, "rank": 5, "IRM": "", "gname": "Z\u00c9ON", "lat": 46.36258838586498, "nationality": "SUI", "spd": "29.39 kmh", "lon": 6.183925479361711, "valid": 1, "fname": "TAILLEFERT", "team": "U17", "cad": ""}, {"hr": "156", "pow": "12", "bib": 305, "rank": 6, "IRM": "", "gname": "HENRY", "lat": 46.36257390475059, "nationality": "GBR", "spd": "29.30 kmh", "lon": 6.18394627774077, "valid": 1, "fname": "LAWTON", "team": "U17", "cad": "99"}, {"hr": "", "pow": "", "bib": 304, "rank": 7, "IRM": "", "gname": "MAXIME", "lat": 46.36256848230687, "nationality": "SUI", "spd": "29.38 kmh", "lon": 6.183954065680065, "valid": 1, "fname": "JUILLERAT", "team": "U17", "cad": ""}, {"hr": "", "pow": "", "bib": 401, "rank": 8, "IRM": "", "gname": "MARGOT", "lat": 46.36255355463829, "nationality": "SUI", "spd": "29.06 kmh", "lon": 6.18397550541883, "valid": 1, "fname": "VESIN", "team": "W17", "cad": ""}], "no": 1}]}