{"timestamp": 29366, "groups": [{"distance": 0, "gap": "+0:00", "athletes": [{"hr": "160", "pow": "42", "bib": 302, "rank": 1, "IRM": "", "gname": "GABRIELE", "lat": 46.362726243522246, "nationality": "SUI", "spd": "29.68 kmh", "lon": 6.183727482457986, "valid": 1, "fname": "CERATO", "team": "U17", "cad": "102"}, {"hr": "", "pow": "", "bib": 303, "rank": 2, "IRM": "", "gname": "DAMIEN", "lat": 46.36271890727487, "nationality": "SUI", "spd": "29.10 kmh", "lon": 6.183738019081738, "valid": 1, "fname": "FORTIS", "team": "U17", "cad": ""}, {"hr": "167", "pow": "42", "bib": 306, "rank": 3, "IRM": "", "gname": "THIBAUD", "lat": 46.362710933092934, "nationality": "SUI", "spd": "28.99 kmh", "lon": 6.183749471933643, "valid": 1, "fname": "ROSSIER", "team": "U17", "cad": "108"}, {"hr": "158", "pow": "", "bib": 307, "rank": 4, "IRM": "", "gname": "Z\u00c9ON", "lat": 46.362697217500006, "nationality": "SUI", "spd": "30.61 kmh", "lon": 6.183769170838918, "valid": 1, "fname": "TAILLEFERT", "team": "U17", "cad": ""}, {"hr": "", "pow": "", "bib": 301, "rank": 5, "IRM": "", "gname": "SYLVAIN", "lat": 46.36269587783744, "nationality": "SUI", "spd": "29.76 kmh", "lon": 6.183771094918038, "valid": 1, "fname": "BRUNNER", "team": "U17", "cad": ""}, {"hr": "155", "pow": "57", "bib": 305, "rank": 6, "IRM": "", "gname": "HENRY", "lat": 46.36267661221389, "nationality": "GBR", "spd": "29.47 kmh", "lon": 6.183798765008239, "valid": 1, "fname": "LAWTON", "team": "U17", "cad": "105"}, {"hr": "", "pow": "", "bib": 304, "rank": 7, "IRM": "", "gname": "MAXIME", "lat": 46.3626738690953, "nationality": "SUI", "spd": "29.74 kmh", "lon": 6.1838027047892945, "valid": 1, "fname": "JUILLERAT", "team": "U17", "cad": ""}, {"hr": "", "pow": "", "bib": 401, "rank": 8, "IRM": "", "gname": "MARGOT", "lat": 46.362654986232485, "nationality": "SUI", "spd": "29.45 kmh", "lon": 6.183829825142604, "valid": 1, "fname": "VESIN", "team": "W17", "cad": ""}], "no": 1}]}