{"timestamp": 29379, "groups": [{"distance": 0, "gap": "+0:00", "athletes": [{"hr": "", "pow": "", "bib": 303, "rank": 1, "IRM": "", "gname": "DAMIEN", "lat": 46.36335407371619, "nationality": "SUI", "spd": "34.37 kmh", "lon": 6.182612487516005, "valid": 1, "fname": "FORTIS", "team": "U17", "cad": ""}, {"hr": "165", "pow": "726", "bib": 302, "rank": 2, "IRM": "", "gname": "GABRIELE", "lat": 46.36334985025995, "nationality": "SUI", "spd": "32.87 kmh", "lon": 6.182621850838782, "valid": 1, "fname": "CERATO", "team": "U17", "cad": "128"}, {"hr": "170", "pow": "699", "bib": 306, "rank": 3, "IRM": "", "gname": "THIBAUD", "lat": 46.36333163046621, "nationality": "SUI", "spd": "32.34 kmh", "lon": 6.182662243777735, "valid": 1, "fname": "ROSSIER", "team": "U17", "cad": "129"}, {"hr": "159", "pow": "", "bib": 307, "rank": 4, "IRM": "", "gname": "Z\u00c9ON", "lat": 46.363330157167525, "nationality": "SUI", "spd": "32.62 kmh", "lon": 6.1826655100531225, "valid": 1, "fname": "TAILLEFERT", "team": "U17", "cad": ""}, {"hr": "", "pow": "", "bib": 301, "rank": 5, "IRM": "", "gname": "SYLVAIN", "lat": 46.36332038428625, "nationality": "SUI", "spd": "31.40 kmh", "lon": 6.182687176346523, "valid": 1, "fname": "BRUNNER", "team": "U17", "cad": ""}, {"hr": "", "pow": "", "bib": 304, "rank": 6, "IRM": "", "gname": "MAXIME", "lat": 46.363307419257815, "nationality": "SUI", "spd": "31.36 kmh", "lon": 6.1827159195699295, "valid": 1, "fname": "JUILLERAT", "team": "U17", "cad": ""}, {"hr": "157", "pow": "744", "bib": 305, "rank": 7, "IRM": "", "gname": "HENRY", "lat": 46.36329774459645, "nationality": "GBR", "spd": "30.20 kmh", "lon": 6.1827373681116375, "valid": 1, "fname": "LAWTON", "team": "U17", "cad": "128"}, {"hr": "", "pow": "", "bib": 401, "rank": 8, "IRM": "", "gname": "MARGOT", "lat": 46.363290378103024, "nationality": "SUI", "spd": "30.30 kmh", "lon": 6.182753699488574, "valid": 1, "fname": "VESIN", "team": "W17", "cad": ""}], "no": 1}]}