{"timestamp": 29380, "groups": [{"distance": 0, "gap": "+0:00", "athletes": [{"hr": "", "pow": "", "bib": 303, "rank": 1, "IRM": "", "gname": "DAMIEN", "lat": 46.36340513486067, "nationality": "SUI", "spd": "36.97 kmh", "lon": 6.182492939048193, "valid": 1, "fname": "FORTIS", "team": "U17", "cad": ""}, {"hr": "168", "pow": "719", "bib": 302, "rank": 2, "IRM": "", "gname": "GABRIELE", "lat": 46.36340051653937, "nationality": "SUI", "spd": "35.80 kmh", "lon": 6.182503786733114, "valid": 1, "fname": "CERATO", "team": "U17", "cad": "118"}, {"hr": "171", "pow": "732", "bib": 306, "rank": 3, "IRM": "", "gname": "THIBAUD", "lat": 46.363382655888614, "nationality": "SUI", "spd": "35.12 kmh", "lon": 6.182545738494185, "valid": 1, "fname": "ROSSIER", "team": "U17", "cad": "117"}, {"hr": "160", "pow": "", "bib": 307, "rank": 4, "IRM": "", "gname": "Z\u00c9ON", "lat": 46.36338199612843, "nationality": "SUI", "spd": "35.48 kmh", "lon": 6.182547288163459, "valid": 1, "fname": "TAILLEFERT", "team": "U17", "cad": ""}, {"hr": "", "pow": "", "bib": 301, "rank": 5, "IRM": "", "gname": "SYLVAIN", "lat": 46.36336955493635, "nationality": "SUI", "spd": "33.44 kmh", "lon": 6.182576510498348, "valid": 1, "fname": "BRUNNER", "team": "U17", "cad": ""}, {"hr": "", "pow": "", "bib": 304, "rank": 6, "IRM": "", "gname": "MAXIME", "lat": 46.363351618218374, "nationality": "SUI", "spd": "32.21 kmh", "lon": 6.182617931308317, "valid": 1, "fname": "JUILLERAT", "team": "U17", "cad": ""}, {"hr": "157", "pow": "735", "bib": 305, "rank": 7, "IRM": "", "gname": "HENRY", "lat": 46.36334410439508, "nationality": "GBR", "spd": "31.67 kmh", "lon": 6.182634589312791, "valid": 1, "fname": "LAWTON", "team": "U17", "cad": "107"}, {"hr": "", "pow": "", "bib": 401, "rank": 8, "IRM": "", "gname": "MARGOT", "lat": 46.36333752366095, "nationality": "SUI", "spd": "31.96 kmh", "lon": 6.182649178676186, "valid": 1, "fname": "VESIN", "team": "W17", "cad": ""}], "no": 1}]}