{"timestamp": 29389, "groups": [{"distance": 0, "gap": "+0:00", "athletes": [{"hr": "", "pow": "", "bib": 303, "rank": 1, "IRM": "", "gname": "DAMIEN", "lat": 46.36394199045392, "nationality": "SUI", "spd": "42.17 kmh", "lon": 6.1813409435589275, "valid": 1, "fname": "FORTIS", "team": "U17", "cad": ""}, {"hr": "196", "pow": "514", "bib": 302, "rank": 2, "IRM": "", "gname": "GABRIELE", "lat": 46.363918389258174, "nationality": "SUI", "spd": "41.70 kmh", "lon": 6.181381208629234, "valid": 1, "fname": "CERATO", "team": "U17", "cad": "122"}, {"hr": "184", "pow": "461", "bib": 306, "rank": 3, "IRM": "", "gname": "THIBAUD", "lat": 46.36389548563472, "nationality": "SUI", "spd": "41.23 kmh", "lon": 6.181420283598941, "valid": 1, "fname": "ROSSIER", "team": "U17", "cad": "121"}, {"hr": "159", "pow": "", "bib": 307, "rank": 4, "IRM": "", "gname": "Z\u00c9ON", "lat": 46.36389269534557, "nationality": "SUI", "spd": "41.17 kmh", "lon": 6.181425044001341, "valid": 1, "fname": "TAILLEFERT", "team": "U17", "cad": ""}, {"hr": "", "pow": "", "bib": 301, "rank": 5, "IRM": "", "gname": "SYLVAIN", "lat": 46.3638543852025, "nationality": "SUI", "spd": "39.96 kmh", "lon": 6.181493840058328, "valid": 1, "fname": "BRUNNER", "team": "U17", "cad": ""}, {"hr": "179", "pow": "493", "bib": 305, "rank": 6, "IRM": "", "gname": "HENRY", "lat": 46.363842364628766, "nationality": "GBR", "spd": "42.00 kmh", "lon": 6.18151864441683, "valid": 1, "fname": "LAWTON", "team": "U17", "cad": "125"}, {"hr": "", "pow": "", "bib": 304, "rank": 7, "IRM": "", "gname": "MAXIME", "lat": 46.36380351702352, "nationality": "SUI", "spd": "37.75 kmh", "lon": 6.181598806141942, "valid": 1, "fname": "JUILLERAT", "team": "U17", "cad": ""}, {"hr": "", "pow": "", "bib": 401, "rank": 8, "IRM": "", "gname": "MARGOT", "lat": 46.36377524545954, "nationality": "SUI", "spd": "37.36 kmh", "lon": 6.181657144289833, "valid": 1, "fname": "VESIN", "team": "W17", "cad": ""}], "no": 1}]}