{"timestamp": 29388, "groups": [{"distance": 0, "gap": "+0:00", "athletes": [{"hr": "", "pow": "", "bib": 303, "rank": 1, "IRM": "", "gname": "DAMIEN", "lat": 46.36387159378386, "nationality": "SUI", "spd": "41.75 kmh", "lon": 6.181461044544497, "valid": 1, "fname": "FORTIS", "team": "U17", "cad": ""}, {"hr": "194", "pow": "505", "bib": 302, "rank": 2, "IRM": "", "gname": "GABRIELE", "lat": 46.363852631127365, "nationality": "SUI", "spd": "41.67 kmh", "lon": 6.181497459578454, "valid": 1, "fname": "CERATO", "team": "U17", "cad": "123"}, {"hr": "159", "pow": "", "bib": 307, "rank": 3, "IRM": "", "gname": "Z\u00c9ON", "lat": 46.36383354266263, "nationality": "SUI", "spd": "41.23 kmh", "lon": 6.181536848473927, "valid": 1, "fname": "TAILLEFERT", "team": "U17", "cad": ""}, {"hr": "183", "pow": "477", "bib": 306, "rank": 4, "IRM": "", "gname": "THIBAUD", "lat": 46.36383194335883, "nationality": "SUI", "spd": "40.92 kmh", "lon": 6.181540148624629, "valid": 1, "fname": "ROSSIER", "team": "U17", "cad": "116"}, {"hr": "", "pow": "", "bib": 301, "rank": 5, "IRM": "", "gname": "SYLVAIN", "lat": 46.36379773889365, "nationality": "SUI", "spd": "40.16 kmh", "lon": 6.181610729267058, "valid": 1, "fname": "BRUNNER", "team": "U17", "cad": ""}, {"hr": "177", "pow": "493", "bib": 305, "rank": 6, "IRM": "", "gname": "HENRY", "lat": 46.36377957905694, "nationality": "GBR", "spd": "41.37 kmh", "lon": 6.181648201945995, "valid": 1, "fname": "LAWTON", "team": "U17", "cad": "122"}, {"hr": "", "pow": "", "bib": 304, "rank": 7, "IRM": "", "gname": "MAXIME", "lat": 46.36374877956114, "nationality": "SUI", "spd": "37.55 kmh", "lon": 6.181711756461125, "valid": 1, "fname": "JUILLERAT", "team": "U17", "cad": ""}, {"hr": "", "pow": "", "bib": 401, "rank": 8, "IRM": "", "gname": "MARGOT", "lat": 46.363722275110234, "nationality": "SUI", "spd": "36.54 kmh", "lon": 6.181769149753593, "valid": 1, "fname": "VESIN", "team": "W17", "cad": ""}], "no": 1}]}