{"timestamp": 29393, "groups": [{"distance": 0, "gap": "+0:00", "athletes": [{"hr": "", "pow": "", "bib": 303, "rank": 1, "IRM": "", "gname": "DAMIEN", "lat": 46.364202030077735, "nationality": "SUI", "spd": "39.67 kmh", "lon": 6.180897528488006, "valid": 1, "fname": "FORTIS", "team": "U17", "cad": ""}, {"hr": "202", "pow": "238", "bib": 302, "rank": 2, "IRM": "", "gname": "GABRIELE", "lat": 46.364186954588995, "nationality": "SUI", "spd": "42.90 kmh", "lon": 6.18092301989816, "valid": 1, "fname": "CERATO", "team": "U17", "cad": "115"}, {"hr": "189", "pow": "238", "bib": 306, "rank": 3, "IRM": "", "gname": "THIBAUD", "lat": 46.36416381844145, "nationality": "SUI", "spd": "48.41 kmh", "lon": 6.180962491568067, "valid": 1, "fname": "ROSSIER", "team": "U17", "cad": "120"}, {"hr": "159", "pow": "", "bib": 307, "rank": 4, "IRM": "", "gname": "Z\u00c9ON", "lat": 46.364161783855614, "nationality": "SUI", "spd": "41.64 kmh", "lon": 6.180965962694818, "valid": 1, "fname": "TAILLEFERT", "team": "U17", "cad": ""}, {"hr": "187", "pow": "253", "bib": 305, "rank": 5, "IRM": "", "gname": "HENRY", "lat": 46.36411341884365, "nationality": "GBR", "spd": "42.53 kmh", "lon": 6.181048476336431, "valid": 1, "fname": "LAWTON", "team": "U17", "cad": "114"}, {"hr": "", "pow": "", "bib": 301, "rank": 6, "IRM": "", "gname": "SYLVAIN", "lat": 46.36410673377589, "nationality": "SUI", "spd": "39.67 kmh", "lon": 6.181059881467183, "valid": 1, "fname": "BRUNNER", "team": "U17", "cad": ""}, {"hr": "", "pow": "", "bib": 304, "rank": 7, "IRM": "", "gname": "MAXIME", "lat": 46.36404482423535, "nationality": "SUI", "spd": "44.82 kmh", "lon": 6.18116550289545, "valid": 1, "fname": "JUILLERAT", "team": "U17", "cad": ""}, {"hr": "", "pow": "", "bib": 401, "rank": 8, "IRM": "", "gname": "MARGOT", "lat": 46.36394164166777, "nationality": "SUI", "spd": "37.06 kmh", "lon": 6.181341538609228, "valid": 0, "fname": "VESIN", "team": "W17", "cad": ""}], "no": 1}]}