{"timestamp": 29397, "groups": [{"distance": 0, "gap": "+0:00", "athletes": [{"hr": "", "pow": "", "bib": 303, "rank": 1, "IRM": "", "gname": "DAMIEN", "lat": 46.364436353717565, "nationality": "SUI", "spd": "37.21 kmh", "lon": 6.180474409981887, "valid": 1, "fname": "FORTIS", "team": "U17", "cad": ""}, {"hr": "204", "pow": "29", "bib": 302, "rank": 2, "IRM": "", "gname": "GABRIELE", "lat": 46.36442687108685, "nationality": "SUI", "spd": "40.67 kmh", "lon": 6.180495410456212, "valid": 1, "fname": "CERATO", "team": "U17", "cad": "100"}, {"hr": "159", "pow": "", "bib": 307, "rank": 3, "IRM": "", "gname": "Z\u00c9ON", "lat": 46.364412304423546, "nationality": "SUI", "spd": "38.18 kmh", "lon": 6.180525254351758, "valid": 1, "fname": "TAILLEFERT", "team": "U17", "cad": ""}, {"hr": "191", "pow": "29", "bib": 306, "rank": 4, "IRM": "", "gname": "THIBAUD", "lat": 46.36441220074623, "nationality": "SUI", "spd": "38.78 kmh", "lon": 6.180525466763826, "valid": 1, "fname": "ROSSIER", "team": "U17", "cad": "105"}, {"hr": "191", "pow": "43", "bib": 305, "rank": 5, "IRM": "", "gname": "HENRY", "lat": 46.364371943368035, "nationality": "GBR", "spd": "39.90 kmh", "lon": 6.180605923266358, "valid": 1, "fname": "LAWTON", "team": "U17", "cad": "99"}, {"hr": "", "pow": "", "bib": 301, "rank": 6, "IRM": "", "gname": "SYLVAIN", "lat": 46.36436768518184, "nationality": "SUI", "spd": "47.27 kmh", "lon": 6.180614142555983, "valid": 1, "fname": "BRUNNER", "team": "U17", "cad": ""}, {"hr": "", "pow": "", "bib": 304, "rank": 7, "IRM": "", "gname": "MAXIME", "lat": 46.364289902313914, "nationality": "SUI", "spd": "37.91 kmh", "lon": 6.180750111249679, "valid": 1, "fname": "JUILLERAT", "team": "U17", "cad": ""}, {"hr": "", "pow": "", "bib": 401, "rank": 8, "IRM": "", "gname": "MARGOT", "lat": 46.3642376016042, "nationality": "SUI", "spd": "36.10 kmh", "lon": 6.18083785257189, "valid": 1, "fname": "VESIN", "team": "W17", "cad": ""}], "no": 1}]}