{"timestamp": 29412, "groups": [{"distance": 0, "gap": "+0:00", "athletes": [{"hr": "188", "pow": "42", "bib": 306, "rank": 1, "IRM": "", "gname": "THIBAUD", "lat": 46.36496956589437, "nationality": "SUI", "spd": "32.57 kmh", "lon": 6.17899118146732, "valid": 1, "fname": "ROSSIER", "team": "U17", "cad": "92"}, {"hr": "", "pow": "", "bib": 303, "rank": 2, "IRM": "", "gname": "DAMIEN", "lat": 46.36496906240773, "nationality": "SUI", "spd": "34.21 kmh", "lon": 6.178991924316457, "valid": 0, "fname": "FORTIS", "team": "U17", "cad": ""}, {"hr": "159", "pow": "", "bib": 307, "rank": 3, "IRM": "", "gname": "Z\u00c9ON", "lat": 46.364945917012044, "nationality": "SUI", "spd": "41.26 kmh", "lon": 6.179026970336155, "valid": 1, "fname": "TAILLEFERT", "team": "U17", "cad": ""}, {"hr": "202", "pow": "46", "bib": 302, "rank": 4, "IRM": "", "gname": "GABRIELE", "lat": 46.364917795014826, "nationality": "SUI", "spd": "34.60 kmh", "lon": 6.17908057303804, "valid": 0, "fname": "CERATO", "team": "U17", "cad": "95"}, {"hr": "188", "pow": "54", "bib": 305, "rank": 5, "IRM": "", "gname": "HENRY", "lat": 46.364910109462556, "nationality": "GBR", "spd": "35.40 kmh", "lon": 6.179095222295124, "valid": 1, "fname": "LAWTON", "team": "U17", "cad": "92"}, {"hr": "", "pow": "", "bib": 301, "rank": 6, "IRM": "", "gname": "SYLVAIN", "lat": 46.3649070122997, "nationality": "SUI", "spd": "33.55 kmh", "lon": 6.179101125727083, "valid": 1, "fname": "BRUNNER", "team": "U17", "cad": ""}, {"hr": "", "pow": "", "bib": 304, "rank": 7, "IRM": "", "gname": "MAXIME", "lat": 46.36486484741594, "nationality": "SUI", "spd": "32.50 kmh", "lon": 6.179181495256916, "valid": 1, "fname": "JUILLERAT", "team": "U17", "cad": ""}, {"hr": "", "pow": "", "bib": 401, "rank": 8, "IRM": "", "gname": "MARGOT", "lat": 46.36479323231696, "nationality": "SUI", "spd": "28.31 kmh", "lon": 6.179317999174854, "valid": 1, "fname": "VESIN", "team": "W17", "cad": ""}], "no": 1}]}