{"timestamp": 29423, "groups": [{"distance": 0, "gap": "+0:00", "athletes": [{"hr": "", "pow": "", "bib": 303, "rank": 1, "IRM": "", "gname": "DAMIEN", "lat": 46.36561970076624, "nationality": "SUI", "spd": "32.59 kmh", "lon": 6.178058364915218, "valid": 1, "fname": "FORTIS", "team": "U17", "cad": ""}, {"hr": "183", "pow": "0", "bib": 306, "rank": 2, "IRM": "", "gname": "THIBAUD", "lat": 46.36561321419405, "nationality": "SUI", "spd": "36.00 kmh", "lon": 6.1780669899178005, "valid": 1, "fname": "ROSSIER", "team": "U17", "cad": "72"}, {"hr": "200", "pow": "0", "bib": 302, "rank": 3, "IRM": "", "gname": "GABRIELE", "lat": 46.36556780818872, "nationality": "SUI", "spd": "33.37 kmh", "lon": 6.178127364935874, "valid": 1, "fname": "CERATO", "team": "U17", "cad": "79"}, {"hr": "159", "pow": "", "bib": 307, "rank": 4, "IRM": "", "gname": "Z\u00c9ON", "lat": 46.36555609264507, "nationality": "SUI", "spd": "41.05 kmh", "lon": 6.17814294274666, "valid": 0, "fname": "TAILLEFERT", "team": "U17", "cad": ""}, {"hr": "182", "pow": "0", "bib": 305, "rank": 5, "IRM": "", "gname": "HENRY", "lat": 46.365542656174114, "nationality": "GBR", "spd": "33.17 kmh", "lon": 6.178160808823437, "valid": 1, "fname": "LAWTON", "team": "U17", "cad": "70"}, {"hr": "", "pow": "", "bib": 301, "rank": 6, "IRM": "", "gname": "SYLVAIN", "lat": 46.36546322126675, "nationality": "SUI", "spd": "26.10 kmh", "lon": 6.178263311876328, "valid": 1, "fname": "BRUNNER", "team": "U17", "cad": ""}, {"hr": "", "pow": "", "bib": 304, "rank": 7, "IRM": "", "gname": "MAXIME", "lat": 46.3654618783229, "nationality": "SUI", "spd": "34.04 kmh", "lon": 6.17826504153177, "valid": 1, "fname": "JUILLERAT", "team": "U17", "cad": ""}, {"hr": "", "pow": "", "bib": 401, "rank": 8, "IRM": "", "gname": "MARGOT", "lat": 46.36530879157593, "nationality": "SUI", "spd": "32.23 kmh", "lon": 6.178473142889744, "valid": 0, "fname": "VESIN", "team": "W17", "cad": ""}], "no": 1}]}