{"timestamp": 29420, "groups": [{"distance": 0, "gap": "+0:00", "athletes": [{"hr": "", "pow": "", "bib": 303, "rank": 1, "IRM": "", "gname": "DAMIEN", "lat": 46.36543851109975, "nationality": "SUI", "spd": "31.87 kmh", "lon": 6.178295137536456, "valid": 1, "fname": "FORTIS", "team": "U17", "cad": ""}, {"hr": "184", "pow": "121", "bib": 306, "rank": 2, "IRM": "", "gname": "THIBAUD", "lat": 46.365412860872034, "nationality": "SUI", "spd": "34.02 kmh", "lon": 6.178328173955394, "valid": 1, "fname": "ROSSIER", "team": "U17", "cad": "98"}, {"hr": "159", "pow": "", "bib": 307, "rank": 3, "IRM": "", "gname": "Z\u00c9ON", "lat": 46.365389359354495, "nationality": "SUI", "spd": "37.31 kmh", "lon": 6.178358442925624, "valid": 1, "fname": "TAILLEFERT", "team": "U17", "cad": ""}, {"hr": "201", "pow": "121", "bib": 302, "rank": 4, "IRM": "", "gname": "GABRIELE", "lat": 46.365366193572925, "nationality": "SUI", "spd": "32.37 kmh", "lon": 6.178388279481995, "valid": 1, "fname": "CERATO", "team": "U17", "cad": "99"}, {"hr": "185", "pow": "134", "bib": 305, "rank": 5, "IRM": "", "gname": "HENRY", "lat": 46.36535289842872, "nationality": "GBR", "spd": "32.63 kmh", "lon": 6.178405403070869, "valid": 1, "fname": "LAWTON", "team": "U17", "cad": "103"}, {"hr": "", "pow": "", "bib": 301, "rank": 6, "IRM": "", "gname": "SYLVAIN", "lat": 46.36531998360754, "nationality": "SUI", "spd": "27.55 kmh", "lon": 6.178455525802941, "valid": 1, "fname": "BRUNNER", "team": "U17", "cad": ""}, {"hr": "", "pow": "", "bib": 304, "rank": 7, "IRM": "", "gname": "MAXIME", "lat": 46.36527850009905, "nationality": "SUI", "spd": "30.16 kmh", "lon": 6.178520823918156, "valid": 1, "fname": "JUILLERAT", "team": "U17", "cad": ""}, {"hr": "", "pow": "", "bib": 401, "rank": 8, "IRM": "", "gname": "MARGOT", "lat": 46.36518434105046, "nationality": "SUI", "spd": "28.63 kmh", "lon": 6.178669037235387, "valid": 1, "fname": "VESIN", "team": "W17", "cad": ""}], "no": 1}]}