{"timestamp": 29425, "groups": [{"distance": 0, "gap": "+0:00", "athletes": [{"hr": "", "pow": "", "bib": 303, "rank": 1, "IRM": "", "gname": "DAMIEN", "lat": 46.36574570623343, "nationality": "SUI", "spd": "38.45 kmh", "lon": 6.1778930745906715, "valid": 1, "fname": "FORTIS", "team": "U17", "cad": ""}, {"hr": "159", "pow": "", "bib": 307, "rank": 2, "IRM": "", "gname": "Z\u00c9ON", "lat": 46.36572978120043, "nationality": "SUI", "spd": "43.61 kmh", "lon": 6.177913941875299, "valid": 1, "fname": "TAILLEFERT", "team": "U17", "cad": ""}, {"hr": "183", "pow": "0", "bib": 306, "rank": 3, "IRM": "", "gname": "THIBAUD", "lat": 46.365710957678154, "nationality": "SUI", "spd": "35.88 kmh", "lon": 6.1779386071803515, "valid": 0, "fname": "ROSSIER", "team": "U17", "cad": "72"}, {"hr": "200", "pow": "0", "bib": 302, "rank": 4, "IRM": "", "gname": "GABRIELE", "lat": 46.365689402246446, "nationality": "SUI", "spd": "33.43 kmh", "lon": 6.177966852228791, "valid": 1, "fname": "CERATO", "team": "U17", "cad": "0"}, {"hr": "181", "pow": "0", "bib": 305, "rank": 5, "IRM": "", "gname": "HENRY", "lat": 46.36566694728359, "nationality": "GBR", "spd": "33.37 kmh", "lon": 6.177996275973225, "valid": 1, "fname": "LAWTON", "team": "U17", "cad": "0"}, {"hr": "", "pow": "", "bib": 301, "rank": 6, "IRM": "", "gname": "SYLVAIN", "lat": 46.365607455706495, "nationality": "SUI", "spd": "34.79 kmh", "lon": 6.178074646807848, "valid": 1, "fname": "BRUNNER", "team": "U17", "cad": ""}, {"hr": "", "pow": "", "bib": 304, "rank": 7, "IRM": "", "gname": "MAXIME", "lat": 46.36560288863016, "nationality": "SUI", "spd": "41.90 kmh", "lon": 6.178080719513747, "valid": 1, "fname": "JUILLERAT", "team": "U17", "cad": ""}, {"hr": "", "pow": "", "bib": 401, "rank": 8, "IRM": "", "gname": "MARGOT", "lat": 46.365436295242375, "nationality": "SUI", "spd": "36.86 kmh", "lon": 6.178297991467935, "valid": 1, "fname": "VESIN", "team": "W17", "cad": ""}], "no": 1}]}