{"timestamp": 29427, "groups": [{"distance": 0, "gap": "+0:00", "athletes": [{"hr": "182", "pow": "0", "bib": 306, "rank": 1, "IRM": "", "gname": "THIBAUD", "lat": 46.36588547305172, "nationality": "SUI", "spd": "47.93 kmh", "lon": 6.17774350898276, "valid": 1, "fname": "ROSSIER", "team": "U17", "cad": "0"}, {"hr": "", "pow": "", "bib": 303, "rank": 2, "IRM": "", "gname": "DAMIEN", "lat": 46.36584551730502, "nationality": "SUI", "spd": "35.30 kmh", "lon": 6.177767068912483, "valid": 1, "fname": "FORTIS", "team": "U17", "cad": ""}, {"hr": "199", "pow": "0", "bib": 302, "rank": 3, "IRM": "", "gname": "GABRIELE", "lat": 46.36582812657485, "nationality": "SUI", "spd": "31.63 kmh", "lon": 6.177785259311561, "valid": 1, "fname": "CERATO", "team": "U17", "cad": "73"}, {"hr": "180", "pow": "0", "bib": 305, "rank": 4, "IRM": "", "gname": "HENRY", "lat": 46.3657835531738, "nationality": "GBR", "spd": "32.93 kmh", "lon": 6.177843482048124, "valid": 1, "fname": "LAWTON", "team": "U17", "cad": "73"}, {"hr": "159", "pow": "", "bib": 307, "rank": 5, "IRM": "", "gname": "Z\u00c9ON", "lat": 46.3657813210039, "nationality": "SUI", "spd": "34.02 kmh", "lon": 6.177846406960405, "valid": 1, "fname": "TAILLEFERT", "team": "U17", "cad": ""}, {"hr": "", "pow": "", "bib": 301, "rank": 6, "IRM": "", "gname": "SYLVAIN", "lat": 46.365742308004634, "nationality": "SUI", "spd": "43.32 kmh", "lon": 6.1778975274422026, "valid": 1, "fname": "BRUNNER", "team": "U17", "cad": ""}, {"hr": "", "pow": "", "bib": 304, "rank": 7, "IRM": "", "gname": "MAXIME", "lat": 46.36573564481091, "nationality": "SUI", "spd": "43.37 kmh", "lon": 6.177906258523637, "valid": 1, "fname": "JUILLERAT", "team": "U17", "cad": ""}, {"hr": "", "pow": "", "bib": 401, "rank": 8, "IRM": "", "gname": "MARGOT", "lat": 46.36549572050815, "nationality": "SUI", "spd": "36.86 kmh", "lon": 6.178221454214637, "valid": 0, "fname": "VESIN", "team": "W17", "cad": ""}], "no": 1}]}