{"timestamp": 29435, "groups": [{"distance": 0, "gap": "+0:00", "athletes": [{"hr": "159", "pow": "", "bib": 307, "rank": 1, "IRM": "", "gname": "Z\u00c9ON", "lat": 46.366356981197015, "nationality": "SUI", "spd": "22.58 kmh", "lon": 6.1784052731592425, "valid": 0, "fname": "TAILLEFERT", "team": "U17", "cad": ""}, {"hr": "180", "pow": "307", "bib": 305, "rank": 2, "IRM": "", "gname": "HENRY", "lat": 46.36633004068959, "nationality": "GBR", "spd": "34.97 kmh", "lon": 6.178361986725974, "valid": 1, "fname": "LAWTON", "team": "U17", "cad": "120"}, {"hr": "", "pow": "", "bib": 301, "rank": 3, "IRM": "", "gname": "SYLVAIN", "lat": 46.366269930287515, "nationality": "SUI", "spd": "43.21 kmh", "lon": 6.178267766397242, "valid": 1, "fname": "BRUNNER", "team": "U17", "cad": ""}, {"hr": "182", "pow": "0", "bib": 306, "rank": 4, "IRM": "", "gname": "THIBAUD", "lat": 46.36626178987463, "nationality": "SUI", "spd": "56.66 kmh", "lon": 6.17825514381369, "valid": 0, "fname": "ROSSIER", "team": "U17", "cad": "114"}, {"hr": "", "pow": "", "bib": 401, "rank": 5, "IRM": "", "gname": "MARGOT", "lat": 46.366151580028536, "nationality": "SUI", "spd": "59.14 kmh", "lon": 6.178084251623197, "valid": 1, "fname": "VESIN", "team": "W17", "cad": ""}, {"hr": "", "pow": "", "bib": 304, "rank": 6, "IRM": "", "gname": "MAXIME", "lat": 46.366142208077974, "nationality": "SUI", "spd": "30.38 kmh", "lon": 6.178069719408361, "valid": 0, "fname": "JUILLERAT", "team": "U17", "cad": ""}, {"hr": "199", "pow": "0", "bib": 302, "rank": 7, "IRM": "", "gname": "GABRIELE", "lat": 46.3660551919826, "nationality": "SUI", "spd": "31.47 kmh", "lon": 6.17793447063912, "valid": 0, "fname": "CERATO", "team": "U17", "cad": "31"}, {"hr": "", "pow": "", "bib": 303, "rank": 8, "IRM": "", "gname": "DAMIEN", "lat": 46.36600369440588, "nationality": "SUI", "spd": "35.30 kmh", "lon": 6.177852932809312, "valid": 0, "fname": "FORTIS", "team": "U17", "cad": ""}], "no": 1}]}