{"timestamp": 29453, "groups": [{"distance": 0, "gap": "+0:00", "athletes": [{"hr": "185", "pow": "59", "bib": 306, "rank": 1, "IRM": "", "gname": "THIBAUD", "lat": 46.36773135198335, "nationality": "SUI", "spd": "51.22 kmh", "lon": 6.180660937824595, "valid": 0, "fname": "ROSSIER", "team": "U17", "cad": "114"}, {"hr": "185", "pow": "71", "bib": 305, "rank": 2, "IRM": "", "gname": "HENRY", "lat": 46.36764718468198, "nationality": "GBR", "spd": "39.93 kmh", "lon": 6.180486338848278, "valid": 1, "fname": "LAWTON", "team": "U17", "cad": "111"}, {"hr": "200", "pow": "85", "bib": 302, "rank": 3, "IRM": "", "gname": "GABRIELE", "lat": 46.367634179049944, "nationality": "SUI", "spd": "30.90 kmh", "lon": 6.1804597974633335, "valid": 0, "fname": "CERATO", "team": "U17", "cad": "111"}, {"hr": "", "pow": "", "bib": 303, "rank": 4, "IRM": "", "gname": "DAMIEN", "lat": 46.367552171956284, "nationality": "SUI", "spd": "26.21 kmh", "lon": 6.180292440595571, "valid": 0, "fname": "FORTIS", "team": "U17", "cad": ""}, {"hr": "156", "pow": "", "bib": 307, "rank": 5, "IRM": "", "gname": "Z\u00c9ON", "lat": 46.36711912909217, "nationality": "SUI", "spd": "45.39 kmh", "lon": 6.179474414516677, "valid": 0, "fname": "TAILLEFERT", "team": "U17", "cad": ""}, {"hr": "", "pow": "", "bib": 301, "rank": 6, "IRM": "", "gname": "SYLVAIN", "lat": 46.36643893412108, "nationality": "SUI", "spd": "43.21 kmh", "lon": 6.178519152571595, "valid": 0, "fname": "BRUNNER", "team": "U17", "cad": ""}, {"hr": "", "pow": "", "bib": 401, "rank": 7, "IRM": "", "gname": "MARGOT", "lat": 46.366287713487054, "nationality": "SUI", "spd": "59.14 kmh", "lon": 6.178295341156035, "valid": 0, "fname": "VESIN", "team": "W17", "cad": ""}, {"hr": "", "pow": "", "bib": 304, "rank": 8, "IRM": "", "gname": "MAXIME", "lat": 46.366287590844294, "nationality": "SUI", "spd": "30.38 kmh", "lon": 6.178295150985285, "valid": 0, "fname": "JUILLERAT", "team": "U17", "cad": ""}], "no": 1}]}