{"timestamp": 29458, "groups": [{"distance": 0, "gap": "+0:00", "athletes": [{"hr": "183", "pow": "205", "bib": 306, "rank": 1, "IRM": "", "gname": "THIBAUD", "lat": 46.36812278869383, "nationality": "SUI", "spd": "54.79 kmh", "lon": 6.181469364847609, "valid": 1, "fname": "ROSSIER", "team": "U17", "cad": "108"}, {"hr": "195", "pow": "205", "bib": 302, "rank": 2, "IRM": "", "gname": "GABRIELE", "lat": 46.36800485898714, "nationality": "SUI", "spd": "36.30 kmh", "lon": 6.181241661378856, "valid": 1, "fname": "CERATO", "team": "U17", "cad": "108"}, {"hr": "182", "pow": "220", "bib": 305, "rank": 3, "IRM": "", "gname": "HENRY", "lat": 46.367973534534514, "nationality": "GBR", "spd": "45.77 kmh", "lon": 6.181175151756748, "valid": 1, "fname": "LAWTON", "team": "U17", "cad": "108"}, {"hr": "", "pow": "", "bib": 303, "rank": 4, "IRM": "", "gname": "DAMIEN", "lat": 46.36793396147804, "nationality": "SUI", "spd": "63.26 kmh", "lon": 6.181091128292308, "valid": 1, "fname": "FORTIS", "team": "U17", "cad": ""}, {"hr": "155", "pow": "", "bib": 307, "rank": 5, "IRM": "", "gname": "Z\u00c9ON", "lat": 46.367896756732364, "nationality": "SUI", "spd": "40.20 kmh", "lon": 6.181012133342108, "valid": 0, "fname": "TAILLEFERT", "team": "U17", "cad": ""}, {"hr": "", "pow": "", "bib": 304, "rank": 6, "IRM": "", "gname": "MAXIME", "lat": 46.36783060090535, "nationality": "SUI", "spd": "36.93 kmh", "lon": 6.180871668028729, "valid": 0, "fname": "JUILLERAT", "team": "U17", "cad": ""}, {"hr": "", "pow": "", "bib": 401, "rank": 7, "IRM": "", "gname": "MARGOT", "lat": 46.367707099569905, "nationality": "SUI", "spd": "42.45 kmh", "lon": 6.180609443904732, "valid": 0, "fname": "VESIN", "team": "W17", "cad": ""}, {"hr": "", "pow": "", "bib": 301, "rank": 8, "IRM": "", "gname": "SYLVAIN", "lat": 46.366553537857726, "nationality": "SUI", "spd": "43.21 kmh", "lon": 6.17864952190164, "valid": 0, "fname": "BRUNNER", "team": "U17", "cad": ""}], "no": 1}]}