{"timestamp": 29475, "groups": [{"distance": 0, "gap": "+0:00", "athletes": [{"hr": "185", "pow": "0", "bib": 306, "rank": 1, "IRM": "", "gname": "THIBAUD", "lat": 46.36913016476872, "nationality": "SUI", "spd": "57.10 kmh", "lon": 6.183943441925274, "valid": 1, "fname": "ROSSIER", "team": "U17", "cad": "41"}, {"hr": "155", "pow": "", "bib": 307, "rank": 2, "IRM": "", "gname": "Z\u00c9ON", "lat": 46.369093342494814, "nationality": "SUI", "spd": "51.01 kmh", "lon": 6.183857762780613, "valid": 1, "fname": "TAILLEFERT", "team": "U17", "cad": ""}, {"hr": "176", "pow": "0", "bib": 305, "rank": 3, "IRM": "", "gname": "HENRY", "lat": 46.36904864329117, "nationality": "GBR", "spd": "49.67 kmh", "lon": 6.183753755365315, "valid": 1, "fname": "LAWTON", "team": "U17", "cad": "22"}, {"hr": "", "pow": "", "bib": 301, "rank": 4, "IRM": "", "gname": "SYLVAIN", "lat": 46.36904394560417, "nationality": "SUI", "spd": "48.77 kmh", "lon": 6.183742824649694, "valid": 1, "fname": "BRUNNER", "team": "U17", "cad": ""}, {"hr": "192", "pow": "0", "bib": 302, "rank": 5, "IRM": "", "gname": "GABRIELE", "lat": 46.369032841980335, "nationality": "SUI", "spd": "50.10 kmh", "lon": 6.1837169884127725, "valid": 1, "fname": "CERATO", "team": "U17", "cad": "41"}, {"hr": "", "pow": "", "bib": 303, "rank": 6, "IRM": "", "gname": "DAMIEN", "lat": 46.36898650570395, "nationality": "SUI", "spd": "59.23 kmh", "lon": 6.183609171808698, "valid": 0, "fname": "FORTIS", "team": "U17", "cad": ""}, {"hr": "", "pow": "", "bib": 304, "rank": 7, "IRM": "", "gname": "MAXIME", "lat": 46.36887622408467, "nationality": "SUI", "spd": "56.73 kmh", "lon": 6.1833366084213965, "valid": 0, "fname": "JUILLERAT", "team": "U17", "cad": ""}, {"hr": "", "pow": "", "bib": 401, "rank": 8, "IRM": "", "gname": "MARGOT", "lat": 46.36865586387271, "nationality": "SUI", "spd": "43.34 kmh", "lon": 6.1827285810045876, "valid": 1, "fname": "VESIN", "team": "W17", "cad": ""}], "no": 1}]}