{"timestamp": 29471, "groups": [{"distance": 0, "gap": "+0:00", "athletes": [{"hr": "183", "pow": "0", "bib": 306, "rank": 1, "IRM": "", "gname": "THIBAUD", "lat": 46.3688766388015, "nationality": "SUI", "spd": "50.41 kmh", "lon": 6.183337687935568, "valid": 1, "fname": "ROSSIER", "team": "U17", "cad": "122"}, {"hr": "153", "pow": "", "bib": 307, "rank": 2, "IRM": "", "gname": "Z\u00c9ON", "lat": 46.368842762984315, "nationality": "SUI", "spd": "70.38 kmh", "lon": 6.183249508672727, "valid": 1, "fname": "TAILLEFERT", "team": "U17", "cad": ""}, {"hr": "177", "pow": "0", "bib": 305, "rank": 3, "IRM": "", "gname": "HENRY", "lat": 46.3687976679854, "nationality": "GBR", "spd": "48.93 kmh", "lon": 6.183132125710724, "valid": 1, "fname": "LAWTON", "team": "U17", "cad": "29"}, {"hr": "", "pow": "", "bib": 301, "rank": 4, "IRM": "", "gname": "SYLVAIN", "lat": 46.368796358353286, "nationality": "SUI", "spd": "58.82 kmh", "lon": 6.1831287167186035, "valid": 1, "fname": "BRUNNER", "team": "U17", "cad": ""}, {"hr": "193", "pow": "0", "bib": 302, "rank": 5, "IRM": "", "gname": "GABRIELE", "lat": 46.36877780523176, "nationality": "SUI", "spd": "47.90 kmh", "lon": 6.1830804226635685, "valid": 1, "fname": "CERATO", "team": "U17", "cad": "29"}, {"hr": "", "pow": "", "bib": 303, "rank": 6, "IRM": "", "gname": "DAMIEN", "lat": 46.36876959820388, "nationality": "SUI", "spd": "53.94 kmh", "lon": 6.183059059646283, "valid": 1, "fname": "FORTIS", "team": "U17", "cad": ""}, {"hr": "", "pow": "", "bib": 304, "rank": 7, "IRM": "", "gname": "MAXIME", "lat": 46.36869721959802, "nationality": "SUI", "spd": "56.73 kmh", "lon": 6.18285422149615, "valid": 0, "fname": "JUILLERAT", "team": "U17", "cad": ""}, {"hr": "", "pow": "", "bib": 401, "rank": 8, "IRM": "", "gname": "MARGOT", "lat": 46.36844972477937, "nationality": "SUI", "spd": "35.82 kmh", "lon": 6.182117003401583, "valid": 0, "fname": "VESIN", "team": "W17", "cad": ""}], "no": 1}]}