{"timestamp": 29479, "groups": [{"distance": 0, "gap": "+0:00", "athletes": [{"hr": "186", "pow": "0", "bib": 306, "rank": 1, "IRM": "", "gname": "THIBAUD", "lat": 46.36942580670003, "nationality": "SUI", "spd": "59.38 kmh", "lon": 6.184537029230919, "valid": 1, "fname": "ROSSIER", "team": "U17", "cad": "122"}, {"hr": "155", "pow": "", "bib": 307, "rank": 2, "IRM": "", "gname": "Z\u00c9ON", "lat": 46.36936565329649, "nationality": "SUI", "spd": "47.62 kmh", "lon": 6.184426892752385, "valid": 1, "fname": "TAILLEFERT", "team": "U17", "cad": ""}, {"hr": "173", "pow": "78", "bib": 305, "rank": 3, "IRM": "", "gname": "HENRY", "lat": 46.36932380856962, "nationality": "GBR", "spd": "49.83 kmh", "lon": 6.184342143938457, "valid": 1, "fname": "LAWTON", "team": "U17", "cad": "124"}, {"hr": "", "pow": "", "bib": 301, "rank": 4, "IRM": "", "gname": "SYLVAIN", "lat": 46.36932015172707, "nationality": "SUI", "spd": "50.16 kmh", "lon": 6.1843347376750675, "valid": 1, "fname": "BRUNNER", "team": "U17", "cad": ""}, {"hr": "189", "pow": "0", "bib": 302, "rank": 5, "IRM": "", "gname": "GABRIELE", "lat": 46.36931696504999, "nationality": "SUI", "spd": "49.97 kmh", "lon": 6.184328283645542, "valid": 1, "fname": "CERATO", "team": "U17", "cad": "93"}, {"hr": "", "pow": "", "bib": 303, "rank": 6, "IRM": "", "gname": "DAMIEN", "lat": 46.36928673841803, "nationality": "SUI", "spd": "49.08 kmh", "lon": 6.184266683588156, "valid": 1, "fname": "FORTIS", "team": "U17", "cad": ""}, {"hr": "", "pow": "", "bib": 304, "rank": 7, "IRM": "", "gname": "MAXIME", "lat": 46.36907111152145, "nationality": "SUI", "spd": "56.73 kmh", "lon": 6.183806035101135, "valid": 0, "fname": "JUILLERAT", "team": "U17", "cad": ""}, {"hr": "", "pow": "", "bib": 401, "rank": 8, "IRM": "", "gname": "MARGOT", "lat": 46.36884446550605, "nationality": "SUI", "spd": "40.63 kmh", "lon": 6.1832539403624835, "valid": 1, "fname": "VESIN", "team": "W17", "cad": ""}], "no": 1}]}