{"timestamp": 29483, "groups": [{"distance": 0, "gap": "+0:00", "athletes": [{"hr": "185", "pow": "63", "bib": 306, "rank": 1, "IRM": "", "gname": "THIBAUD", "lat": 46.36976834220376, "nationality": "SUI", "spd": "49.01 kmh", "lon": 6.185038973225637, "valid": 1, "fname": "ROSSIER", "team": "U17", "cad": "122"}, {"hr": "155", "pow": "", "bib": 307, "rank": 2, "IRM": "", "gname": "Z\u00c9ON", "lat": 46.36968922715717, "nationality": "SUI", "spd": "48.12 kmh", "lon": 6.1849390779611, "valid": 1, "fname": "TAILLEFERT", "team": "U17", "cad": ""}, {"hr": "171", "pow": "79", "bib": 305, "rank": 3, "IRM": "", "gname": "HENRY", "lat": 46.36964072854983, "nationality": "GBR", "spd": "50.67 kmh", "lon": 6.18487784079551, "valid": 1, "fname": "LAWTON", "team": "U17", "cad": "122"}, {"hr": "", "pow": "", "bib": 301, "rank": 4, "IRM": "", "gname": "SYLVAIN", "lat": 46.369635512917476, "nationality": "SUI", "spd": "48.18 kmh", "lon": 6.184871255234406, "valid": 1, "fname": "BRUNNER", "team": "U17", "cad": ""}, {"hr": "", "pow": "", "bib": 303, "rank": 5, "IRM": "", "gname": "DAMIEN", "lat": 46.36958232476036, "nationality": "SUI", "spd": "47.29 kmh", "lon": 6.18480265319485, "valid": 1, "fname": "FORTIS", "team": "U17", "cad": ""}, {"hr": "188", "pow": "63", "bib": 302, "rank": 6, "IRM": "", "gname": "GABRIELE", "lat": 46.369569396962845, "nationality": "SUI", "spd": "49.97 kmh", "lon": 6.184782338084462, "valid": 1, "fname": "CERATO", "team": "U17", "cad": "122"}, {"hr": "", "pow": "", "bib": 304, "rank": 7, "IRM": "", "gname": "MAXIME", "lat": 46.36928323911027, "nationality": "SUI", "spd": "56.73 kmh", "lon": 6.184259514274694, "valid": 0, "fname": "JUILLERAT", "team": "U17", "cad": ""}, {"hr": "", "pow": "", "bib": 401, "rank": 8, "IRM": "", "gname": "MARGOT", "lat": 46.369039105563004, "nationality": "SUI", "spd": "51.19 kmh", "lon": 6.183731562700267, "valid": 1, "fname": "VESIN", "team": "W17", "cad": ""}], "no": 1}]}