{"timestamp": 29489, "groups": [{"distance": 0, "gap": "+0:00", "athletes": [{"hr": "184", "pow": "27", "bib": 306, "rank": 1, "IRM": "", "gname": "THIBAUD", "lat": 46.37031021610282, "nationality": "SUI", "spd": "45.11 kmh", "lon": 6.185688462415663, "valid": 1, "fname": "ROSSIER", "team": "U17", "cad": "105"}, {"hr": "155", "pow": "", "bib": 307, "rank": 2, "IRM": "", "gname": "Z\u00c9ON", "lat": 46.37023924964332, "nationality": "SUI", "spd": "44.78 kmh", "lon": 6.1856017858239, "valid": 1, "fname": "TAILLEFERT", "team": "U17", "cad": ""}, {"hr": "183", "pow": "27", "bib": 302, "rank": 3, "IRM": "", "gname": "GABRIELE", "lat": 46.370224341877865, "nationality": "SUI", "spd": "45.73 kmh", "lon": 6.185583577866095, "valid": 1, "fname": "CERATO", "team": "U17", "cad": "106"}, {"hr": "", "pow": "", "bib": 301, "rank": 4, "IRM": "", "gname": "SYLVAIN", "lat": 46.37021444916715, "nationality": "SUI", "spd": "48.60 kmh", "lon": 6.185571495165985, "valid": 1, "fname": "BRUNNER", "team": "U17", "cad": ""}, {"hr": "169", "pow": "41", "bib": 305, "rank": 5, "IRM": "", "gname": "HENRY", "lat": 46.370193152359356, "nationality": "GBR", "spd": "47.23 kmh", "lon": 6.185545483797692, "valid": 1, "fname": "LAWTON", "team": "U17", "cad": "105"}, {"hr": "", "pow": "", "bib": 303, "rank": 6, "IRM": "", "gname": "DAMIEN", "lat": 46.37015962706194, "nationality": "SUI", "spd": "49.06 kmh", "lon": 6.185504536869541, "valid": 1, "fname": "FORTIS", "team": "U17", "cad": ""}, {"hr": "", "pow": "", "bib": 304, "rank": 7, "IRM": "", "gname": "MAXIME", "lat": 46.36964777304028, "nationality": "SUI", "spd": "56.73 kmh", "lon": 6.184886735579338, "valid": 0, "fname": "JUILLERAT", "team": "U17", "cad": ""}, {"hr": "", "pow": "", "bib": 401, "rank": 8, "IRM": "", "gname": "MARGOT", "lat": 46.369391827573395, "nationality": "SUI", "spd": "42.32 kmh", "lon": 6.1844772806995225, "valid": 1, "fname": "VESIN", "team": "W17", "cad": ""}], "no": 1}]}