{"timestamp": 29485, "groups": [{"distance": 0, "gap": "+0:00", "athletes": [{"hr": "185", "pow": "0", "bib": 306, "rank": 1, "IRM": "", "gname": "THIBAUD", "lat": 46.36995963533847, "nationality": "SUI", "spd": "49.01 kmh", "lon": 6.185269507840245, "valid": 1, "fname": "ROSSIER", "team": "U17", "cad": "52"}, {"hr": "155", "pow": "", "bib": 307, "rank": 2, "IRM": "", "gname": "Z\u00c9ON", "lat": 46.36987590615411, "nationality": "SUI", "spd": "48.98 kmh", "lon": 6.185174789732558, "valid": 1, "fname": "TAILLEFERT", "team": "U17", "cad": ""}, {"hr": "170", "pow": "0", "bib": 305, "rank": 3, "IRM": "", "gname": "HENRY", "lat": 46.36982761075323, "nationality": "GBR", "spd": "50.20 kmh", "lon": 6.185113809147272, "valid": 1, "fname": "LAWTON", "team": "U17", "cad": "52"}, {"hr": "", "pow": "", "bib": 301, "rank": 4, "IRM": "", "gname": "SYLVAIN", "lat": 46.36981480874655, "nationality": "SUI", "spd": "49.12 kmh", "lon": 6.185097644588199, "valid": 1, "fname": "BRUNNER", "team": "U17", "cad": ""}, {"hr": "", "pow": "", "bib": 303, "rank": 5, "IRM": "", "gname": "DAMIEN", "lat": 46.3697822957137, "nationality": "SUI", "spd": "51.22 kmh", "lon": 6.185056591739759, "valid": 1, "fname": "FORTIS", "team": "U17", "cad": ""}, {"hr": "188", "pow": "0", "bib": 302, "rank": 6, "IRM": "", "gname": "GABRIELE", "lat": 46.36960452016996, "nationality": "SUI", "spd": "49.10 kmh", "lon": 6.18483212198675, "valid": 1, "fname": "CERATO", "team": "U17", "cad": "52"}, {"hr": "", "pow": "", "bib": 304, "rank": 7, "IRM": "", "gname": "MAXIME", "lat": 46.3693941689922, "nationality": "SUI", "spd": "56.73 kmh", "lon": 6.184481397825215, "valid": 0, "fname": "JUILLERAT", "team": "U17", "cad": ""}, {"hr": "", "pow": "", "bib": 401, "rank": 8, "IRM": "", "gname": "MARGOT", "lat": 46.369120033898255, "nationality": "SUI", "spd": "50.66 kmh", "lon": 6.183919869119365, "valid": 0, "fname": "VESIN", "team": "W17", "cad": ""}], "no": 1}]}