{"timestamp": 29491, "groups": [{"distance": 0, "gap": "+0:00", "athletes": [{"hr": "183", "pow": "210", "bib": 306, "rank": 1, "IRM": "", "gname": "THIBAUD", "lat": 46.3704690007709, "nationality": "SUI", "spd": "50.29 kmh", "lon": 6.185886496047486, "valid": 1, "fname": "ROSSIER", "team": "U17", "cad": "102"}, {"hr": "183", "pow": "210", "bib": 302, "rank": 2, "IRM": "", "gname": "GABRIELE", "lat": 46.37039293015631, "nationality": "SUI", "spd": "43.17 kmh", "lon": 6.185789487213807, "valid": 1, "fname": "CERATO", "team": "U17", "cad": "103"}, {"hr": "", "pow": "", "bib": 301, "rank": 3, "IRM": "", "gname": "SYLVAIN", "lat": 46.37037774759333, "nationality": "SUI", "spd": "44.21 kmh", "lon": 6.185770943625443, "valid": 1, "fname": "BRUNNER", "team": "U17", "cad": ""}, {"hr": "167", "pow": "224", "bib": 305, "rank": 4, "IRM": "", "gname": "HENRY", "lat": 46.370362152834076, "nationality": "GBR", "spd": "46.17 kmh", "lon": 6.185751896591242, "valid": 1, "fname": "LAWTON", "team": "U17", "cad": "114"}, {"hr": "153", "pow": "", "bib": 307, "rank": 5, "IRM": "", "gname": "Z\u00c9ON", "lat": 46.37034501920871, "nationality": "SUI", "spd": "32.71 kmh", "lon": 6.1857309700259115, "valid": 1, "fname": "TAILLEFERT", "team": "U17", "cad": ""}, {"hr": "", "pow": "", "bib": 303, "rank": 6, "IRM": "", "gname": "DAMIEN", "lat": 46.370329795426116, "nationality": "SUI", "spd": "46.34 kmh", "lon": 6.185712376092964, "valid": 1, "fname": "FORTIS", "team": "U17", "cad": ""}, {"hr": "", "pow": "", "bib": 304, "rank": 7, "IRM": "", "gname": "MAXIME", "lat": 46.36979045783965, "nationality": "SUI", "spd": "56.73 kmh", "lon": 6.185066897715252, "valid": 0, "fname": "JUILLERAT", "team": "U17", "cad": ""}, {"hr": "", "pow": "", "bib": 401, "rank": 8, "IRM": "", "gname": "MARGOT", "lat": 46.36947029365742, "nationality": "SUI", "spd": "32.17 kmh", "lon": 6.184615254619084, "valid": 1, "fname": "VESIN", "team": "W17", "cad": ""}], "no": 1}]}