{"timestamp": 29495, "groups": [{"distance": 0, "gap": "+0:00", "athletes": [{"hr": "183", "pow": "368", "bib": 306, "rank": 1, "IRM": "", "gname": "THIBAUD", "lat": 46.37076874890917, "nationality": "SUI", "spd": "40.10 kmh", "lon": 6.186274536335383, "valid": 1, "fname": "ROSSIER", "team": "U17", "cad": "97"}, {"hr": "153", "pow": "", "bib": 307, "rank": 2, "IRM": "", "gname": "Z\u00c9ON", "lat": 46.370732436103864, "nationality": "SUI", "spd": "43.33 kmh", "lon": 6.186227527431485, "valid": 1, "fname": "TAILLEFERT", "team": "U17", "cad": ""}, {"hr": "182", "pow": "368", "bib": 302, "rank": 3, "IRM": "", "gname": "GABRIELE", "lat": 46.37071414570562, "nationality": "SUI", "spd": "40.60 kmh", "lon": 6.186203849514945, "valid": 1, "fname": "CERATO", "team": "U17", "cad": "96"}, {"hr": "", "pow": "", "bib": 301, "rank": 4, "IRM": "", "gname": "SYLVAIN", "lat": 46.370696860274315, "nationality": "SUI", "spd": "43.06 kmh", "lon": 6.186181472582832, "valid": 1, "fname": "BRUNNER", "team": "U17", "cad": ""}, {"hr": "167", "pow": "381", "bib": 305, "rank": 5, "IRM": "", "gname": "HENRY", "lat": 46.370686944600536, "nationality": "GBR", "spd": "40.60 kmh", "lon": 6.18616863620317, "valid": 1, "fname": "LAWTON", "team": "U17", "cad": "101"}, {"hr": "", "pow": "", "bib": 303, "rank": 6, "IRM": "", "gname": "DAMIEN", "lat": 46.37065357969824, "nationality": "SUI", "spd": "44.77 kmh", "lon": 6.186125443520252, "valid": 1, "fname": "FORTIS", "team": "U17", "cad": ""}, {"hr": "", "pow": "", "bib": 304, "rank": 7, "IRM": "", "gname": "MAXIME", "lat": 46.37008416079304, "nationality": "SUI", "spd": "56.73 kmh", "lon": 6.18541236432738, "valid": 0, "fname": "JUILLERAT", "team": "U17", "cad": ""}, {"hr": "", "pow": "", "bib": 401, "rank": 8, "IRM": "", "gname": "MARGOT", "lat": 46.36948075580196, "nationality": "SUI", "spd": "8.24 kmh", "lon": 6.184633651141692, "valid": 1, "fname": "VESIN", "team": "W17", "cad": ""}], "no": 1}]}