{"timestamp": 29492, "groups": [{"distance": 0, "gap": "+0:00", "athletes": [{"hr": "183", "pow": "110", "bib": 306, "rank": 1, "IRM": "", "gname": "THIBAUD", "lat": 46.37054484227571, "nationality": "SUI", "spd": "48.76 kmh", "lon": 6.185984677005443, "valid": 1, "fname": "ROSSIER", "team": "U17", "cad": "100"}, {"hr": "153", "pow": "", "bib": 307, "rank": 2, "IRM": "", "gname": "Z\u00c9ON", "lat": 46.37049050706335, "nationality": "SUI", "spd": "44.23 kmh", "lon": 6.185914337114186, "valid": 1, "fname": "TAILLEFERT", "team": "U17", "cad": ""}, {"hr": "183", "pow": "110", "bib": 302, "rank": 3, "IRM": "", "gname": "GABRIELE", "lat": 46.37046980474445, "nationality": "SUI", "spd": "42.23 kmh", "lon": 6.185887536835026, "valid": 1, "fname": "CERATO", "team": "U17", "cad": "96"}, {"hr": "", "pow": "", "bib": 301, "rank": 4, "IRM": "", "gname": "SYLVAIN", "lat": 46.3704564721831, "nationality": "SUI", "spd": "42.47 kmh", "lon": 6.185870277108318, "valid": 1, "fname": "BRUNNER", "team": "U17", "cad": ""}, {"hr": "167", "pow": "123", "bib": 305, "rank": 5, "IRM": "", "gname": "HENRY", "lat": 46.370441665670235, "nationality": "GBR", "spd": "44.60 kmh", "lon": 6.18585110927112, "valid": 1, "fname": "LAWTON", "team": "U17", "cad": "96"}, {"hr": "", "pow": "", "bib": 303, "rank": 6, "IRM": "", "gname": "DAMIEN", "lat": 46.37034621457793, "nationality": "SUI", "spd": "32.59 kmh", "lon": 6.185732430018842, "valid": 1, "fname": "FORTIS", "team": "U17", "cad": ""}, {"hr": "", "pow": "", "bib": 304, "rank": 7, "IRM": "", "gname": "MAXIME", "lat": 46.369861800239335, "nationality": "SUI", "spd": "56.73 kmh", "lon": 6.185156978783209, "valid": 0, "fname": "JUILLERAT", "team": "U17", "cad": ""}, {"hr": "", "pow": "", "bib": 401, "rank": 8, "IRM": "", "gname": "MARGOT", "lat": 46.369472909193554, "nationality": "SUI", "spd": "19.24 kmh", "lon": 6.184619853749736, "valid": 1, "fname": "VESIN", "team": "W17", "cad": ""}], "no": 1}]}