{"timestamp": 29497, "groups": [{"distance": 0, "gap": "+0:00", "athletes": [{"hr": "183", "pow": "41", "bib": 306, "rank": 1, "IRM": "", "gname": "THIBAUD", "lat": 46.370911466036475, "nationality": "SUI", "spd": "38.89 kmh", "lon": 6.186461968322951, "valid": 1, "fname": "ROSSIER", "team": "U17", "cad": "96"}, {"hr": "153", "pow": "", "bib": 307, "rank": 2, "IRM": "", "gname": "Z\u00c9ON", "lat": 46.37088857620924, "nationality": "SUI", "spd": "42.52 kmh", "lon": 6.186431687563545, "valid": 1, "fname": "TAILLEFERT", "team": "U17", "cad": ""}, {"hr": "182", "pow": "41", "bib": 302, "rank": 3, "IRM": "", "gname": "GABRIELE", "lat": 46.370868738358965, "nationality": "SUI", "spd": "40.73 kmh", "lon": 6.1864054442387255, "valid": 1, "fname": "CERATO", "team": "U17", "cad": "93"}, {"hr": "", "pow": "", "bib": 301, "rank": 4, "IRM": "", "gname": "SYLVAIN", "lat": 46.37085188613833, "nationality": "SUI", "spd": "42.11 kmh", "lon": 6.186383150578177, "valid": 1, "fname": "BRUNNER", "team": "U17", "cad": ""}, {"hr": "168", "pow": "55", "bib": 305, "rank": 5, "IRM": "", "gname": "HENRY", "lat": 46.37084246481813, "nationality": "GBR", "spd": "40.73 kmh", "lon": 6.186370687193145, "valid": 1, "fname": "LAWTON", "team": "U17", "cad": "101"}, {"hr": "", "pow": "", "bib": 303, "rank": 6, "IRM": "", "gname": "DAMIEN", "lat": 46.370818049002416, "nationality": "SUI", "spd": "45.66 kmh", "lon": 6.186338387716445, "valid": 1, "fname": "FORTIS", "team": "U17", "cad": ""}, {"hr": "", "pow": "", "bib": 304, "rank": 7, "IRM": "", "gname": "MAXIME", "lat": 46.37022887603694, "nationality": "SUI", "spd": "56.73 kmh", "lon": 6.185589115770313, "valid": 0, "fname": "JUILLERAT", "team": "U17", "cad": ""}, {"hr": "", "pow": "", "bib": 401, "rank": 8, "IRM": "", "gname": "MARGOT", "lat": 46.36948991017842, "nationality": "SUI", "spd": "8.24 kmh", "lon": 6.184649748098974, "valid": 0, "fname": "VESIN", "team": "W17", "cad": ""}], "no": 1}]}