{"timestamp": 29507, "groups": [{"distance": 0, "gap": "+0:00", "athletes": [{"hr": "184", "pow": "49", "bib": 306, "rank": 1, "IRM": "", "gname": "THIBAUD", "lat": 46.371596050252144, "nationality": "SUI", "spd": "43.34 kmh", "lon": 6.187395384961796, "valid": 1, "fname": "ROSSIER", "team": "U17", "cad": "93"}, {"hr": "150", "pow": "", "bib": 307, "rank": 2, "IRM": "", "gname": "Z\u00c9ON", "lat": 46.371593312339826, "nationality": "SUI", "spd": "37.80 kmh", "lon": 6.1873914369900165, "valid": 1, "fname": "TAILLEFERT", "team": "U17", "cad": ""}, {"hr": "185", "pow": "49", "bib": 302, "rank": 3, "IRM": "", "gname": "GABRIELE", "lat": 46.37158204232866, "nationality": "SUI", "spd": "37.63 kmh", "lon": 6.187375186036414, "valid": 1, "fname": "CERATO", "team": "U17", "cad": "96"}, {"hr": "", "pow": "", "bib": 304, "rank": 4, "IRM": "", "gname": "MAXIME", "lat": 46.371574083281224, "nationality": "SUI", "spd": "37.75 kmh", "lon": 6.1873637093742655, "valid": 1, "fname": "JUILLERAT", "team": "U17", "cad": ""}, {"hr": "", "pow": "", "bib": 301, "rank": 5, "IRM": "", "gname": "SYLVAIN", "lat": 46.371562940614815, "nationality": "SUI", "spd": "37.66 kmh", "lon": 6.187347642047258, "valid": 1, "fname": "BRUNNER", "team": "U17", "cad": ""}, {"hr": "169", "pow": "62", "bib": 305, "rank": 6, "IRM": "", "gname": "HENRY", "lat": 46.37154683150281, "nationality": "GBR", "spd": "37.83 kmh", "lon": 6.1873244132830685, "valid": 1, "fname": "LAWTON", "team": "U17", "cad": "96"}, {"hr": "", "pow": "", "bib": 303, "rank": 7, "IRM": "", "gname": "DAMIEN", "lat": 46.3715316774765, "nationality": "SUI", "spd": "38.81 kmh", "lon": 6.1873025617183375, "valid": 1, "fname": "FORTIS", "team": "U17", "cad": ""}, {"hr": "", "pow": "", "bib": 401, "rank": 8, "IRM": "", "gname": "MARGOT", "lat": 46.37077873158074, "nationality": "SUI", "spd": "37.68 kmh", "lon": 6.18628745944734, "valid": 1, "fname": "VESIN", "team": "W17", "cad": ""}], "no": 1}]}