{"timestamp": 29505, "groups": [{"distance": 0, "gap": "+0:00", "athletes": [{"hr": "183", "pow": "146", "bib": 306, "rank": 1, "IRM": "", "gname": "THIBAUD", "lat": 46.37146648217836, "nationality": "SUI", "spd": "44.22 kmh", "lon": 6.187210396397128, "valid": 1, "fname": "ROSSIER", "team": "U17", "cad": "92"}, {"hr": "153", "pow": "", "bib": 307, "rank": 2, "IRM": "", "gname": "Z\u00c9ON", "lat": 46.371459140090074, "nationality": "SUI", "spd": "38.28 kmh", "lon": 6.187200238921603, "valid": 1, "fname": "TAILLEFERT", "team": "U17", "cad": ""}, {"hr": "185", "pow": "146", "bib": 302, "rank": 3, "IRM": "", "gname": "GABRIELE", "lat": 46.371447574676665, "nationality": "SUI", "spd": "37.90 kmh", "lon": 6.187184238650423, "valid": 1, "fname": "CERATO", "team": "U17", "cad": "92"}, {"hr": "", "pow": "", "bib": 304, "rank": 4, "IRM": "", "gname": "MAXIME", "lat": 46.371438868129495, "nationality": "SUI", "spd": "63.05 kmh", "lon": 6.187172193502456, "valid": 1, "fname": "JUILLERAT", "team": "U17", "cad": ""}, {"hr": "", "pow": "", "bib": 301, "rank": 5, "IRM": "", "gname": "SYLVAIN", "lat": 46.37142964178846, "nationality": "SUI", "spd": "38.29 kmh", "lon": 6.187159429241178, "valid": 1, "fname": "BRUNNER", "team": "U17", "cad": ""}, {"hr": "170", "pow": "158", "bib": 305, "rank": 6, "IRM": "", "gname": "HENRY", "lat": 46.371409954595975, "nationality": "GBR", "spd": "37.83 kmh", "lon": 6.187132192824506, "valid": 1, "fname": "LAWTON", "team": "U17", "cad": "92"}, {"hr": "", "pow": "", "bib": 303, "rank": 7, "IRM": "", "gname": "DAMIEN", "lat": 46.3713924765274, "nationality": "SUI", "spd": "38.98 kmh", "lon": 6.187108012639408, "valid": 1, "fname": "FORTIS", "team": "U17", "cad": ""}, {"hr": "", "pow": "", "bib": 401, "rank": 8, "IRM": "", "gname": "MARGOT", "lat": 46.37064098411264, "nationality": "SUI", "spd": "38.70 kmh", "lon": 6.186109137848789, "valid": 1, "fname": "VESIN", "team": "W17", "cad": ""}], "no": 1}]}