{"timestamp": 29512, "groups": [{"distance": 0, "gap": "+0:00", "athletes": [{"hr": "150", "pow": "", "bib": 307, "rank": 1, "IRM": "", "gname": "Z\u00c9ON", "lat": 46.37192011590931, "nationality": "SUI", "spd": "37.45 kmh", "lon": 6.187875547565301, "valid": 1, "fname": "TAILLEFERT", "team": "U17", "cad": ""}, {"hr": "183", "pow": "30", "bib": 306, "rank": 2, "IRM": "", "gname": "THIBAUD", "lat": 46.37191607619575, "nationality": "SUI", "spd": "36.92 kmh", "lon": 6.187868910893023, "valid": 1, "fname": "ROSSIER", "team": "U17", "cad": "90"}, {"hr": "185", "pow": "30", "bib": 302, "rank": 3, "IRM": "", "gname": "GABRIELE", "lat": 46.37191268996527, "nationality": "SUI", "spd": "36.27 kmh", "lon": 6.187863347800085, "valid": 1, "fname": "CERATO", "team": "U17", "cad": "97"}, {"hr": "", "pow": "", "bib": 303, "rank": 4, "IRM": "", "gname": "DAMIEN", "lat": 46.37190894728947, "nationality": "SUI", "spd": "46.07 kmh", "lon": 6.187857199118416, "valid": 1, "fname": "FORTIS", "team": "U17", "cad": ""}, {"hr": "", "pow": "", "bib": 304, "rank": 5, "IRM": "", "gname": "MAXIME", "lat": 46.37190532342878, "nationality": "SUI", "spd": "37.94 kmh", "lon": 6.187851245632991, "valid": 1, "fname": "JUILLERAT", "team": "U17", "cad": ""}, {"hr": "", "pow": "", "bib": 301, "rank": 6, "IRM": "", "gname": "SYLVAIN", "lat": 46.37188732294041, "nationality": "SUI", "spd": "36.98 kmh", "lon": 6.187821673402107, "valid": 1, "fname": "BRUNNER", "team": "U17", "cad": ""}, {"hr": "170", "pow": "43", "bib": 305, "rank": 7, "IRM": "", "gname": "HENRY", "lat": 46.37187716424896, "nationality": "GBR", "spd": "36.43 kmh", "lon": 6.187804984123291, "valid": 1, "fname": "LAWTON", "team": "U17", "cad": "107"}], "no": 1}, {"distance": 128, "gap": "+0:13", "athletes": [{"hr": "", "pow": "", "bib": 401, "rank": 8, "IRM": "", "gname": "MARGOT", "lat": 46.37109770297867, "nationality": "SUI", "spd": "40.42 kmh", "lon": 6.18670833960311, "valid": 1, "fname": "VESIN", "team": "W17", "cad": ""}], "no": 2}]}