{"timestamp": 29513, "groups": [{"distance": 0, "gap": "+0:00", "athletes": [{"hr": "", "pow": "", "bib": 303, "rank": 1, "IRM": "", "gname": "DAMIEN", "lat": 46.371991550231975, "nationality": "SUI", "spd": "48.50 kmh", "lon": 6.187994196743178, "valid": 1, "fname": "FORTIS", "team": "U17", "cad": ""}, {"hr": "150", "pow": "", "bib": 307, "rank": 2, "IRM": "", "gname": "Z\u00c9ON", "lat": 46.37198982133488, "nationality": "SUI", "spd": "39.10 kmh", "lon": 6.187991202799417, "valid": 1, "fname": "TAILLEFERT", "team": "U17", "cad": ""}, {"hr": "184", "pow": "591", "bib": 306, "rank": 3, "IRM": "", "gname": "THIBAUD", "lat": 46.371979966621396, "nationality": "SUI", "spd": "37.64 kmh", "lon": 6.187974137319975, "valid": 1, "fname": "ROSSIER", "team": "U17", "cad": "100"}, {"hr": "185", "pow": "591", "bib": 302, "rank": 4, "IRM": "", "gname": "GABRIELE", "lat": 46.37197771905516, "nationality": "SUI", "spd": "36.60 kmh", "lon": 6.1879702451930845, "valid": 1, "fname": "CERATO", "team": "U17", "cad": "93"}, {"hr": "", "pow": "", "bib": 304, "rank": 5, "IRM": "", "gname": "MAXIME", "lat": 46.37196942417777, "nationality": "SUI", "spd": "38.23 kmh", "lon": 6.187956554006335, "valid": 1, "fname": "JUILLERAT", "team": "U17", "cad": ""}, {"hr": "", "pow": "", "bib": 301, "rank": 6, "IRM": "", "gname": "SYLVAIN", "lat": 46.37195124546675, "nationality": "SUI", "spd": "37.62 kmh", "lon": 6.187926688981086, "valid": 1, "fname": "BRUNNER", "team": "U17", "cad": ""}, {"hr": "170", "pow": "43", "bib": 305, "rank": 7, "IRM": "", "gname": "HENRY", "lat": 46.371907528109055, "nationality": "GBR", "spd": "36.43 kmh", "lon": 6.18785486760773, "valid": 0, "fname": "LAWTON", "team": "U17", "cad": "107"}], "no": 1}, {"distance": 130, "gap": "+0:13", "athletes": [{"hr": "", "pow": "", "bib": 401, "rank": 8, "IRM": "", "gname": "MARGOT", "lat": 46.37115973772785, "nationality": "SUI", "spd": "33.95 kmh", "lon": 6.186790404849619, "valid": 1, "fname": "VESIN", "team": "W17", "cad": ""}], "no": 2}]}