{"timestamp": 29520, "groups": [{"distance": 0, "gap": "+0:00", "athletes": [{"hr": "", "pow": "", "bib": 303, "rank": 1, "IRM": "", "gname": "DAMIEN", "lat": 46.37251841688583, "nationality": "SUI", "spd": "51.74 kmh", "lon": 6.189061866283548, "valid": 1, "fname": "FORTIS", "team": "U17", "cad": ""}, {"hr": "150", "pow": "", "bib": 307, "rank": 2, "IRM": "", "gname": "Z\u00c9ON", "lat": 46.37247807326734, "nationality": "SUI", "spd": "49.43 kmh", "lon": 6.188976392515556, "valid": 1, "fname": "TAILLEFERT", "team": "U17", "cad": ""}, {"hr": "193", "pow": "22", "bib": 302, "rank": 3, "IRM": "", "gname": "GABRIELE", "lat": 46.3724587123851, "nationality": "SUI", "spd": "48.13 kmh", "lon": 6.188935373697249, "valid": 1, "fname": "CERATO", "team": "U17", "cad": "107"}, {"hr": "184", "pow": "22", "bib": 306, "rank": 4, "IRM": "", "gname": "THIBAUD", "lat": 46.37244867716341, "nationality": "SUI", "spd": "47.89 kmh", "lon": 6.1889141126343565, "valid": 1, "fname": "ROSSIER", "team": "U17", "cad": "119"}, {"hr": "174", "pow": "321", "bib": 305, "rank": 5, "IRM": "", "gname": "HENRY", "lat": 46.37242039608412, "nationality": "GBR", "spd": "48.20 kmh", "lon": 6.1888541950934775, "valid": 1, "fname": "LAWTON", "team": "U17", "cad": "110"}, {"hr": "", "pow": "", "bib": 301, "rank": 6, "IRM": "", "gname": "SYLVAIN", "lat": 46.37241877423011, "nationality": "SUI", "spd": "48.08 kmh", "lon": 6.188850758962102, "valid": 1, "fname": "BRUNNER", "team": "U17", "cad": ""}, {"hr": "", "pow": "", "bib": 304, "rank": 7, "IRM": "", "gname": "MAXIME", "lat": 46.372418166034855, "nationality": "SUI", "spd": "46.04 kmh", "lon": 6.188849470412835, "valid": 1, "fname": "JUILLERAT", "team": "U17", "cad": ""}], "no": 1}, {"distance": 168, "gap": "+0:13", "athletes": [{"hr": "", "pow": "", "bib": 401, "rank": 8, "IRM": "", "gname": "MARGOT", "lat": 46.371574465315504, "nationality": "SUI", "spd": "32.71 kmh", "lon": 6.187364260254049, "valid": 1, "fname": "VESIN", "team": "W17", "cad": ""}], "no": 2}]}