{"timestamp": 29523, "groups": [{"distance": 0, "gap": "+0:00", "athletes": [{"hr": "", "pow": "", "bib": 303, "rank": 1, "IRM": "", "gname": "DAMIEN", "lat": 46.372734408162344, "nationality": "SUI", "spd": "60.45 kmh", "lon": 6.189527992960695, "valid": 1, "fname": "FORTIS", "team": "U17", "cad": ""}, {"hr": "150", "pow": "", "bib": 307, "rank": 2, "IRM": "", "gname": "Z\u00c9ON", "lat": 46.3726896717173, "nationality": "SUI", "spd": "50.54 kmh", "lon": 6.189430498363226, "valid": 1, "fname": "TAILLEFERT", "team": "U17", "cad": ""}, {"hr": "196", "pow": "72", "bib": 302, "rank": 3, "IRM": "", "gname": "GABRIELE", "lat": 46.37266750232343, "nationality": "SUI", "spd": "48.27 kmh", "lon": 6.189382184373814, "valid": 1, "fname": "CERATO", "team": "U17", "cad": "121"}, {"hr": "185", "pow": "208", "bib": 306, "rank": 4, "IRM": "", "gname": "THIBAUD", "lat": 46.37265308724669, "nationality": "SUI", "spd": "48.67 kmh", "lon": 6.189350769447962, "valid": 1, "fname": "ROSSIER", "team": "U17", "cad": "119"}, {"hr": "177", "pow": "116", "bib": 305, "rank": 5, "IRM": "", "gname": "HENRY", "lat": 46.37262450562903, "nationality": "GBR", "spd": "48.03 kmh", "lon": 6.189288481232913, "valid": 1, "fname": "LAWTON", "team": "U17", "cad": "117"}, {"hr": "", "pow": "", "bib": 301, "rank": 6, "IRM": "", "gname": "SYLVAIN", "lat": 46.37261719867634, "nationality": "SUI", "spd": "47.09 kmh", "lon": 6.189272557115326, "valid": 1, "fname": "BRUNNER", "team": "U17", "cad": ""}, {"hr": "", "pow": "", "bib": 304, "rank": 7, "IRM": "", "gname": "MAXIME", "lat": 46.372617099262015, "nationality": "SUI", "spd": "47.21 kmh", "lon": 6.189272340460666, "valid": 1, "fname": "JUILLERAT", "team": "U17", "cad": ""}], "no": 1}, {"distance": 184, "gap": "+0:14", "athletes": [{"hr": "", "pow": "", "bib": 401, "rank": 8, "IRM": "", "gname": "MARGOT", "lat": 46.37174465950122, "nationality": "SUI", "spd": "32.06 kmh", "lon": 6.187609496183924, "valid": 1, "fname": "VESIN", "team": "W17", "cad": ""}], "no": 2}]}