{"timestamp": 29521, "groups": [{"distance": 0, "gap": "+0:00", "athletes": [{"hr": "", "pow": "", "bib": 303, "rank": 1, "IRM": "", "gname": "DAMIEN", "lat": 46.37259074143808, "nationality": "SUI", "spd": "51.61 kmh", "lon": 6.189215096267121, "valid": 1, "fname": "FORTIS", "team": "U17", "cad": ""}, {"hr": "150", "pow": "", "bib": 307, "rank": 2, "IRM": "", "gname": "Z\u00c9ON", "lat": 46.372548674599706, "nationality": "SUI", "spd": "49.73 kmh", "lon": 6.189125971609542, "valid": 1, "fname": "TAILLEFERT", "team": "U17", "cad": ""}, {"hr": "194", "pow": "108", "bib": 302, "rank": 3, "IRM": "", "gname": "GABRIELE", "lat": 46.37252824937577, "nationality": "SUI", "spd": "48.33 kmh", "lon": 6.189082697830019, "valid": 1, "fname": "CERATO", "team": "U17", "cad": "119"}, {"hr": "184", "pow": "108", "bib": 306, "rank": 4, "IRM": "", "gname": "THIBAUD", "lat": 46.37251694708064, "nationality": "SUI", "spd": "48.02 kmh", "lon": 6.189058752289488, "valid": 1, "fname": "ROSSIER", "team": "U17", "cad": "119"}, {"hr": "174", "pow": "116", "bib": 305, "rank": 5, "IRM": "", "gname": "HENRY", "lat": 46.37248881805016, "nationality": "GBR", "spd": "48.20 kmh", "lon": 6.1889991568859255, "valid": 1, "fname": "LAWTON", "team": "U17", "cad": "102"}, {"hr": "", "pow": "", "bib": 301, "rank": 6, "IRM": "", "gname": "SYLVAIN", "lat": 46.372486081171516, "nationality": "SUI", "spd": "48.01 kmh", "lon": 6.188993358414228, "valid": 1, "fname": "BRUNNER", "team": "U17", "cad": ""}, {"hr": "", "pow": "", "bib": 304, "rank": 7, "IRM": "", "gname": "MAXIME", "lat": 46.37248440863457, "nationality": "SUI", "spd": "46.57 kmh", "lon": 6.188989814903746, "valid": 1, "fname": "JUILLERAT", "team": "U17", "cad": ""}], "no": 1}, {"distance": 173, "gap": "+0:13", "athletes": [{"hr": "", "pow": "", "bib": 401, "rank": 8, "IRM": "", "gname": "MARGOT", "lat": 46.37163177045703, "nationality": "SUI", "spd": "32.20 kmh", "lon": 6.187446892221519, "valid": 1, "fname": "VESIN", "team": "W17", "cad": ""}], "no": 2}]}