{"timestamp": 29522, "groups": [{"distance": 0, "gap": "+0:00", "athletes": [{"hr": "", "pow": "", "bib": 303, "rank": 1, "IRM": "", "gname": "DAMIEN", "lat": 46.37262627023325, "nationality": "SUI", "spd": "51.61 kmh", "lon": 6.189292326853146, "valid": 0, "fname": "FORTIS", "team": "U17", "cad": ""}, {"hr": "150", "pow": "", "bib": 307, "rank": 2, "IRM": "", "gname": "Z\u00c9ON", "lat": 46.372619385791424, "nationality": "SUI", "spd": "50.18 kmh", "lon": 6.189277323517869, "valid": 1, "fname": "TAILLEFERT", "team": "U17", "cad": ""}, {"hr": "195", "pow": "208", "bib": 302, "rank": 3, "IRM": "", "gname": "GABRIELE", "lat": 46.372597862590645, "nationality": "SUI", "spd": "48.33 kmh", "lon": 6.189230417783754, "valid": 1, "fname": "CERATO", "team": "U17", "cad": "122"}, {"hr": "185", "pow": "208", "bib": 306, "rank": 4, "IRM": "", "gname": "THIBAUD", "lat": 46.37258557177842, "nationality": "SUI", "spd": "48.42 kmh", "lon": 6.189204143598358, "valid": 1, "fname": "ROSSIER", "team": "U17", "cad": "120"}, {"hr": "176", "pow": "116", "bib": 305, "rank": 5, "IRM": "", "gname": "HENRY", "lat": 46.37255668250388, "nationality": "GBR", "spd": "48.20 kmh", "lon": 6.189142937508214, "valid": 1, "fname": "LAWTON", "team": "U17", "cad": "106"}, {"hr": "", "pow": "", "bib": 301, "rank": 6, "IRM": "", "gname": "SYLVAIN", "lat": 46.372552222405346, "nationality": "SUI", "spd": "47.57 kmh", "lon": 6.189133488146928, "valid": 1, "fname": "BRUNNER", "team": "U17", "cad": ""}, {"hr": "", "pow": "", "bib": 304, "rank": 7, "IRM": "", "gname": "MAXIME", "lat": 46.372551006014845, "nationality": "SUI", "spd": "46.96 kmh", "lon": 6.189130911048395, "valid": 1, "fname": "JUILLERAT", "team": "U17", "cad": ""}], "no": 1}, {"distance": 171, "gap": "+0:13", "athletes": [{"hr": "", "pow": "", "bib": 401, "rank": 8, "IRM": "", "gname": "MARGOT", "lat": 46.371687420116686, "nationality": "SUI", "spd": "31.91 kmh", "lon": 6.187527137043262, "valid": 1, "fname": "VESIN", "team": "W17", "cad": ""}], "no": 2}]}