{"timestamp": 29535, "groups": [{"distance": 0, "gap": "+0:00", "athletes": [{"hr": "", "pow": "", "bib": 303, "rank": 1, "IRM": "", "gname": "DAMIEN", "lat": 46.374064576102704, "nationality": "SUI", "spd": "50.50 kmh", "lon": 6.190696219859444, "valid": 1, "fname": "FORTIS", "team": "U17", "cad": ""}, {"hr": "150", "pow": "", "bib": 307, "rank": 2, "IRM": "", "gname": "Z\u00c9ON", "lat": 46.37402097372043, "nationality": "SUI", "spd": "52.86 kmh", "lon": 6.190663263253618, "valid": 1, "fname": "TAILLEFERT", "team": "U17", "cad": ""}, {"hr": "200", "pow": "0", "bib": 302, "rank": 3, "IRM": "", "gname": "GABRIELE", "lat": 46.37400040806297, "nationality": "SUI", "spd": "54.77 kmh", "lon": 6.190647718821619, "valid": 1, "fname": "CERATO", "team": "U17", "cad": "132"}, {"hr": "179", "pow": "", "bib": 305, "rank": 4, "IRM": "", "gname": "HENRY", "lat": 46.373930341346295, "nationality": "GBR", "spd": "53.83 kmh", "lon": 6.190594759303299, "valid": 1, "fname": "LAWTON", "team": "U17", "cad": "132"}, {"hr": "184", "pow": "", "bib": 306, "rank": 5, "IRM": "", "gname": "THIBAUD", "lat": 46.373911848196954, "nationality": "SUI", "spd": "49.92 kmh", "lon": 6.1905807813644484, "valid": 1, "fname": "ROSSIER", "team": "U17", "cad": "120"}, {"hr": "", "pow": "", "bib": 301, "rank": 6, "IRM": "", "gname": "SYLVAIN", "lat": 46.373879168714915, "nationality": "SUI", "spd": "53.47 kmh", "lon": 6.190556072452723, "valid": 1, "fname": "BRUNNER", "team": "U17", "cad": ""}, {"hr": "", "pow": "", "bib": 304, "rank": 7, "IRM": "", "gname": "MAXIME", "lat": 46.37386092023933, "nationality": "SUI", "spd": "52.26 kmh", "lon": 6.190542260070654, "valid": 1, "fname": "JUILLERAT", "team": "U17", "cad": ""}], "no": 1}, {"distance": 247, "gap": "+0:17", "athletes": [{"hr": "", "pow": "", "bib": 401, "rank": 8, "IRM": "", "gname": "MARGOT", "lat": 46.37236824334112, "nationality": "SUI", "spd": "34.46 kmh", "lon": 6.188743701993901, "valid": 1, "fname": "VESIN", "team": "W17", "cad": ""}], "no": 2}]}