{"timestamp": 29537, "groups": [{"distance": 0, "gap": "+0:00", "athletes": [{"hr": "", "pow": "", "bib": 303, "rank": 1, "IRM": "", "gname": "DAMIEN", "lat": 46.37428149638364, "nationality": "SUI", "spd": "49.25 kmh", "lon": 6.1908606414049085, "valid": 1, "fname": "FORTIS", "team": "U17", "cad": ""}, {"hr": "150", "pow": "", "bib": 307, "rank": 2, "IRM": "", "gname": "Z\u00c9ON", "lat": 46.374255167137484, "nationality": "SUI", "spd": "52.80 kmh", "lon": 6.190840276979244, "valid": 1, "fname": "TAILLEFERT", "team": "U17", "cad": ""}, {"hr": "199", "pow": "0", "bib": 302, "rank": 3, "IRM": "", "gname": "GABRIELE", "lat": 46.37423244926006, "nationality": "SUI", "spd": "52.00 kmh", "lon": 6.190823105804362, "valid": 1, "fname": "CERATO", "team": "U17", "cad": "60"}, {"hr": "179", "pow": "", "bib": 305, "rank": 4, "IRM": "", "gname": "HENRY", "lat": 46.37417410018543, "nationality": "GBR", "spd": "54.17 kmh", "lon": 6.190779002997296, "valid": 1, "fname": "LAWTON", "team": "U17", "cad": "60"}, {"hr": "183", "pow": "", "bib": 306, "rank": 5, "IRM": "", "gname": "THIBAUD", "lat": 46.374133048582365, "nationality": "SUI", "spd": "49.86 kmh", "lon": 6.190747974383036, "valid": 1, "fname": "ROSSIER", "team": "U17", "cad": "119"}, {"hr": "", "pow": "", "bib": 301, "rank": 6, "IRM": "", "gname": "SYLVAIN", "lat": 46.37412045410997, "nationality": "SUI", "spd": "54.38 kmh", "lon": 6.19073845492468, "valid": 1, "fname": "BRUNNER", "team": "U17", "cad": ""}, {"hr": "", "pow": "", "bib": 304, "rank": 7, "IRM": "", "gname": "MAXIME", "lat": 46.37408912735269, "nationality": "SUI", "spd": "51.53 kmh", "lon": 6.190714776778264, "valid": 1, "fname": "JUILLERAT", "team": "U17", "cad": ""}], "no": 1}, {"distance": 254, "gap": "+0:18", "athletes": [{"hr": "", "pow": "", "bib": 401, "rank": 8, "IRM": "", "gname": "MARGOT", "lat": 46.37247036946079, "nationality": "SUI", "spd": "35.75 kmh", "lon": 6.188960070891517, "valid": 1, "fname": "VESIN", "team": "W17", "cad": ""}], "no": 2}]}