{"timestamp": 29533, "groups": [{"distance": 0, "gap": "+0:00", "athletes": [{"hr": "", "pow": "", "bib": 303, "rank": 1, "IRM": "", "gname": "DAMIEN", "lat": 46.373842671763754, "nationality": "SUI", "spd": "51.23 kmh", "lon": 6.1905284476885845, "valid": 1, "fname": "FORTIS", "team": "U17", "cad": ""}, {"hr": "150", "pow": "", "bib": 307, "rank": 2, "IRM": "", "gname": "Z\u00c9ON", "lat": 46.37378752789868, "nationality": "SUI", "spd": "53.62 kmh", "lon": 6.190486708961983, "valid": 1, "fname": "TAILLEFERT", "team": "U17", "cad": ""}, {"hr": "201", "pow": "48", "bib": 302, "rank": 3, "IRM": "", "gname": "GABRIELE", "lat": 46.373766410667116, "nationality": "SUI", "spd": "54.80 kmh", "lon": 6.190470725201074, "valid": 1, "fname": "CERATO", "team": "U17", "cad": "131"}, {"hr": "184", "pow": "", "bib": 306, "rank": 4, "IRM": "", "gname": "THIBAUD", "lat": 46.373691265197806, "nationality": "SUI", "spd": "50.71 kmh", "lon": 6.190413847138667, "valid": 1, "fname": "ROSSIER", "team": "U17", "cad": "131"}, {"hr": "179", "pow": "", "bib": 305, "rank": 5, "IRM": "", "gname": "HENRY", "lat": 46.37368855581715, "nationality": "GBR", "spd": "54.33 kmh", "lon": 6.1904117963919845, "valid": 1, "fname": "LAWTON", "team": "U17", "cad": "131"}, {"hr": "", "pow": "", "bib": 301, "rank": 6, "IRM": "", "gname": "SYLVAIN", "lat": 46.37364034477904, "nationality": "SUI", "spd": "52.80 kmh", "lon": 6.190375305164247, "valid": 1, "fname": "BRUNNER", "team": "U17", "cad": ""}, {"hr": "", "pow": "", "bib": 304, "rank": 7, "IRM": "", "gname": "MAXIME", "lat": 46.37363165882342, "nationality": "SUI", "spd": "53.63 kmh", "lon": 6.190368730711647, "valid": 1, "fname": "JUILLERAT", "team": "U17", "cad": ""}], "no": 1}, {"distance": 238, "gap": "+0:16", "athletes": [{"hr": "", "pow": "", "bib": 401, "rank": 8, "IRM": "", "gname": "MARGOT", "lat": 46.3722702983075, "nationality": "SUI", "spd": "34.67 kmh", "lon": 6.188540376636814, "valid": 1, "fname": "VESIN", "team": "W17", "cad": ""}], "no": 2}]}