{"timestamp": 29540, "groups": [{"distance": 0, "gap": "+0:00", "athletes": [{"hr": "", "pow": "", "bib": 303, "rank": 1, "IRM": "", "gname": "DAMIEN", "lat": 46.374582274990765, "nationality": "SUI", "spd": "45.92 kmh", "lon": 6.19110266733951, "valid": 1, "fname": "FORTIS", "team": "U17", "cad": ""}, {"hr": "150", "pow": "", "bib": 307, "rank": 2, "IRM": "", "gname": "Z\u00c9ON", "lat": 46.37458109608324, "nationality": "SUI", "spd": "58.58 kmh", "lon": 6.1911017187142106, "valid": 1, "fname": "TAILLEFERT", "team": "U17", "cad": ""}, {"hr": "197", "pow": "0", "bib": 302, "rank": 3, "IRM": "", "gname": "GABRIELE", "lat": 46.37455940418474, "nationality": "SUI", "spd": "51.00 kmh", "lon": 6.191084264008711, "valid": 1, "fname": "CERATO", "team": "U17", "cad": "39"}, {"hr": "179", "pow": "", "bib": 305, "rank": 4, "IRM": "", "gname": "HENRY", "lat": 46.37451837820279, "nationality": "GBR", "spd": "52.23 kmh", "lon": 6.191051251848307, "valid": 1, "fname": "LAWTON", "team": "U17", "cad": "52"}, {"hr": "", "pow": "", "bib": 301, "rank": 5, "IRM": "", "gname": "SYLVAIN", "lat": 46.374473658310585, "nationality": "SUI", "spd": "53.60 kmh", "lon": 6.191015267328635, "valid": 1, "fname": "BRUNNER", "team": "U17", "cad": ""}, {"hr": "182", "pow": "", "bib": 306, "rank": 6, "IRM": "", "gname": "THIBAUD", "lat": 46.37445338110111, "nationality": "SUI", "spd": "48.61 kmh", "lon": 6.190998950973493, "valid": 1, "fname": "ROSSIER", "team": "U17", "cad": "99"}, {"hr": "", "pow": "", "bib": 304, "rank": 7, "IRM": "", "gname": "MAXIME", "lat": 46.374415263091066, "nationality": "SUI", "spd": "49.40 kmh", "lon": 6.190968278755494, "valid": 1, "fname": "JUILLERAT", "team": "U17", "cad": ""}], "no": 1}, {"distance": 262, "gap": "+0:18", "athletes": [{"hr": "", "pow": "", "bib": 401, "rank": 8, "IRM": "", "gname": "MARGOT", "lat": 46.37262206997813, "nationality": "SUI", "spd": "36.05 kmh", "lon": 6.189283173193718, "valid": 1, "fname": "VESIN", "team": "W17", "cad": ""}], "no": 2}]}