{"timestamp": 29549, "groups": [{"distance": 0, "gap": "+0:00", "athletes": [{"hr": "", "pow": "", "bib": 303, "rank": 1, "IRM": "", "gname": "DAMIEN", "lat": 46.375110131896065, "nationality": "SUI", "spd": "32.81 kmh", "lon": 6.1918235248840405, "valid": 1, "fname": "FORTIS", "team": "U17", "cad": ""}, {"hr": "153", "pow": "", "bib": 307, "rank": 2, "IRM": "", "gname": "Z\u00c9ON", "lat": 46.37512628942068, "nationality": "SUI", "spd": "32.96 kmh", "lon": 6.191770890523549, "valid": 0, "fname": "TAILLEFERT", "team": "U17", "cad": ""}, {"hr": "188", "pow": "496", "bib": 302, "rank": 3, "IRM": "", "gname": "GABRIELE", "lat": 46.37513011908227, "nationality": "SUI", "spd": "39.43 kmh", "lon": 6.191758415110791, "valid": 1, "fname": "CERATO", "team": "U17", "cad": "108"}, {"hr": "172", "pow": "506", "bib": 305, "rank": 4, "IRM": "", "gname": "HENRY", "lat": 46.3751330004467, "nationality": "GBR", "spd": "31.50 kmh", "lon": 6.19174902884786, "valid": 1, "fname": "LAWTON", "team": "U17", "cad": "112"}, {"hr": "", "pow": "", "bib": 301, "rank": 5, "IRM": "", "gname": "SYLVAIN", "lat": 46.37514937235602, "nationality": "SUI", "spd": "30.29 kmh", "lon": 6.191692991333824, "valid": 1, "fname": "BRUNNER", "team": "U17", "cad": ""}, {"hr": "180", "pow": "0", "bib": 306, "rank": 6, "IRM": "", "gname": "THIBAUD", "lat": 46.3751519618564, "nationality": "SUI", "spd": "29.44 kmh", "lon": 6.191683989737257, "valid": 1, "fname": "ROSSIER", "team": "U17", "cad": "0"}, {"hr": "", "pow": "", "bib": 304, "rank": 7, "IRM": "", "gname": "MAXIME", "lat": 46.37516079738441, "nationality": "SUI", "spd": "32.88 kmh", "lon": 6.191631529425414, "valid": 1, "fname": "JUILLERAT", "team": "U17", "cad": ""}], "no": 1}, {"distance": 254, "gap": "+0:21", "athletes": [{"hr": "", "pow": "", "bib": 401, "rank": 8, "IRM": "", "gname": "MARGOT", "lat": 46.37330911624216, "nationality": "SUI", "spd": "43.54 kmh", "lon": 6.190129581702882, "valid": 1, "fname": "VESIN", "team": "W17", "cad": ""}], "no": 2}]}