{"timestamp": 29544, "groups": [{"distance": 0, "gap": "+0:00", "athletes": [{"hr": "151", "pow": "", "bib": 307, "rank": 1, "IRM": "", "gname": "Z\u00c9ON", "lat": 46.374962734949214, "nationality": "SUI", "spd": "41.92 kmh", "lon": 6.19139491348002, "valid": 1, "fname": "TAILLEFERT", "team": "U17", "cad": ""}, {"hr": "", "pow": "", "bib": 303, "rank": 2, "IRM": "", "gname": "DAMIEN", "lat": 46.37495612612865, "nationality": "SUI", "spd": "41.27 kmh", "lon": 6.1913893560627296, "valid": 1, "fname": "FORTIS", "team": "U17", "cad": ""}, {"hr": "195", "pow": "0", "bib": 302, "rank": 3, "IRM": "", "gname": "GABRIELE", "lat": 46.37493569427351, "nationality": "SUI", "spd": "44.77 kmh", "lon": 6.1913729220080365, "valid": 1, "fname": "CERATO", "team": "U17", "cad": "0"}, {"hr": "177", "pow": "", "bib": 305, "rank": 4, "IRM": "", "gname": "HENRY", "lat": 46.374905524346545, "nationality": "GBR", "spd": "47.73 kmh", "lon": 6.1913499745787375, "valid": 1, "fname": "LAWTON", "team": "U17", "cad": "29"}, {"hr": "", "pow": "", "bib": 301, "rank": 5, "IRM": "", "gname": "SYLVAIN", "lat": 46.374885862151395, "nationality": "SUI", "spd": "44.88 kmh", "lon": 6.191335019393943, "valid": 1, "fname": "BRUNNER", "team": "U17", "cad": ""}, {"hr": "181", "pow": "0", "bib": 306, "rank": 6, "IRM": "", "gname": "THIBAUD", "lat": 46.37485879678156, "nationality": "SUI", "spd": "45.92 kmh", "lon": 6.1913144333096115, "valid": 1, "fname": "ROSSIER", "team": "U17", "cad": "0"}, {"hr": "", "pow": "", "bib": 304, "rank": 7, "IRM": "", "gname": "MAXIME", "lat": 46.374816447438164, "nationality": "SUI", "spd": "45.28 kmh", "lon": 6.191282222142363, "valid": 1, "fname": "JUILLERAT", "team": "U17", "cad": ""}], "no": 1}, {"distance": 268, "gap": "+0:20", "athletes": [{"hr": "", "pow": "", "bib": 401, "rank": 8, "IRM": "", "gname": "MARGOT", "lat": 46.3728426653183, "nationality": "SUI", "spd": "38.23 kmh", "lon": 6.189725760562859, "valid": 1, "fname": "VESIN", "team": "W17", "cad": ""}], "no": 2}]}