{"timestamp": 29558, "groups": [{"distance": 0, "gap": "+0:00", "athletes": [{"hr": "179", "pow": "576", "bib": 305, "rank": 1, "IRM": "", "gname": "HENRY", "lat": 46.37481535504638, "nationality": "GBR", "spd": "41.37 kmh", "lon": 6.192989852744098, "valid": 1, "fname": "LAWTON", "team": "U17", "cad": "101"}, {"hr": "158", "pow": "", "bib": 307, "rank": 2, "IRM": "", "gname": "Z\u00c9ON", "lat": 46.37482447015473, "nationality": "SUI", "spd": "49.08 kmh", "lon": 6.192939558793343, "valid": 1, "fname": "TAILLEFERT", "team": "U17", "cad": ""}, {"hr": "190", "pow": "562", "bib": 302, "rank": 3, "IRM": "", "gname": "GABRIELE", "lat": 46.37482456130581, "nationality": "SUI", "spd": "41.37 kmh", "lon": 6.192939055853835, "valid": 1, "fname": "CERATO", "team": "U17", "cad": "101"}, {"hr": "", "pow": "", "bib": 303, "rank": 4, "IRM": "", "gname": "DAMIEN", "lat": 46.37482775159373, "nationality": "SUI", "spd": "37.90 kmh", "lon": 6.1929214529710706, "valid": 1, "fname": "FORTIS", "team": "U17", "cad": ""}, {"hr": "", "pow": "", "bib": 301, "rank": 5, "IRM": "", "gname": "SYLVAIN", "lat": 46.37483477022716, "nationality": "SUI", "spd": "41.34 kmh", "lon": 6.192882726628988, "valid": 1, "fname": "BRUNNER", "team": "U17", "cad": ""}, {"hr": "180", "pow": "562", "bib": 306, "rank": 6, "IRM": "", "gname": "THIBAUD", "lat": 46.37484926324943, "nationality": "SUI", "spd": "39.64 kmh", "lon": 6.192802759247287, "valid": 1, "fname": "ROSSIER", "team": "U17", "cad": "101"}, {"hr": "", "pow": "", "bib": 304, "rank": 7, "IRM": "", "gname": "MAXIME", "lat": 46.374852726990596, "nationality": "SUI", "spd": "40.96 kmh", "lon": 6.192783647545999, "valid": 1, "fname": "JUILLERAT", "team": "U17", "cad": ""}], "no": 1}, {"distance": 239, "gap": "+0:22", "athletes": [{"hr": "", "pow": "", "bib": 401, "rank": 8, "IRM": "", "gname": "MARGOT", "lat": 46.37418533955636, "nationality": "SUI", "spd": "43.93 kmh", "lon": 6.190787498210132, "valid": 1, "fname": "VESIN", "team": "W17", "cad": ""}], "no": 2}]}