{"timestamp": 29566, "groups": [{"distance": 0, "gap": "+0:00", "athletes": [{"hr": "189", "pow": "0", "bib": 305, "rank": 1, "IRM": "", "gname": "HENRY", "lat": 46.374683537384676, "nationality": "GBR", "spd": "42.50 kmh", "lon": 6.1942679342402585, "valid": 1, "fname": "LAWTON", "team": "U17", "cad": "81"}, {"hr": "198", "pow": "0", "bib": 302, "rank": 2, "IRM": "", "gname": "GABRIELE", "lat": 46.374661665080005, "nationality": "SUI", "spd": "44.27 kmh", "lon": 6.194216995240007, "valid": 1, "fname": "CERATO", "team": "U17", "cad": "45"}, {"hr": "174", "pow": "", "bib": 307, "rank": 3, "IRM": "", "gname": "Z\u00c9ON", "lat": 46.37463916729715, "nationality": "SUI", "spd": "42.34 kmh", "lon": 6.194140709220203, "valid": 1, "fname": "TAILLEFERT", "team": "U17", "cad": ""}, {"hr": "", "pow": "", "bib": 303, "rank": 4, "IRM": "", "gname": "DAMIEN", "lat": 46.3746388357145, "nationality": "SUI", "spd": "43.57 kmh", "lon": 6.1941389537826606, "valid": 1, "fname": "FORTIS", "team": "U17", "cad": ""}, {"hr": "", "pow": "", "bib": 301, "rank": 5, "IRM": "", "gname": "SYLVAIN", "lat": 46.37463300933371, "nationality": "SUI", "spd": "43.69 kmh", "lon": 6.194108108237268, "valid": 1, "fname": "BRUNNER", "team": "U17", "cad": ""}, {"hr": "184", "pow": "0", "bib": 306, "rank": 6, "IRM": "", "gname": "THIBAUD", "lat": 46.37463011460592, "nationality": "SUI", "spd": "43.76 kmh", "lon": 6.194012807716314, "valid": 1, "fname": "ROSSIER", "team": "U17", "cad": "104"}, {"hr": "", "pow": "", "bib": 304, "rank": 7, "IRM": "", "gname": "MAXIME", "lat": 46.37463820453674, "nationality": "SUI", "spd": "41.51 kmh", "lon": 6.19394938028264, "valid": 1, "fname": "JUILLERAT", "team": "U17", "cad": ""}], "no": 1}, {"distance": 253, "gap": "+0:23", "athletes": [{"hr": "", "pow": "", "bib": 401, "rank": 8, "IRM": "", "gname": "MARGOT", "lat": 46.3748853049232, "nationality": "SUI", "spd": "37.60 kmh", "lon": 6.191334595562795, "valid": 1, "fname": "VESIN", "team": "W17", "cad": ""}], "no": 2}]}