{"timestamp": 29571, "groups": [{"distance": 0, "gap": "+0:00", "athletes": [{"hr": "191", "pow": "253", "bib": 305, "rank": 1, "IRM": "", "gname": "HENRY", "lat": 46.37519309300616, "nationality": "GBR", "spd": "47.90 kmh", "lon": 6.194834386941087, "valid": 1, "fname": "LAWTON", "team": "U17", "cad": "129"}, {"hr": "200", "pow": "236", "bib": 302, "rank": 2, "IRM": "", "gname": "GABRIELE", "lat": 46.375147214641515, "nationality": "SUI", "spd": "50.27 kmh", "lon": 6.194786088831471, "valid": 1, "fname": "CERATO", "team": "U17", "cad": "131"}, {"hr": "188", "pow": "", "bib": 307, "rank": 3, "IRM": "", "gname": "Z\u00c9ON", "lat": 46.37510235418037, "nationality": "SUI", "spd": "51.58 kmh", "lon": 6.194738862312242, "valid": 1, "fname": "TAILLEFERT", "team": "U17", "cad": ""}, {"hr": "", "pow": "", "bib": 301, "rank": 4, "IRM": "", "gname": "SYLVAIN", "lat": 46.37507050834247, "nationality": "SUI", "spd": "50.21 kmh", "lon": 6.194705336841542, "valid": 1, "fname": "BRUNNER", "team": "U17", "cad": ""}, {"hr": "", "pow": "", "bib": 303, "rank": 5, "IRM": "", "gname": "DAMIEN", "lat": 46.375062037931244, "nationality": "SUI", "spd": "52.60 kmh", "lon": 6.194696419678673, "valid": 0, "fname": "FORTIS", "team": "U17", "cad": ""}, {"hr": "186", "pow": "", "bib": 306, "rank": 6, "IRM": "", "gname": "THIBAUD", "lat": 46.37503815355282, "nationality": "SUI", "spd": "48.88 kmh", "lon": 6.194671275575647, "valid": 1, "fname": "ROSSIER", "team": "U17", "cad": "122"}, {"hr": "", "pow": "", "bib": 304, "rank": 7, "IRM": "", "gname": "MAXIME", "lat": 46.37498776732984, "nationality": "SUI", "spd": "50.56 kmh", "lon": 6.194618231851457, "valid": 1, "fname": "JUILLERAT", "team": "U17", "cad": ""}], "no": 1}, {"distance": 284, "gap": "+0:23", "athletes": [{"hr": "", "pow": "", "bib": 401, "rank": 8, "IRM": "", "gname": "MARGOT", "lat": 46.37515926184937, "nationality": "SUI", "spd": "28.09 kmh", "lon": 6.191648804194594, "valid": 1, "fname": "VESIN", "team": "W17", "cad": ""}], "no": 2}]}