{"timestamp": 29577, "groups": [{"distance": 0, "gap": "+0:00", "athletes": [{"hr": "190", "pow": "0", "bib": 305, "rank": 1, "IRM": "", "gname": "HENRY", "lat": 46.37585810275819, "nationality": "GBR", "spd": "55.97 kmh", "lon": 6.195556333853833, "valid": 1, "fname": "LAWTON", "team": "U17", "cad": "111"}, {"hr": "200", "pow": "0", "bib": 302, "rank": 2, "IRM": "", "gname": "GABRIELE", "lat": 46.37583085622747, "nationality": "SUI", "spd": "55.47 kmh", "lon": 6.195525862881615, "valid": 1, "fname": "CERATO", "team": "U17", "cad": "110"}, {"hr": "", "pow": "", "bib": 303, "rank": 3, "IRM": "", "gname": "DAMIEN", "lat": 46.375803538556994, "nationality": "SUI", "spd": "58.67 kmh", "lon": 6.195495312350722, "valid": 1, "fname": "FORTIS", "team": "U17", "cad": ""}, {"hr": "190", "pow": "", "bib": 307, "rank": 4, "IRM": "", "gname": "Z\u00c9ON", "lat": 46.375782115183064, "nationality": "SUI", "spd": "57.48 kmh", "lon": 6.195471597997867, "valid": 1, "fname": "TAILLEFERT", "team": "U17", "cad": ""}, {"hr": "", "pow": "", "bib": 301, "rank": 5, "IRM": "", "gname": "SYLVAIN", "lat": 46.375738910364085, "nationality": "SUI", "spd": "56.71 kmh", "lon": 6.19542398938191, "valid": 1, "fname": "BRUNNER", "team": "U17", "cad": ""}, {"hr": "187", "pow": "", "bib": 306, "rank": 6, "IRM": "", "gname": "THIBAUD", "lat": 46.37569234358071, "nationality": "SUI", "spd": "56.22 kmh", "lon": 6.195372676121996, "valid": 1, "fname": "ROSSIER", "team": "U17", "cad": "137"}, {"hr": "", "pow": "", "bib": 304, "rank": 7, "IRM": "", "gname": "MAXIME", "lat": 46.37563619162226, "nationality": "SUI", "spd": "54.95 kmh", "lon": 6.195310800685694, "valid": 1, "fname": "JUILLERAT", "team": "U17", "cad": ""}], "no": 1}, {"distance": 320, "gap": "+0:24", "athletes": [{"hr": "", "pow": "", "bib": 401, "rank": 8, "IRM": "", "gname": "MARGOT", "lat": 46.37496449612141, "nationality": "SUI", "spd": "43.09 kmh", "lon": 6.1923281126969405, "valid": 1, "fname": "VESIN", "team": "W17", "cad": ""}], "no": 2}]}