{"timestamp": 29570, "groups": [{"distance": 0, "gap": "+0:00", "athletes": [{"hr": "191", "pow": "354", "bib": 305, "rank": 1, "IRM": "", "gname": "HENRY", "lat": 46.37508403191747, "nationality": "GBR", "spd": "45.50 kmh", "lon": 6.194719573685264, "valid": 1, "fname": "LAWTON", "team": "U17", "cad": "125"}, {"hr": "200", "pow": "337", "bib": 302, "rank": 2, "IRM": "", "gname": "GABRIELE", "lat": 46.37504018935981, "nationality": "SUI", "spd": "47.73 kmh", "lon": 6.194673418756423, "valid": 1, "fname": "CERATO", "team": "U17", "cad": "125"}, {"hr": "", "pow": "", "bib": 303, "rank": 3, "IRM": "", "gname": "DAMIEN", "lat": 46.375008707058875, "nationality": "SUI", "spd": "52.60 kmh", "lon": 6.1946402759965755, "valid": 1, "fname": "FORTIS", "team": "U17", "cad": ""}, {"hr": "187", "pow": "", "bib": 307, "rank": 4, "IRM": "", "gname": "Z\u00c9ON", "lat": 46.374993220384276, "nationality": "SUI", "spd": "50.22 kmh", "lon": 6.194623972514249, "valid": 1, "fname": "TAILLEFERT", "team": "U17", "cad": ""}, {"hr": "", "pow": "", "bib": 301, "rank": 5, "IRM": "", "gname": "SYLVAIN", "lat": 46.37496457367165, "nationality": "SUI", "spd": "49.37 kmh", "lon": 6.194593814899052, "valid": 1, "fname": "BRUNNER", "team": "U17", "cad": ""}, {"hr": "186", "pow": "", "bib": 306, "rank": 6, "IRM": "", "gname": "THIBAUD", "lat": 46.3749359811779, "nationality": "SUI", "spd": "51.19 kmh", "lon": 6.194562466117995, "valid": 1, "fname": "ROSSIER", "team": "U17", "cad": "114"}, {"hr": "", "pow": "", "bib": 304, "rank": 7, "IRM": "", "gname": "MAXIME", "lat": 46.37488759976404, "nationality": "SUI", "spd": "50.36 kmh", "lon": 6.194509018587495, "valid": 1, "fname": "JUILLERAT", "team": "U17", "cad": ""}], "no": 1}, {"distance": 277, "gap": "+0:24", "athletes": [{"hr": "", "pow": "", "bib": 401, "rank": 8, "IRM": "", "gname": "MARGOT", "lat": 46.37514347769337, "nationality": "SUI", "spd": "29.12 kmh", "lon": 6.191552017255324, "valid": 1, "fname": "VESIN", "team": "W17", "cad": ""}], "no": 2}]}