{"timestamp": 29581, "groups": [{"distance": 0, "gap": "+0:00", "athletes": [{"hr": "187", "pow": "0", "bib": 305, "rank": 1, "IRM": "", "gname": "HENRY", "lat": 46.37629419384046, "nationality": "GBR", "spd": "56.17 kmh", "lon": 6.196062295869404, "valid": 1, "fname": "LAWTON", "team": "U17", "cad": "0"}, {"hr": "200", "pow": "0", "bib": 302, "rank": 2, "IRM": "", "gname": "GABRIELE", "lat": 46.376276527062366, "nationality": "SUI", "spd": "56.08 kmh", "lon": 6.196038975722319, "valid": 1, "fname": "CERATO", "team": "U17", "cad": "0"}, {"hr": "", "pow": "", "bib": 303, "rank": 3, "IRM": "", "gname": "DAMIEN", "lat": 46.37624952702689, "nationality": "SUI", "spd": "66.32 kmh", "lon": 6.1960052044806275, "valid": 1, "fname": "FORTIS", "team": "U17", "cad": ""}, {"hr": "190", "pow": "", "bib": 307, "rank": 4, "IRM": "", "gname": "Z\u00c9ON", "lat": 46.376244196467184, "nationality": "SUI", "spd": "58.87 kmh", "lon": 6.195998611419937, "valid": 1, "fname": "TAILLEFERT", "team": "U17", "cad": ""}, {"hr": "", "pow": "", "bib": 301, "rank": 5, "IRM": "", "gname": "SYLVAIN", "lat": 46.376202030373086, "nationality": "SUI", "spd": "59.06 kmh", "lon": 6.195946458619347, "valid": 1, "fname": "BRUNNER", "team": "U17", "cad": ""}, {"hr": "186", "pow": "", "bib": 306, "rank": 6, "IRM": "", "gname": "THIBAUD", "lat": 46.376147519309015, "nationality": "SUI", "spd": "67.26 kmh", "lon": 6.195880982123907, "valid": 1, "fname": "ROSSIER", "team": "U17", "cad": "0"}, {"hr": "", "pow": "", "bib": 304, "rank": 7, "IRM": "", "gname": "MAXIME", "lat": 46.37608603457126, "nationality": "SUI", "spd": "66.26 kmh", "lon": 6.195811239845969, "valid": 1, "fname": "JUILLERAT", "team": "U17", "cad": ""}], "no": 1}, {"distance": 339, "gap": "+0:24", "athletes": [{"hr": "", "pow": "", "bib": 401, "rank": 8, "IRM": "", "gname": "MARGOT", "lat": 46.37483992026337, "nationality": "SUI", "spd": "38.51 kmh", "lon": 6.192854310546811, "valid": 1, "fname": "VESIN", "team": "W17", "cad": ""}], "no": 2}]}