{"timestamp": 29587, "groups": [{"distance": 0, "gap": "+0:00", "athletes": [{"hr": "184", "pow": "7", "bib": 305, "rank": 1, "IRM": "", "gname": "HENRY", "lat": 46.3767729598555, "nationality": "GBR", "spd": "55.77 kmh", "lon": 6.197024471670592, "valid": 1, "fname": "LAWTON", "team": "U17", "cad": "0"}, {"hr": "197", "pow": "7", "bib": 302, "rank": 2, "IRM": "", "gname": "GABRIELE", "lat": 46.37676451884489, "nationality": "SUI", "spd": "54.76 kmh", "lon": 6.197001661611362, "valid": 1, "fname": "CERATO", "team": "U17", "cad": "57"}, {"hr": "187", "pow": "", "bib": 307, "rank": 3, "IRM": "", "gname": "Z\u00c9ON", "lat": 46.37675310863455, "nationality": "SUI", "spd": "56.11 kmh", "lon": 6.196970827913207, "valid": 1, "fname": "TAILLEFERT", "team": "U17", "cad": ""}, {"hr": "", "pow": "", "bib": 303, "rank": 4, "IRM": "", "gname": "DAMIEN", "lat": 46.376749036589224, "nationality": "SUI", "spd": "55.66 kmh", "lon": 6.196959824065538, "valid": 1, "fname": "FORTIS", "team": "U17", "cad": ""}, {"hr": "", "pow": "", "bib": 301, "rank": 5, "IRM": "", "gname": "SYLVAIN", "lat": 46.37674466762393, "nationality": "SUI", "spd": "58.87 kmh", "lon": 6.196948017853977, "valid": 1, "fname": "BRUNNER", "team": "U17", "cad": ""}, {"hr": "183", "pow": "", "bib": 306, "rank": 6, "IRM": "", "gname": "THIBAUD", "lat": 46.37670592511352, "nationality": "SUI", "spd": "59.28 kmh", "lon": 6.196854310056238, "valid": 1, "fname": "ROSSIER", "team": "U17", "cad": "0"}, {"hr": "", "pow": "", "bib": 304, "rank": 7, "IRM": "", "gname": "MAXIME", "lat": 46.376675767193085, "nationality": "SUI", "spd": "61.02 kmh", "lon": 6.196783143746643, "valid": 1, "fname": "JUILLERAT", "team": "U17", "cad": ""}], "no": 1}, {"distance": 369, "gap": "+0:25", "athletes": [{"hr": "", "pow": "", "bib": 401, "rank": 8, "IRM": "", "gname": "MARGOT", "lat": 46.374703307467996, "nationality": "SUI", "spd": "36.74 kmh", "lon": 6.19363746266003, "valid": 1, "fname": "VESIN", "team": "W17", "cad": ""}], "no": 2}]}