{"timestamp": 29586, "groups": [{"distance": 0, "gap": "+0:00", "athletes": [{"hr": "185", "pow": "3", "bib": 305, "rank": 1, "IRM": "", "gname": "HENRY", "lat": 46.37670531443912, "nationality": "GBR", "spd": "56.30 kmh", "lon": 6.1968528689938935, "valid": 1, "fname": "LAWTON", "team": "U17", "cad": "0"}, {"hr": "198", "pow": "3", "bib": 302, "rank": 2, "IRM": "", "gname": "GABRIELE", "lat": 46.37669657709768, "nationality": "SUI", "spd": "55.12 kmh", "lon": 6.196832250717282, "valid": 1, "fname": "CERATO", "team": "U17", "cad": "52"}, {"hr": "188", "pow": "", "bib": 307, "rank": 3, "IRM": "", "gname": "Z\u00c9ON", "lat": 46.376680981412974, "nationality": "SUI", "spd": "56.26 kmh", "lon": 6.19679544820204, "valid": 1, "fname": "TAILLEFERT", "team": "U17", "cad": ""}, {"hr": "", "pow": "", "bib": 303, "rank": 4, "IRM": "", "gname": "DAMIEN", "lat": 46.37667736434152, "nationality": "SUI", "spd": "55.50 kmh", "lon": 6.196786912678927, "valid": 1, "fname": "FORTIS", "team": "U17", "cad": ""}, {"hr": "", "pow": "", "bib": 301, "rank": 5, "IRM": "", "gname": "SYLVAIN", "lat": 46.376668627000086, "nationality": "SUI", "spd": "59.04 kmh", "lon": 6.196766294402315, "valid": 1, "fname": "BRUNNER", "team": "U17", "cad": ""}, {"hr": "184", "pow": "", "bib": 306, "rank": 6, "IRM": "", "gname": "THIBAUD", "lat": 46.37662747694043, "nationality": "SUI", "spd": "58.63 kmh", "lon": 6.196669188970531, "valid": 1, "fname": "ROSSIER", "team": "U17", "cad": "0"}, {"hr": "", "pow": "", "bib": 304, "rank": 7, "IRM": "", "gname": "MAXIME", "lat": 46.376595909771375, "nationality": "SUI", "spd": "60.66 kmh", "lon": 6.196594697132451, "valid": 1, "fname": "JUILLERAT", "team": "U17", "cad": ""}], "no": 1}, {"distance": 364, "gap": "+0:25", "athletes": [{"hr": "", "pow": "", "bib": 401, "rank": 8, "IRM": "", "gname": "MARGOT", "lat": 46.37472769965022, "nationality": "SUI", "spd": "37.08 kmh", "lon": 6.193509560681632, "valid": 1, "fname": "VESIN", "team": "W17", "cad": ""}], "no": 2}]}