{"timestamp": 29598, "groups": [{"distance": 0, "gap": "+0:00", "athletes": [{"hr": "175", "pow": "213", "bib": 305, "rank": 1, "IRM": "", "gname": "HENRY", "lat": 46.37746253904779, "nationality": "GBR", "spd": "55.10 kmh", "lon": 6.198966858961699, "valid": 1, "fname": "LAWTON", "team": "U17", "cad": "130"}, {"hr": "", "pow": "", "bib": 301, "rank": 2, "IRM": "", "gname": "SYLVAIN", "lat": 46.37745151757679, "nationality": "SUI", "spd": "54.77 kmh", "lon": 6.198923274053641, "valid": 1, "fname": "BRUNNER", "team": "U17", "cad": ""}, {"hr": "176", "pow": "", "bib": 306, "rank": 3, "IRM": "", "gname": "THIBAUD", "lat": 46.37745000482586, "nationality": "SUI", "spd": "56.30 kmh", "lon": 6.198917291811359, "valid": 1, "fname": "ROSSIER", "team": "U17", "cad": "0"}, {"hr": "190", "pow": "213", "bib": 302, "rank": 4, "IRM": "", "gname": "GABRIELE", "lat": 46.37744426254685, "nationality": "SUI", "spd": "55.42 kmh", "lon": 6.198894583708001, "valid": 1, "fname": "CERATO", "team": "U17", "cad": "130"}, {"hr": "", "pow": "", "bib": 304, "rank": 5, "IRM": "", "gname": "MAXIME", "lat": 46.37743027731894, "nationality": "SUI", "spd": "66.02 kmh", "lon": 6.198839278488533, "valid": 1, "fname": "JUILLERAT", "team": "U17", "cad": ""}, {"hr": "183", "pow": "", "bib": 307, "rank": 6, "IRM": "", "gname": "Z\u00c9ON", "lat": 46.37742509074435, "nationality": "SUI", "spd": "56.00 kmh", "lon": 6.198818767943565, "valid": 0, "fname": "TAILLEFERT", "team": "U17", "cad": ""}, {"hr": "", "pow": "", "bib": 303, "rank": 7, "IRM": "", "gname": "DAMIEN", "lat": 46.37739209010501, "nationality": "SUI", "spd": "64.18 kmh", "lon": 6.198708727136621, "valid": 0, "fname": "FORTIS", "team": "U17", "cad": ""}], "no": 1}, {"distance": 414, "gap": "+0:27", "athletes": [{"hr": "", "pow": "", "bib": 401, "rank": 8, "IRM": "", "gname": "MARGOT", "lat": 46.37519360195791, "nationality": "SUI", "spd": "41.35 kmh", "lon": 6.194834922736281, "valid": 1, "fname": "VESIN", "team": "W17", "cad": ""}], "no": 2}]}