{"timestamp": 29599, "groups": [{"distance": 0, "gap": "+0:00", "athletes": [{"hr": "175", "pow": "88", "bib": 305, "rank": 1, "IRM": "", "gname": "HENRY", "lat": 46.37750798177206, "nationality": "GBR", "spd": "55.43 kmh", "lon": 6.199161555166467, "valid": 1, "fname": "LAWTON", "team": "U17", "cad": "103"}, {"hr": "", "pow": "", "bib": 301, "rank": 2, "IRM": "", "gname": "SYLVAIN", "lat": 46.377496934972804, "nationality": "SUI", "spd": "54.98 kmh", "lon": 6.199112346697038, "valid": 1, "fname": "BRUNNER", "team": "U17", "cad": ""}, {"hr": "176", "pow": "", "bib": 306, "rank": 3, "IRM": "", "gname": "THIBAUD", "lat": 46.37749529738196, "nationality": "SUI", "spd": "55.68 kmh", "lon": 6.199105051974183, "valid": 1, "fname": "ROSSIER", "team": "U17", "cad": "0"}, {"hr": "181", "pow": "", "bib": 307, "rank": 4, "IRM": "", "gname": "Z\u00c9ON", "lat": 46.37749296589669, "nationality": "SUI", "spd": "64.30 kmh", "lon": 6.199094666267066, "valid": 1, "fname": "TAILLEFERT", "team": "U17", "cad": ""}, {"hr": "190", "pow": "88", "bib": 302, "rank": 5, "IRM": "", "gname": "GABRIELE", "lat": 46.37748919111102, "nationality": "SUI", "spd": "56.11 kmh", "lon": 6.199077851312689, "valid": 1, "fname": "CERATO", "team": "U17", "cad": "95"}, {"hr": "", "pow": "", "bib": 303, "rank": 6, "IRM": "", "gname": "DAMIEN", "lat": 46.37748888579747, "nationality": "SUI", "spd": "64.60 kmh", "lon": 6.199076491279614, "valid": 1, "fname": "FORTIS", "team": "U17", "cad": ""}, {"hr": "", "pow": "", "bib": 304, "rank": 7, "IRM": "", "gname": "MAXIME", "lat": 46.37747800553287, "nationality": "SUI", "spd": "65.81 kmh", "lon": 6.199028024646407, "valid": 1, "fname": "JUILLERAT", "team": "U17", "cad": ""}], "no": 1}, {"distance": 418, "gap": "+0:28", "athletes": [{"hr": "", "pow": "", "bib": 401, "rank": 8, "IRM": "", "gname": "MARGOT", "lat": 46.375277797118386, "nationality": "SUI", "spd": "41.47 kmh", "lon": 6.194923558569777, "valid": 1, "fname": "VESIN", "team": "W17", "cad": ""}], "no": 2}]}