{"timestamp": 29597, "groups": [{"distance": 0, "gap": "+0:00", "athletes": [{"hr": "176", "pow": "113", "bib": 305, "rank": 1, "IRM": "", "gname": "HENRY", "lat": 46.37741487195751, "nationality": "GBR", "spd": "54.83 kmh", "lon": 6.198778357286514, "valid": 1, "fname": "LAWTON", "team": "U17", "cad": "0"}, {"hr": "", "pow": "", "bib": 301, "rank": 2, "IRM": "", "gname": "SYLVAIN", "lat": 46.377402483620976, "nationality": "SUI", "spd": "54.84 kmh", "lon": 6.198739147183339, "valid": 1, "fname": "BRUNNER", "team": "U17", "cad": ""}, {"hr": "177", "pow": "", "bib": 306, "rank": 3, "IRM": "", "gname": "THIBAUD", "lat": 46.377399735909854, "nationality": "SUI", "spd": "57.24 kmh", "lon": 6.198731105102023, "valid": 1, "fname": "ROSSIER", "team": "U17", "cad": "0"}, {"hr": "183", "pow": "", "bib": 307, "rank": 4, "IRM": "", "gname": "Z\u00c9ON", "lat": 46.37739814303385, "nationality": "SUI", "spd": "56.00 kmh", "lon": 6.1987264430258975, "valid": 1, "fname": "TAILLEFERT", "team": "U17", "cad": ""}, {"hr": "191", "pow": "113", "bib": 302, "rank": 5, "IRM": "", "gname": "GABRIELE", "lat": 46.37739348387152, "nationality": "SUI", "spd": "54.40 kmh", "lon": 6.198712806453231, "valid": 1, "fname": "CERATO", "team": "U17", "cad": "104"}, {"hr": "", "pow": "", "bib": 303, "rank": 6, "IRM": "", "gname": "DAMIEN", "lat": 46.37736140733088, "nationality": "SUI", "spd": "64.18 kmh", "lon": 6.198618923895258, "valid": 0, "fname": "FORTIS", "team": "U17", "cad": ""}, {"hr": "", "pow": "", "bib": 304, "rank": 7, "IRM": "", "gname": "MAXIME", "lat": 46.37734207379832, "nationality": "SUI", "spd": "56.86 kmh", "lon": 6.198562337946288, "valid": 0, "fname": "JUILLERAT", "team": "U17", "cad": ""}], "no": 1}, {"distance": 410, "gap": "+0:27", "athletes": [{"hr": "", "pow": "", "bib": 401, "rank": 8, "IRM": "", "gname": "MARGOT", "lat": 46.37510998845658, "nationality": "SUI", "spd": "40.93 kmh", "lon": 6.19474689924015, "valid": 1, "fname": "VESIN", "team": "W17", "cad": ""}], "no": 2}]}