{"timestamp": 29608, "groups": [{"distance": 0, "gap": "+0:00", "athletes": [{"hr": "173", "pow": "447", "bib": 305, "rank": 1, "IRM": "", "gname": "HENRY", "lat": 46.37770295020849, "nationality": "GBR", "spd": "55.50 kmh", "lon": 6.2009412614177215, "valid": 1, "fname": "LAWTON", "team": "U17", "cad": "0"}, {"hr": "173", "pow": "266", "bib": 306, "rank": 2, "IRM": "", "gname": "THIBAUD", "lat": 46.37769085299117, "nationality": "SUI", "spd": "54.37 kmh", "lon": 6.200859000339963, "valid": 1, "fname": "ROSSIER", "team": "U17", "cad": "104"}, {"hr": "", "pow": "", "bib": 303, "rank": 3, "IRM": "", "gname": "DAMIEN", "lat": 46.377690815596374, "nationality": "SUI", "spd": "64.64 kmh", "lon": 6.200858746055333, "valid": 1, "fname": "FORTIS", "team": "U17", "cad": ""}, {"hr": "", "pow": "", "bib": 301, "rank": 4, "IRM": "", "gname": "SYLVAIN", "lat": 46.377690179884794, "nationality": "SUI", "spd": "54.20 kmh", "lon": 6.200854423216625, "valid": 1, "fname": "BRUNNER", "team": "U17", "cad": ""}, {"hr": "180", "pow": "", "bib": 307, "rank": 5, "IRM": "", "gname": "Z\u00c9ON", "lat": 46.377688179263075, "nationality": "SUI", "spd": "54.65 kmh", "lon": 6.200840818988928, "valid": 1, "fname": "TAILLEFERT", "team": "U17", "cad": ""}, {"hr": "", "pow": "", "bib": 304, "rank": 6, "IRM": "", "gname": "MAXIME", "lat": 46.37767989631521, "nationality": "SUI", "spd": "54.92 kmh", "lon": 6.200784494943415, "valid": 1, "fname": "JUILLERAT", "team": "U17", "cad": ""}, {"hr": "189", "pow": "447", "bib": 302, "rank": 7, "IRM": "", "gname": "GABRIELE", "lat": 46.37766899573144, "nationality": "SUI", "spd": "55.70 kmh", "lon": 6.200710370973811, "valid": 1, "fname": "CERATO", "team": "U17", "cad": "139"}], "no": 1}, {"distance": 449, "gap": "+0:30", "athletes": [{"hr": "", "pow": "", "bib": 401, "rank": 8, "IRM": "", "gname": "MARGOT", "lat": 46.376051745203625, "nationality": "SUI", "spd": "44.94 kmh", "lon": 6.195772892565005, "valid": 1, "fname": "VESIN", "team": "W17", "cad": ""}], "no": 2}]}