{"timestamp": 29612, "groups": [{"distance": 0, "gap": "+0:00", "athletes": [{"hr": "174", "pow": "522", "bib": 305, "rank": 1, "IRM": "", "gname": "HENRY", "lat": 46.37785220446537, "nationality": "GBR", "spd": "53.53 kmh", "lon": 6.201669790091005, "valid": 1, "fname": "LAWTON", "team": "U17", "cad": "128"}, {"hr": "", "pow": "", "bib": 301, "rank": 2, "IRM": "", "gname": "SYLVAIN", "lat": 46.377833224179284, "nationality": "SUI", "spd": "54.20 kmh", "lon": 6.201597824443931, "valid": 1, "fname": "BRUNNER", "team": "U17", "cad": ""}, {"hr": "", "pow": "", "bib": 303, "rank": 3, "IRM": "", "gname": "DAMIEN", "lat": 46.3778314947317, "nationality": "SUI", "spd": "52.42 kmh", "lon": 6.201590574067507, "valid": 1, "fname": "FORTIS", "team": "U17", "cad": ""}, {"hr": "180", "pow": "", "bib": 307, "rank": 4, "IRM": "", "gname": "Z\u00c9ON", "lat": 46.37781982828865, "nationality": "SUI", "spd": "50.87 kmh", "lon": 6.201541664748579, "valid": 1, "fname": "TAILLEFERT", "team": "U17", "cad": ""}, {"hr": "", "pow": "", "bib": 304, "rank": 5, "IRM": "", "gname": "MAXIME", "lat": 46.377814042692144, "nationality": "SUI", "spd": "52.50 kmh", "lon": 6.201518288897175, "valid": 1, "fname": "JUILLERAT", "team": "U17", "cad": ""}, {"hr": "173", "pow": "314", "bib": 306, "rank": 6, "IRM": "", "gname": "THIBAUD", "lat": 46.37781145838897, "nationality": "SUI", "spd": "53.54 kmh", "lon": 6.201508028827862, "valid": 0, "fname": "ROSSIER", "team": "U17", "cad": "129"}, {"hr": "189", "pow": "522", "bib": 302, "rank": 7, "IRM": "", "gname": "GABRIELE", "lat": 46.3777993983075, "nationality": "SUI", "spd": "55.69 kmh", "lon": 6.201460148504404, "valid": 1, "fname": "CERATO", "team": "U17", "cad": "128"}], "no": 1}, {"distance": 455, "gap": "+0:30", "athletes": [{"hr": "", "pow": "", "bib": 401, "rank": 8, "IRM": "", "gname": "MARGOT", "lat": 46.376405374959496, "nationality": "SUI", "spd": "47.33 kmh", "lon": 6.196219785310868, "valid": 1, "fname": "VESIN", "team": "W17", "cad": ""}], "no": 2}]}