{"timestamp": 29622, "groups": [{"distance": 0, "gap": "+0:00", "athletes": [{"hr": "185", "pow": "69", "bib": 305, "rank": 1, "IRM": "", "gname": "HENRY", "lat": 46.378609650929285, "nationality": "GBR", "spd": "44.43 kmh", "lon": 6.202880320743428, "valid": 1, "fname": "LAWTON", "team": "U17", "cad": "126"}, {"hr": "", "pow": "", "bib": 301, "rank": 2, "IRM": "", "gname": "SYLVAIN", "lat": 46.378577618798175, "nationality": "SUI", "spd": "41.35 kmh", "lon": 6.202854695038542, "valid": 1, "fname": "BRUNNER", "team": "U17", "cad": ""}, {"hr": "", "pow": "", "bib": 303, "rank": 3, "IRM": "", "gname": "DAMIEN", "lat": 46.378569591089644, "nationality": "SUI", "spd": "50.51 kmh", "lon": 6.202848272871716, "valid": 1, "fname": "FORTIS", "team": "U17", "cad": ""}, {"hr": "179", "pow": "0", "bib": 306, "rank": 4, "IRM": "", "gname": "THIBAUD", "lat": 46.37856061894481, "nationality": "SUI", "spd": "49.39 kmh", "lon": 6.202841095155851, "valid": 1, "fname": "ROSSIER", "team": "U17", "cad": "82"}, {"hr": "184", "pow": "", "bib": 307, "rank": 5, "IRM": "", "gname": "Z\u00c9ON", "lat": 46.378530191442835, "nationality": "SUI", "spd": "40.51 kmh", "lon": 6.202816650703759, "valid": 1, "fname": "TAILLEFERT", "team": "U17", "cad": ""}, {"hr": "", "pow": "", "bib": 304, "rank": 6, "IRM": "", "gname": "MAXIME", "lat": 46.37852326229125, "nationality": "SUI", "spd": "42.47 kmh", "lon": 6.202810854620988, "valid": 1, "fname": "JUILLERAT", "team": "U17", "cad": ""}, {"hr": "195", "pow": "69", "bib": 302, "rank": 7, "IRM": "", "gname": "GABRIELE", "lat": 46.37852077091091, "nationality": "SUI", "spd": "56.74 kmh", "lon": 6.202808770636171, "valid": 1, "fname": "CERATO", "team": "U17", "cad": "84"}], "no": 1}, {"distance": 449, "gap": "+0:31", "athletes": [{"hr": "", "pow": "", "bib": 401, "rank": 8, "IRM": "", "gname": "MARGOT", "lat": 46.37703092008845, "nationality": "SUI", "spd": "57.25 kmh", "lon": 6.197717054733214, "valid": 1, "fname": "VESIN", "team": "W17", "cad": ""}], "no": 2}]}