{"timestamp": 29629, "groups": [{"distance": 0, "gap": "+0:00", "athletes": [{"hr": "189", "pow": "574", "bib": 305, "rank": 1, "IRM": "", "gname": "HENRY", "lat": 46.378796530843594, "nationality": "GBR", "spd": "33.57 kmh", "lon": 6.203490092564282, "valid": 0, "fname": "LAWTON", "team": "U17", "cad": "112"}, {"hr": "", "pow": "", "bib": 303, "rank": 2, "IRM": "", "gname": "DAMIEN", "lat": 46.378801365166034, "nationality": "SUI", "spd": "50.17 kmh", "lon": 6.203470403687431, "valid": 1, "fname": "FORTIS", "team": "U17", "cad": ""}, {"hr": "", "pow": "", "bib": 301, "rank": 3, "IRM": "", "gname": "SYLVAIN", "lat": 46.37880990752909, "nationality": "SUI", "spd": "35.04 kmh", "lon": 6.203435612972443, "valid": 1, "fname": "BRUNNER", "team": "U17", "cad": ""}, {"hr": "186", "pow": "", "bib": 307, "rank": 4, "IRM": "", "gname": "Z\u00c9ON", "lat": 46.37883026405078, "nationality": "SUI", "spd": "30.68 kmh", "lon": 6.203352399788435, "valid": 1, "fname": "TAILLEFERT", "team": "U17", "cad": ""}, {"hr": "198", "pow": "574", "bib": 302, "rank": 5, "IRM": "", "gname": "GABRIELE", "lat": 46.37883794208862, "nationality": "SUI", "spd": "31.94 kmh", "lon": 6.203320407964083, "valid": 0, "fname": "CERATO", "team": "U17", "cad": "72"}, {"hr": "183", "pow": "0", "bib": 306, "rank": 6, "IRM": "", "gname": "THIBAUD", "lat": 46.378842790600046, "nationality": "SUI", "spd": "31.81 kmh", "lon": 6.203300205833158, "valid": 0, "fname": "ROSSIER", "team": "U17", "cad": "85"}, {"hr": "", "pow": "", "bib": 304, "rank": 7, "IRM": "", "gname": "MAXIME", "lat": 46.3788481106992, "nationality": "SUI", "spd": "34.76 kmh", "lon": 6.203278038753329, "valid": 0, "fname": "JUILLERAT", "team": "U17", "cad": ""}], "no": 1}, {"distance": 418, "gap": "+0:32", "athletes": [{"hr": "", "pow": "", "bib": 401, "rank": 8, "IRM": "", "gname": "MARGOT", "lat": 46.37742376322824, "nationality": "SUI", "spd": "49.43 kmh", "lon": 6.198813518220746, "valid": 1, "fname": "VESIN", "team": "W17", "cad": ""}], "no": 2}]}