{"timestamp": 29626, "groups": [{"distance": 0, "gap": "+0:00", "athletes": [{"hr": "188", "pow": "96", "bib": 305, "rank": 1, "IRM": "", "gname": "HENRY", "lat": 46.3788640032676, "nationality": "GBR", "spd": "35.40 kmh", "lon": 6.2031956002254365, "valid": 1, "fname": "LAWTON", "team": "U17", "cad": "100"}, {"hr": "", "pow": "", "bib": 303, "rank": 2, "IRM": "", "gname": "DAMIEN", "lat": 46.37886241247746, "nationality": "SUI", "spd": "48.46 kmh", "lon": 6.203119124774615, "valid": 1, "fname": "FORTIS", "team": "U17", "cad": ""}, {"hr": "183", "pow": "0", "bib": 306, "rank": 3, "IRM": "", "gname": "THIBAUD", "lat": 46.3788549196515, "nationality": "SUI", "spd": "34.20 kmh", "lon": 6.203095276172049, "valid": 1, "fname": "ROSSIER", "team": "U17", "cad": "23"}, {"hr": "", "pow": "", "bib": 301, "rank": 4, "IRM": "", "gname": "SYLVAIN", "lat": 46.37884728145735, "nationality": "SUI", "spd": "35.84 kmh", "lon": 6.203075027854065, "valid": 0, "fname": "BRUNNER", "team": "U17", "cad": ""}, {"hr": "", "pow": "", "bib": 304, "rank": 5, "IRM": "", "gname": "MAXIME", "lat": 46.37882665710027, "nationality": "SUI", "spd": "40.34 kmh", "lon": 6.203048806855435, "valid": 1, "fname": "JUILLERAT", "team": "U17", "cad": ""}, {"hr": "185", "pow": "", "bib": 307, "rank": 6, "IRM": "", "gname": "Z\u00c9ON", "lat": 46.378825909116856, "nationality": "SUI", "spd": "33.20 kmh", "lon": 6.203048084664554, "valid": 1, "fname": "TAILLEFERT", "team": "U17", "cad": ""}, {"hr": "198", "pow": "96", "bib": 302, "rank": 7, "IRM": "", "gname": "GABRIELE", "lat": 46.37882448794838, "nationality": "SUI", "spd": "40.01 kmh", "lon": 6.203046712501881, "valid": 1, "fname": "CERATO", "team": "U17", "cad": "80"}], "no": 1}, {"distance": 436, "gap": "+0:32", "athletes": [{"hr": "", "pow": "", "bib": 401, "rank": 8, "IRM": "", "gname": "MARGOT", "lat": 46.377259478525104, "nationality": "SUI", "spd": "48.42 kmh", "lon": 6.198334039399984, "valid": 1, "fname": "VESIN", "team": "W17", "cad": ""}], "no": 2}]}