{"timestamp": 29623, "groups": [{"distance": 0, "gap": "+0:00", "athletes": [{"hr": "186", "pow": "0", "bib": 305, "rank": 1, "IRM": "", "gname": "HENRY", "lat": 46.37869638166266, "nationality": "GBR", "spd": "41.63 kmh", "lon": 6.202949705330122, "valid": 1, "fname": "LAWTON", "team": "U17", "cad": "60"}, {"hr": "", "pow": "", "bib": 301, "rank": 2, "IRM": "", "gname": "SYLVAIN", "lat": 46.37866009956821, "nationality": "SUI", "spd": "38.87 kmh", "lon": 6.2029206796545635, "valid": 1, "fname": "BRUNNER", "team": "U17", "cad": ""}, {"hr": "180", "pow": "0", "bib": 306, "rank": 3, "IRM": "", "gname": "THIBAUD", "lat": 46.3786391645636, "nationality": "SUI", "spd": "45.45 kmh", "lon": 6.202903931650878, "valid": 1, "fname": "ROSSIER", "team": "U17", "cad": "54"}, {"hr": "", "pow": "", "bib": 303, "rank": 4, "IRM": "", "gname": "DAMIEN", "lat": 46.378630979449014, "nationality": "SUI", "spd": "50.51 kmh", "lon": 6.202897383559212, "valid": 0, "fname": "FORTIS", "team": "U17", "cad": ""}, {"hr": "184", "pow": "", "bib": 307, "rank": 5, "IRM": "", "gname": "Z\u00c9ON", "lat": 46.378606817620394, "nationality": "SUI", "spd": "37.81 kmh", "lon": 6.202878054096312, "valid": 1, "fname": "TAILLEFERT", "team": "U17", "cad": ""}, {"hr": "", "pow": "", "bib": 304, "rank": 6, "IRM": "", "gname": "MAXIME", "lat": 46.378605558371994, "nationality": "SUI", "spd": "40.16 kmh", "lon": 6.202877046697595, "valid": 1, "fname": "JUILLERAT", "team": "U17", "cad": ""}, {"hr": "195", "pow": "69", "bib": 302, "rank": 7, "IRM": "", "gname": "GABRIELE", "lat": 46.378560697647835, "nationality": "SUI", "spd": "56.74 kmh", "lon": 6.202841158118271, "valid": 0, "fname": "CERATO", "team": "U17", "cad": "84"}], "no": 1}, {"distance": 447, "gap": "+0:31", "athletes": [{"hr": "", "pow": "", "bib": 401, "rank": 8, "IRM": "", "gname": "MARGOT", "lat": 46.377088601822756, "nationality": "SUI", "spd": "57.19 kmh", "lon": 6.197871324338045, "valid": 1, "fname": "VESIN", "team": "W17", "cad": ""}], "no": 2}]}