{"timestamp": 29630, "groups": [{"distance": 0, "gap": "+0:00", "athletes": [{"hr": "", "pow": "", "bib": 303, "rank": 1, "IRM": "", "gname": "DAMIEN", "lat": 46.37877084122848, "nationality": "SUI", "spd": "46.04 kmh", "lon": 6.203594608750358, "valid": 1, "fname": "FORTIS", "team": "U17", "cad": ""}, {"hr": "", "pow": "", "bib": 301, "rank": 2, "IRM": "", "gname": "SYLVAIN", "lat": 46.378781723746755, "nationality": "SUI", "spd": "32.83 kmh", "lon": 6.203550397831401, "valid": 1, "fname": "BRUNNER", "team": "U17", "cad": ""}, {"hr": "189", "pow": "574", "bib": 305, "rank": 3, "IRM": "", "gname": "HENRY", "lat": 46.37878345494553, "nationality": "GBR", "spd": "33.57 kmh", "lon": 6.203543347130945, "valid": 0, "fname": "LAWTON", "team": "U17", "cad": "112"}, {"hr": "185", "pow": "513", "bib": 306, "rank": 4, "IRM": "", "gname": "THIBAUD", "lat": 46.378791108314616, "nationality": "SUI", "spd": "40.48 kmh", "lon": 6.20351217704592, "valid": 1, "fname": "ROSSIER", "team": "U17", "cad": "97"}, {"hr": "186", "pow": "", "bib": 307, "rank": 5, "IRM": "", "gname": "Z\u00c9ON", "lat": 46.37880313981188, "nationality": "SUI", "spd": "31.87 kmh", "lon": 6.203463176038895, "valid": 1, "fname": "TAILLEFERT", "team": "U17", "cad": ""}, {"hr": "", "pow": "", "bib": 304, "rank": 6, "IRM": "", "gname": "MAXIME", "lat": 46.37880614768619, "nationality": "SUI", "spd": "35.37 kmh", "lon": 6.203450925787139, "valid": 1, "fname": "JUILLERAT", "team": "U17", "cad": ""}, {"hr": "198", "pow": "574", "bib": 302, "rank": 7, "IRM": "", "gname": "GABRIELE", "lat": 46.3788237136722, "nationality": "SUI", "spd": "31.94 kmh", "lon": 6.203379384316881, "valid": 0, "fname": "CERATO", "team": "U17", "cad": "72"}], "no": 1}, {"distance": 413, "gap": "+0:32", "athletes": [{"hr": "", "pow": "", "bib": 401, "rank": 8, "IRM": "", "gname": "MARGOT", "lat": 46.37746584240184, "nationality": "SUI", "spd": "49.42 kmh", "lon": 6.198979922225457, "valid": 1, "fname": "VESIN", "team": "W17", "cad": ""}], "no": 2}]}