{"timestamp": 29632, "groups": [{"distance": 0, "gap": "+0:00", "athletes": [{"hr": "191", "pow": "265", "bib": 305, "rank": 1, "IRM": "", "gname": "HENRY", "lat": 46.37871139062939, "nationality": "GBR", "spd": "34.40 kmh", "lon": 6.203917578041602, "valid": 1, "fname": "LAWTON", "team": "U17", "cad": "88"}, {"hr": "", "pow": "", "bib": 303, "rank": 2, "IRM": "", "gname": "DAMIEN", "lat": 46.378716686080324, "nationality": "SUI", "spd": "35.82 kmh", "lon": 6.203838105327137, "valid": 1, "fname": "FORTIS", "team": "U17", "cad": ""}, {"hr": "", "pow": "", "bib": 301, "rank": 3, "IRM": "", "gname": "SYLVAIN", "lat": 46.37872636448399, "nationality": "SUI", "spd": "33.31 kmh", "lon": 6.203775567949622, "valid": 1, "fname": "BRUNNER", "team": "U17", "cad": ""}, {"hr": "199", "pow": "559", "bib": 302, "rank": 4, "IRM": "", "gname": "GABRIELE", "lat": 46.378738695482205, "nationality": "SUI", "spd": "44.45 kmh", "lon": 6.203722461150312, "valid": 0, "fname": "CERATO", "team": "U17", "cad": "90"}, {"hr": "185", "pow": "147", "bib": 306, "rank": 5, "IRM": "", "gname": "THIBAUD", "lat": 46.37873981666686, "nationality": "SUI", "spd": "40.40 kmh", "lon": 6.20371800189317, "valid": 1, "fname": "ROSSIER", "team": "U17", "cad": "88"}, {"hr": "186", "pow": "", "bib": 307, "rank": 6, "IRM": "", "gname": "Z\u00c9ON", "lat": 46.37874589870963, "nationality": "SUI", "spd": "39.07 kmh", "lon": 6.203693811950322, "valid": 1, "fname": "TAILLEFERT", "team": "U17", "cad": ""}, {"hr": "", "pow": "", "bib": 304, "rank": 7, "IRM": "", "gname": "MAXIME", "lat": 46.378765588555176, "nationality": "SUI", "spd": "37.35 kmh", "lon": 6.203615500064637, "valid": 0, "fname": "JUILLERAT", "team": "U17", "cad": ""}], "no": 1}, {"distance": 412, "gap": "+0:32", "athletes": [{"hr": "", "pow": "", "bib": 401, "rank": 8, "IRM": "", "gname": "MARGOT", "lat": 46.377532375560975, "nationality": "SUI", "spd": "49.56 kmh", "lon": 6.199325314301312, "valid": 1, "fname": "VESIN", "team": "W17", "cad": ""}], "no": 2}]}