{"timestamp": 29636, "groups": [{"distance": 0, "gap": "+0:00", "athletes": [{"hr": "193", "pow": "168", "bib": 305, "rank": 1, "IRM": "", "gname": "HENRY", "lat": 46.37848646911776, "nationality": "GBR", "spd": "33.37 kmh", "lon": 6.2042802479777235, "valid": 1, "fname": "LAWTON", "team": "U17", "cad": "80"}, {"hr": "", "pow": "", "bib": 303, "rank": 2, "IRM": "", "gname": "DAMIEN", "lat": 46.37854073667069, "nationality": "SUI", "spd": "43.09 kmh", "lon": 6.204198331042558, "valid": 0, "fname": "FORTIS", "team": "U17", "cad": ""}, {"hr": "", "pow": "", "bib": 301, "rank": 3, "IRM": "", "gname": "SYLVAIN", "lat": 46.37856981486702, "nationality": "SUI", "spd": "35.68 kmh", "lon": 6.204171123421983, "valid": 1, "fname": "BRUNNER", "team": "U17", "cad": ""}, {"hr": "184", "pow": "59", "bib": 306, "rank": 4, "IRM": "", "gname": "THIBAUD", "lat": 46.37859579089647, "nationality": "SUI", "spd": "43.11 kmh", "lon": 6.204153806069018, "valid": 1, "fname": "ROSSIER", "team": "U17", "cad": "103"}, {"hr": "200", "pow": "168", "bib": 302, "rank": 5, "IRM": "", "gname": "GABRIELE", "lat": 46.37861023108274, "nationality": "SUI", "spd": "36.54 kmh", "lon": 6.204144112475235, "valid": 1, "fname": "CERATO", "team": "U17", "cad": "80"}, {"hr": "187", "pow": "", "bib": 307, "rank": 6, "IRM": "", "gname": "Z\u00c9ON", "lat": 46.37863663427944, "nationality": "SUI", "spd": "33.70 kmh", "lon": 6.204125077612497, "valid": 1, "fname": "TAILLEFERT", "team": "U17", "cad": ""}, {"hr": "", "pow": "", "bib": 304, "rank": 7, "IRM": "", "gname": "MAXIME", "lat": 46.378665785327236, "nationality": "SUI", "spd": "32.74 kmh", "lon": 6.204098300043978, "valid": 1, "fname": "JUILLERAT", "team": "U17", "cad": ""}], "no": 1}, {"distance": 398, "gap": "+0:33", "athletes": [{"hr": "", "pow": "", "bib": 401, "rank": 8, "IRM": "", "gname": "MARGOT", "lat": 46.377606083295284, "nationality": "SUI", "spd": "47.99 kmh", "lon": 6.200014455614971, "valid": 1, "fname": "VESIN", "team": "W17", "cad": ""}], "no": 2}]}