{"timestamp": 29637, "groups": [{"distance": 0, "gap": "+0:00", "athletes": [{"hr": "193", "pow": "168", "bib": 305, "rank": 1, "IRM": "", "gname": "HENRY", "lat": 46.378437788180555, "nationality": "GBR", "spd": "32.93 kmh", "lon": 6.204382837331065, "valid": 1, "fname": "LAWTON", "team": "U17", "cad": "80"}, {"hr": "", "pow": "", "bib": 301, "rank": 2, "IRM": "", "gname": "SYLVAIN", "lat": 46.37849789892799, "nationality": "SUI", "spd": "37.84 kmh", "lon": 6.204257864599359, "valid": 1, "fname": "BRUNNER", "team": "U17", "cad": ""}, {"hr": "", "pow": "", "bib": 303, "rank": 3, "IRM": "", "gname": "DAMIEN", "lat": 46.37849843303127, "nationality": "SUI", "spd": "43.09 kmh", "lon": 6.204256818647099, "valid": 0, "fname": "FORTIS", "team": "U17", "cad": ""}, {"hr": "185", "pow": "20", "bib": 306, "rank": 4, "IRM": "", "gname": "THIBAUD", "lat": 46.37851369111039, "nationality": "SUI", "spd": "46.10 kmh", "lon": 6.204232331175507, "valid": 1, "fname": "ROSSIER", "team": "U17", "cad": "90"}, {"hr": "200", "pow": "141", "bib": 302, "rank": 5, "IRM": "", "gname": "GABRIELE", "lat": 46.37853744505294, "nationality": "SUI", "spd": "37.80 kmh", "lon": 6.2042024690763045, "valid": 1, "fname": "CERATO", "team": "U17", "cad": "90"}, {"hr": "187", "pow": "", "bib": 307, "rank": 6, "IRM": "", "gname": "Z\u00c9ON", "lat": 46.378556699148035, "nationality": "SUI", "spd": "35.83 kmh", "lon": 6.204182904665347, "valid": 1, "fname": "TAILLEFERT", "team": "U17", "cad": ""}, {"hr": "", "pow": "", "bib": 304, "rank": 7, "IRM": "", "gname": "MAXIME", "lat": 46.378579617142286, "nationality": "SUI", "spd": "35.48 kmh", "lon": 6.204164588571808, "valid": 1, "fname": "JUILLERAT", "team": "U17", "cad": ""}], "no": 1}, {"distance": 394, "gap": "+0:33", "athletes": [{"hr": "", "pow": "", "bib": 401, "rank": 8, "IRM": "", "gname": "MARGOT", "lat": 46.37762133754488, "nationality": "SUI", "spd": "48.01 kmh", "lon": 6.200186443088417, "valid": 1, "fname": "VESIN", "team": "W17", "cad": ""}], "no": 2}]}