{"timestamp": 29643, "groups": [{"distance": 0, "gap": "+0:00", "athletes": [{"hr": "190", "pow": "", "bib": 305, "rank": 1, "IRM": "", "gname": "HENRY", "lat": 46.37814854942433, "nationality": "GBR", "spd": "36.90 kmh", "lon": 6.205083552969865, "valid": 1, "fname": "LAWTON", "team": "U17", "cad": "101"}, {"hr": "", "pow": "", "bib": 303, "rank": 2, "IRM": "", "gname": "DAMIEN", "lat": 46.37815071187546, "nationality": "SUI", "spd": "40.86 kmh", "lon": 6.205078303245735, "valid": 1, "fname": "FORTIS", "team": "U17", "cad": ""}, {"hr": "", "pow": "", "bib": 301, "rank": 3, "IRM": "", "gname": "SYLVAIN", "lat": 46.37817068004123, "nationality": "SUI", "spd": "41.40 kmh", "lon": 6.205029827069727, "valid": 1, "fname": "BRUNNER", "team": "U17", "cad": ""}, {"hr": "186", "pow": "93", "bib": 306, "rank": 4, "IRM": "", "gname": "THIBAUD", "lat": 46.378204635124945, "nationality": "SUI", "spd": "40.07 kmh", "lon": 6.204947395231262, "valid": 1, "fname": "ROSSIER", "team": "U17", "cad": "97"}, {"hr": "188", "pow": "", "bib": 307, "rank": 5, "IRM": "", "gname": "Z\u00c9ON", "lat": 46.37822211877239, "nationality": "SUI", "spd": "41.09 kmh", "lon": 6.204904950653191, "valid": 1, "fname": "TAILLEFERT", "team": "U17", "cad": ""}, {"hr": "200", "pow": "232", "bib": 302, "rank": 6, "IRM": "", "gname": "GABRIELE", "lat": 46.378233759200825, "nationality": "SUI", "spd": "39.50 kmh", "lon": 6.204876691499896, "valid": 1, "fname": "CERATO", "team": "U17", "cad": "106"}, {"hr": "", "pow": "", "bib": 304, "rank": 7, "IRM": "", "gname": "MAXIME", "lat": 46.3782563039041, "nationality": "SUI", "spd": "39.18 kmh", "lon": 6.204821960333435, "valid": 1, "fname": "JUILLERAT", "team": "U17", "cad": ""}], "no": 1}, {"distance": 377, "gap": "+0:34", "athletes": [{"hr": "", "pow": "", "bib": 401, "rank": 8, "IRM": "", "gname": "MARGOT", "lat": 46.377743280498684, "nationality": "SUI", "spd": "48.84 kmh", "lon": 6.201215507391023, "valid": 1, "fname": "VESIN", "team": "W17", "cad": ""}], "no": 2}]}