{"timestamp": 29646, "groups": [{"distance": 0, "gap": "+0:00", "athletes": [{"hr": "", "pow": "", "bib": 303, "rank": 1, "IRM": "", "gname": "DAMIEN", "lat": 46.37799008333689, "nationality": "SUI", "spd": "41.98 kmh", "lon": 6.2054692841793635, "valid": 1, "fname": "FORTIS", "team": "U17", "cad": ""}, {"hr": "", "pow": "", "bib": 301, "rank": 2, "IRM": "", "gname": "SYLVAIN", "lat": 46.37800816580464, "nationality": "SUI", "spd": "42.46 kmh", "lon": 6.205425237142549, "valid": 1, "fname": "BRUNNER", "team": "U17", "cad": ""}, {"hr": "189", "pow": "", "bib": 305, "rank": 3, "IRM": "", "gname": "HENRY", "lat": 46.37801542479867, "nationality": "GBR", "spd": "39.80 kmh", "lon": 6.205407554977602, "valid": 0, "fname": "LAWTON", "team": "U17", "cad": "62"}, {"hr": "185", "pow": "0", "bib": 306, "rank": 4, "IRM": "", "gname": "THIBAUD", "lat": 46.37804107222436, "nationality": "SUI", "spd": "42.71 kmh", "lon": 6.205345080479108, "valid": 1, "fname": "ROSSIER", "team": "U17", "cad": "74"}, {"hr": "188", "pow": "", "bib": 307, "rank": 5, "IRM": "", "gname": "Z\u00c9ON", "lat": 46.37805295892271, "nationality": "SUI", "spd": "44.16 kmh", "lon": 6.2053161257011, "valid": 1, "fname": "TAILLEFERT", "team": "U17", "cad": ""}, {"hr": "199", "pow": "24", "bib": 302, "rank": 6, "IRM": "", "gname": "GABRIELE", "lat": 46.37806599298575, "nationality": "SUI", "spd": "43.79 kmh", "lon": 6.205284376060351, "valid": 1, "fname": "CERATO", "team": "U17", "cad": "86"}, {"hr": "", "pow": "", "bib": 304, "rank": 7, "IRM": "", "gname": "MAXIME", "lat": 46.37809128090384, "nationality": "SUI", "spd": "43.06 kmh", "lon": 6.205222777285517, "valid": 1, "fname": "JUILLERAT", "team": "U17", "cad": ""}], "no": 1}, {"distance": 373, "gap": "+0:34", "athletes": [{"hr": "", "pow": "", "bib": 401, "rank": 8, "IRM": "", "gname": "MARGOT", "lat": 46.37785566267822, "nationality": "SUI", "spd": "45.58 kmh", "lon": 6.201681082214604, "valid": 1, "fname": "VESIN", "team": "W17", "cad": ""}], "no": 2}]}