{"timestamp": 29645, "groups": [{"distance": 0, "gap": "+0:00", "athletes": [{"hr": "189", "pow": "", "bib": 305, "rank": 1, "IRM": "", "gname": "HENRY", "lat": 46.37804162295942, "nationality": "GBR", "spd": "39.80 kmh", "lon": 6.2053437389449915, "valid": 1, "fname": "LAWTON", "team": "U17", "cad": "62"}, {"hr": "", "pow": "", "bib": 303, "rank": 2, "IRM": "", "gname": "DAMIEN", "lat": 46.37804350463754, "nationality": "SUI", "spd": "41.86 kmh", "lon": 6.205339155370095, "valid": 1, "fname": "FORTIS", "team": "U17", "cad": ""}, {"hr": "", "pow": "", "bib": 301, "rank": 3, "IRM": "", "gname": "SYLVAIN", "lat": 46.378062872153755, "nationality": "SUI", "spd": "42.25 kmh", "lon": 6.2052919780870095, "valid": 1, "fname": "BRUNNER", "team": "U17", "cad": ""}, {"hr": "186", "pow": "0", "bib": 306, "rank": 4, "IRM": "", "gname": "THIBAUD", "lat": 46.37809596215184, "nationality": "SUI", "spd": "42.01 kmh", "lon": 6.205211374245529, "valid": 1, "fname": "ROSSIER", "team": "U17", "cad": "90"}, {"hr": "188", "pow": "", "bib": 307, "rank": 5, "IRM": "", "gname": "Z\u00c9ON", "lat": 46.37810945516076, "nationality": "SUI", "spd": "43.45 kmh", "lon": 6.205178506659683, "valid": 1, "fname": "TAILLEFERT", "team": "U17", "cad": ""}, {"hr": "200", "pow": "70", "bib": 302, "rank": 6, "IRM": "", "gname": "GABRIELE", "lat": 46.37812236996277, "nationality": "SUI", "spd": "43.02 kmh", "lon": 6.2051471081407135, "valid": 1, "fname": "CERATO", "team": "U17", "cad": "90"}, {"hr": "", "pow": "", "bib": 304, "rank": 7, "IRM": "", "gname": "MAXIME", "lat": 46.378146985097985, "nationality": "SUI", "spd": "42.18 kmh", "lon": 6.205087350642639, "valid": 1, "fname": "JUILLERAT", "team": "U17", "cad": ""}], "no": 1}, {"distance": 375, "gap": "+0:34", "athletes": [{"hr": "", "pow": "", "bib": 401, "rank": 8, "IRM": "", "gname": "MARGOT", "lat": 46.37781619627812, "nationality": "SUI", "spd": "46.87 kmh", "lon": 6.201526838954935, "valid": 1, "fname": "VESIN", "team": "W17", "cad": ""}], "no": 2}]}