{"timestamp": 29659, "groups": [{"distance": 0, "gap": "+0:00", "athletes": [{"hr": "179", "pow": "447", "bib": 305, "rank": 1, "IRM": "", "gname": "HENRY", "lat": 46.377082378711144, "nationality": "GBR", "spd": "54.00 kmh", "lon": 6.207271835646927, "valid": 1, "fname": "LAWTON", "team": "U17", "cad": "64"}, {"hr": "", "pow": "", "bib": 301, "rank": 2, "IRM": "", "gname": "SYLVAIN", "lat": 46.3770845797459, "nationality": "SUI", "spd": "53.18 kmh", "lon": 6.2072675593508295, "valid": 1, "fname": "BRUNNER", "team": "U17", "cad": ""}, {"hr": "", "pow": "", "bib": 303, "rank": 3, "IRM": "", "gname": "DAMIEN", "lat": 46.37711249530866, "nationality": "SUI", "spd": "60.04 kmh", "lon": 6.207213323400324, "valid": 1, "fname": "FORTIS", "team": "U17", "cad": ""}, {"hr": "184", "pow": "", "bib": 307, "rank": 4, "IRM": "", "gname": "Z\u00c9ON", "lat": 46.377114105821896, "nationality": "SUI", "spd": "54.95 kmh", "lon": 6.207210194403179, "valid": 1, "fname": "TAILLEFERT", "team": "U17", "cad": ""}, {"hr": "177", "pow": "435", "bib": 306, "rank": 5, "IRM": "", "gname": "THIBAUD", "lat": 46.37712006472087, "nationality": "SUI", "spd": "54.83 kmh", "lon": 6.207198617113744, "valid": 1, "fname": "ROSSIER", "team": "U17", "cad": "134"}, {"hr": "192", "pow": "447", "bib": 302, "rank": 6, "IRM": "", "gname": "GABRIELE", "lat": 46.377141269811816, "nationality": "SUI", "spd": "60.47 kmh", "lon": 6.20715741865134, "valid": 1, "fname": "CERATO", "team": "U17", "cad": "137"}, {"hr": "", "pow": "", "bib": 304, "rank": 7, "IRM": "", "gname": "MAXIME", "lat": 46.377186149447326, "nationality": "SUI", "spd": "61.86 kmh", "lon": 6.207070223930911, "valid": 1, "fname": "JUILLERAT", "team": "U17", "cad": ""}], "no": 1}, {"distance": 403, "gap": "+0:36", "athletes": [{"hr": "", "pow": "", "bib": 401, "rank": 8, "IRM": "", "gname": "MARGOT", "lat": 46.378719115738626, "nationality": "SUI", "spd": "40.57 kmh", "lon": 6.2029668046675415, "valid": 1, "fname": "VESIN", "team": "W17", "cad": ""}], "no": 2}]}