{"timestamp": 29657, "groups": [{"distance": 0, "gap": "+0:00", "athletes": [{"hr": "", "pow": "", "bib": 301, "rank": 1, "IRM": "", "gname": "SYLVAIN", "lat": 46.37724402055628, "nationality": "SUI", "spd": "51.66 kmh", "lon": 6.206957788633515, "valid": 1, "fname": "BRUNNER", "team": "U17", "cad": ""}, {"hr": "180", "pow": "0", "bib": 305, "rank": 2, "IRM": "", "gname": "HENRY", "lat": 46.37724450371025, "nationality": "GBR", "spd": "48.03 kmh", "lon": 6.206956849934372, "valid": 1, "fname": "LAWTON", "team": "U17", "cad": "130"}, {"hr": "184", "pow": "", "bib": 307, "rank": 3, "IRM": "", "gname": "Z\u00c9ON", "lat": 46.37728116972826, "nationality": "SUI", "spd": "52.13 kmh", "lon": 6.20688561309938, "valid": 1, "fname": "TAILLEFERT", "team": "U17", "cad": ""}, {"hr": "178", "pow": "0", "bib": 306, "rank": 4, "IRM": "", "gname": "THIBAUD", "lat": 46.3772859475842, "nationality": "SUI", "spd": "51.84 kmh", "lon": 6.206876330407851, "valid": 1, "fname": "ROSSIER", "team": "U17", "cad": "129"}, {"hr": "193", "pow": "0", "bib": 302, "rank": 5, "IRM": "", "gname": "GABRIELE", "lat": 46.37729920747651, "nationality": "SUI", "spd": "50.36 kmh", "lon": 6.20685056833136, "valid": 1, "fname": "CERATO", "team": "U17", "cad": "0"}, {"hr": "", "pow": "", "bib": 303, "rank": 6, "IRM": "", "gname": "DAMIEN", "lat": 46.37731072264614, "nationality": "SUI", "spd": "45.78 kmh", "lon": 6.206828196001776, "valid": 0, "fname": "FORTIS", "team": "U17", "cad": ""}, {"hr": "", "pow": "", "bib": 304, "rank": 7, "IRM": "", "gname": "MAXIME", "lat": 46.3773468786683, "nationality": "SUI", "spd": "51.26 kmh", "lon": 6.206757950015881, "valid": 1, "fname": "JUILLERAT", "team": "U17", "cad": ""}], "no": 1}, {"distance": 392, "gap": "+0:36", "athletes": [{"hr": "", "pow": "", "bib": 401, "rank": 8, "IRM": "", "gname": "MARGOT", "lat": 46.37856888276242, "nationality": "SUI", "spd": "37.30 kmh", "lon": 6.202847706209937, "valid": 1, "fname": "VESIN", "team": "W17", "cad": ""}], "no": 2}]}