{"timestamp": 29662, "groups": [{"distance": 0, "gap": "+0:00", "athletes": [{"hr": "184", "pow": "", "bib": 307, "rank": 1, "IRM": "", "gname": "Z\u00c9ON", "lat": 46.37686013601696, "nationality": "SUI", "spd": "55.98 kmh", "lon": 6.207692725772257, "valid": 1, "fname": "TAILLEFERT", "team": "U17", "cad": ""}, {"hr": "177", "pow": "0", "bib": 306, "rank": 2, "IRM": "", "gname": "THIBAUD", "lat": 46.376861446083595, "nationality": "SUI", "spd": "66.29 kmh", "lon": 6.207690084508878, "valid": 1, "fname": "ROSSIER", "team": "U17", "cad": "61"}, {"hr": "", "pow": "", "bib": 303, "rank": 3, "IRM": "", "gname": "DAMIEN", "lat": 46.376862179720916, "nationality": "SUI", "spd": "55.15 kmh", "lon": 6.207688605401385, "valid": 1, "fname": "FORTIS", "team": "U17", "cad": ""}, {"hr": "179", "pow": "0", "bib": 305, "rank": 4, "IRM": "", "gname": "HENRY", "lat": 46.3768700779671, "nationality": "GBR", "spd": "55.63 kmh", "lon": 6.207672681517944, "valid": 0, "fname": "LAWTON", "team": "U17", "cad": "68"}, {"hr": "191", "pow": "0", "bib": 302, "rank": 5, "IRM": "", "gname": "GABRIELE", "lat": 46.37688240714978, "nationality": "SUI", "spd": "56.95 kmh", "lon": 6.207647824294806, "valid": 1, "fname": "CERATO", "team": "U17", "cad": "68"}, {"hr": "", "pow": "", "bib": 301, "rank": 6, "IRM": "", "gname": "SYLVAIN", "lat": 46.376919403431586, "nationality": "SUI", "spd": "53.54 kmh", "lon": 6.207573235016971, "valid": 0, "fname": "BRUNNER", "team": "U17", "cad": ""}, {"hr": "", "pow": "", "bib": 304, "rank": 7, "IRM": "", "gname": "MAXIME", "lat": 46.37693089665625, "nationality": "SUI", "spd": "56.02 kmh", "lon": 6.207551908656521, "valid": 1, "fname": "JUILLERAT", "team": "U17", "cad": ""}], "no": 1}, {"distance": 420, "gap": "+0:35", "athletes": [{"hr": "", "pow": "", "bib": 401, "rank": 8, "IRM": "", "gname": "MARGOT", "lat": 46.378865852471165, "nationality": "SUI", "spd": "36.56 kmh", "lon": 6.203157999753032, "valid": 1, "fname": "VESIN", "team": "W17", "cad": ""}], "no": 2}]}