{"timestamp": 29665, "groups": [{"distance": 0, "gap": "+0:00", "athletes": [{"hr": "179", "pow": "0", "bib": 305, "rank": 1, "IRM": "", "gname": "HENRY", "lat": 46.376595593248354, "nationality": "GBR", "spd": "54.70 kmh", "lon": 6.208196611661926, "valid": 1, "fname": "LAWTON", "team": "U17", "cad": "0"}, {"hr": "", "pow": "", "bib": 301, "rank": 2, "IRM": "", "gname": "SYLVAIN", "lat": 46.37661880964294, "nationality": "SUI", "spd": "59.10 kmh", "lon": 6.208154891625325, "valid": 1, "fname": "BRUNNER", "team": "U17", "cad": ""}, {"hr": "176", "pow": "0", "bib": 306, "rank": 3, "IRM": "", "gname": "THIBAUD", "lat": 46.37661977860232, "nationality": "SUI", "spd": "73.16 kmh", "lon": 6.208153017096448, "valid": 1, "fname": "ROSSIER", "team": "U17", "cad": "0"}, {"hr": "184", "pow": "", "bib": 307, "rank": 4, "IRM": "", "gname": "Z\u00c9ON", "lat": 46.376625323203164, "nationality": "SUI", "spd": "52.01 kmh", "lon": 6.2081422906256485, "valid": 1, "fname": "TAILLEFERT", "team": "U17", "cad": ""}, {"hr": "", "pow": "", "bib": 303, "rank": 5, "IRM": "", "gname": "DAMIEN", "lat": 46.37662677664222, "nationality": "SUI", "spd": "52.15 kmh", "lon": 6.208139478832333, "valid": 1, "fname": "FORTIS", "team": "U17", "cad": ""}, {"hr": "191", "pow": "0", "bib": 302, "rank": 6, "IRM": "", "gname": "GABRIELE", "lat": 46.376638027337144, "nationality": "SUI", "spd": "63.60 kmh", "lon": 6.208117713469256, "valid": 1, "fname": "CERATO", "team": "U17", "cad": "0"}, {"hr": "", "pow": "", "bib": 304, "rank": 7, "IRM": "", "gname": "MAXIME", "lat": 46.37668329927222, "nationality": "SUI", "spd": "55.15 kmh", "lon": 6.208030131314481, "valid": 1, "fname": "JUILLERAT", "team": "U17", "cad": ""}], "no": 1}, {"distance": 449, "gap": "+0:36", "athletes": [{"hr": "", "pow": "", "bib": 401, "rank": 8, "IRM": "", "gname": "MARGOT", "lat": 46.378818840915805, "nationality": "SUI", "spd": "27.86 kmh", "lon": 6.2033992297247265, "valid": 0, "fname": "VESIN", "team": "W17", "cad": ""}], "no": 2}]}