{"timestamp": 29675, "groups": [{"distance": 0, "gap": "+0:00", "athletes": [{"hr": "176", "pow": "191", "bib": 305, "rank": 1, "IRM": "", "gname": "HENRY", "lat": 46.375733845642706, "nationality": "GBR", "spd": "35.63 kmh", "lon": 6.208692012757279, "valid": 1, "fname": "LAWTON", "team": "U17", "cad": "83"}, {"hr": "", "pow": "", "bib": 303, "rank": 2, "IRM": "", "gname": "DAMIEN", "lat": 46.37574797747221, "nationality": "SUI", "spd": "36.52 kmh", "lon": 6.208695962647512, "valid": 1, "fname": "FORTIS", "team": "U17", "cad": ""}, {"hr": "", "pow": "", "bib": 301, "rank": 3, "IRM": "", "gname": "SYLVAIN", "lat": 46.375749920598764, "nationality": "SUI", "spd": "36.20 kmh", "lon": 6.208696505757418, "valid": 1, "fname": "BRUNNER", "team": "U17", "cad": ""}, {"hr": "179", "pow": "", "bib": 307, "rank": 4, "IRM": "", "gname": "Z\u00c9ON", "lat": 46.37576246259744, "nationality": "SUI", "spd": "33.53 kmh", "lon": 6.208700011285, "valid": 1, "fname": "TAILLEFERT", "team": "U17", "cad": ""}, {"hr": "184", "pow": "200", "bib": 302, "rank": 5, "IRM": "", "gname": "GABRIELE", "lat": 46.375773140440195, "nationality": "SUI", "spd": "35.57 kmh", "lon": 6.208702246743526, "valid": 1, "fname": "CERATO", "team": "U17", "cad": "83"}, {"hr": "", "pow": "", "bib": 304, "rank": 6, "IRM": "", "gname": "MAXIME", "lat": 46.37577992812853, "nationality": "SUI", "spd": "37.19 kmh", "lon": 6.208703431895457, "valid": 1, "fname": "JUILLERAT", "team": "U17", "cad": ""}, {"hr": "173", "pow": "128", "bib": 306, "rank": 7, "IRM": "", "gname": "THIBAUD", "lat": 46.375798147713006, "nationality": "SUI", "spd": "34.93 kmh", "lon": 6.208706613092747, "valid": 0, "fname": "ROSSIER", "team": "U17", "cad": "86"}], "no": 1}, {"distance": 487, "gap": "+0:40", "athletes": [{"hr": "", "pow": "", "bib": 401, "rank": 8, "IRM": "", "gname": "MARGOT", "lat": 46.37855093235866, "nationality": "SUI", "spd": "28.97 kmh", "lon": 6.204188449655134, "valid": 1, "fname": "VESIN", "team": "W17", "cad": ""}], "no": 2}]}