{"timestamp": 29676, "groups": [{"distance": 0, "gap": "+0:00", "athletes": [{"hr": "", "pow": "", "bib": 303, "rank": 1, "IRM": "", "gname": "DAMIEN", "lat": 46.375671930564714, "nationality": "SUI", "spd": "34.30 kmh", "lon": 6.208674707300697, "valid": 1, "fname": "FORTIS", "team": "U17", "cad": ""}, {"hr": "172", "pow": "174", "bib": 306, "rank": 2, "IRM": "", "gname": "THIBAUD", "lat": 46.375681116253894, "nationality": "SUI", "spd": "38.65 kmh", "lon": 6.208677274729348, "valid": 1, "fname": "ROSSIER", "team": "U17", "cad": "80"}, {"hr": "179", "pow": "", "bib": 307, "rank": 3, "IRM": "", "gname": "Z\u00c9ON", "lat": 46.375682176141105, "nationality": "SUI", "spd": "32.89 kmh", "lon": 6.208677570971116, "valid": 1, "fname": "TAILLEFERT", "team": "U17", "cad": ""}, {"hr": "176", "pow": "191", "bib": 305, "rank": 4, "IRM": "", "gname": "HENRY", "lat": 46.375690910396834, "nationality": "GBR", "spd": "35.63 kmh", "lon": 6.208680012222718, "valid": 0, "fname": "LAWTON", "team": "U17", "cad": "83"}, {"hr": "183", "pow": "174", "bib": 302, "rank": 5, "IRM": "", "gname": "GABRIELE", "lat": 46.375695336407325, "nationality": "SUI", "spd": "34.00 kmh", "lon": 6.208681249306395, "valid": 1, "fname": "CERATO", "team": "U17", "cad": "81"}, {"hr": "", "pow": "", "bib": 301, "rank": 6, "IRM": "", "gname": "SYLVAIN", "lat": 46.37570712765256, "nationality": "SUI", "spd": "36.20 kmh", "lon": 6.208684544996058, "valid": 0, "fname": "BRUNNER", "team": "U17", "cad": ""}, {"hr": "", "pow": "", "bib": 304, "rank": 7, "IRM": "", "gname": "MAXIME", "lat": 46.37573852681123, "nationality": "SUI", "spd": "37.19 kmh", "lon": 6.208693321158418, "valid": 0, "fname": "JUILLERAT", "team": "U17", "cad": ""}], "no": 1}, {"distance": 487, "gap": "+0:41", "athletes": [{"hr": "", "pow": "", "bib": 401, "rank": 8, "IRM": "", "gname": "MARGOT", "lat": 46.378505322963605, "nationality": "SUI", "spd": "29.28 kmh", "lon": 6.2042433258629455, "valid": 1, "fname": "VESIN", "team": "W17", "cad": ""}], "no": 2}]}