{"timestamp": 29672, "groups": [{"distance": 0, "gap": "+0:00", "athletes": [{"hr": "177", "pow": "0", "bib": 305, "rank": 1, "IRM": "", "gname": "HENRY", "lat": 46.375978234809985, "nationality": "GBR", "spd": "40.43 kmh", "lon": 6.2087186447065665, "valid": 1, "fname": "LAWTON", "team": "U17", "cad": "0"}, {"hr": "174", "pow": "0", "bib": 306, "rank": 2, "IRM": "", "gname": "THIBAUD", "lat": 46.376009573136294, "nationality": "SUI", "spd": "38.94 kmh", "lon": 6.208713760479759, "valid": 1, "fname": "ROSSIER", "team": "U17", "cad": "96"}, {"hr": "181", "pow": "", "bib": 307, "rank": 3, "IRM": "", "gname": "Z\u00c9ON", "lat": 46.3760125054956, "nationality": "SUI", "spd": "45.43 kmh", "lon": 6.208713091136873, "valid": 1, "fname": "TAILLEFERT", "team": "U17", "cad": ""}, {"hr": "", "pow": "", "bib": 301, "rank": 4, "IRM": "", "gname": "SYLVAIN", "lat": 46.37601970310481, "nationality": "SUI", "spd": "38.84 kmh", "lon": 6.208711448204336, "valid": 1, "fname": "BRUNNER", "team": "U17", "cad": ""}, {"hr": "", "pow": "", "bib": 303, "rank": 5, "IRM": "", "gname": "DAMIEN", "lat": 46.3760200585423, "nationality": "SUI", "spd": "53.51 kmh", "lon": 6.208711367071865, "valid": 1, "fname": "FORTIS", "team": "U17", "cad": ""}, {"hr": "187", "pow": "0", "bib": 302, "rank": 6, "IRM": "", "gname": "GABRIELE", "lat": 46.37603356516699, "nationality": "SUI", "spd": "41.80 kmh", "lon": 6.20870828403797, "valid": 1, "fname": "CERATO", "team": "U17", "cad": "0"}, {"hr": "", "pow": "", "bib": 304, "rank": 7, "IRM": "", "gname": "MAXIME", "lat": 46.376057024041444, "nationality": "SUI", "spd": "42.60 kmh", "lon": 6.208702929294888, "valid": 1, "fname": "JUILLERAT", "team": "U17", "cad": ""}], "no": 1}, {"distance": 484, "gap": "+0:40", "athletes": [{"hr": "", "pow": "", "bib": 401, "rank": 8, "IRM": "", "gname": "MARGOT", "lat": 46.378706647829155, "nationality": "SUI", "spd": "22.90 kmh", "lon": 6.203994583131869, "valid": 1, "fname": "VESIN", "team": "W17", "cad": ""}], "no": 2}]}