{"timestamp": 29682, "groups": [{"distance": 0, "gap": "+0:00", "athletes": [{"hr": "175", "pow": "124", "bib": 305, "rank": 1, "IRM": "", "gname": "HENRY", "lat": 46.375223111854815, "nationality": "GBR", "spd": "30.10 kmh", "lon": 6.2085183154902195, "valid": 1, "fname": "LAWTON", "team": "U17", "cad": "89"}, {"hr": "", "pow": "", "bib": 303, "rank": 2, "IRM": "", "gname": "DAMIEN", "lat": 46.37523549348971, "nationality": "SUI", "spd": "38.84 kmh", "lon": 6.208522857666065, "valid": 1, "fname": "FORTIS", "team": "U17", "cad": ""}, {"hr": "", "pow": "", "bib": 301, "rank": 3, "IRM": "", "gname": "SYLVAIN", "lat": 46.375235580684325, "nationality": "SUI", "spd": "29.46 kmh", "lon": 6.208522889653218, "valid": 1, "fname": "BRUNNER", "team": "U17", "cad": ""}, {"hr": "179", "pow": "", "bib": 307, "rank": 4, "IRM": "", "gname": "Z\u00c9ON", "lat": 46.37524778793, "nationality": "SUI", "spd": "29.30 kmh", "lon": 6.208527367854756, "valid": 1, "fname": "TAILLEFERT", "team": "U17", "cad": ""}, {"hr": "", "pow": "", "bib": 304, "rank": 5, "IRM": "", "gname": "MAXIME", "lat": 46.375268017079975, "nationality": "SUI", "spd": "28.79 kmh", "lon": 6.208534788874447, "valid": 1, "fname": "JUILLERAT", "team": "U17", "cad": ""}, {"hr": "171", "pow": "234", "bib": 306, "rank": 6, "IRM": "", "gname": "THIBAUD", "lat": 46.375281663036745, "nationality": "SUI", "spd": "34.67 kmh", "lon": 6.208539794864023, "valid": 0, "fname": "ROSSIER", "team": "U17", "cad": "91"}, {"hr": "180", "pow": "234", "bib": 302, "rank": 7, "IRM": "", "gname": "GABRIELE", "lat": 46.37529536712326, "nationality": "SUI", "spd": "29.47 kmh", "lon": 6.208544822178369, "valid": 0, "fname": "CERATO", "team": "U17", "cad": "91"}], "no": 1}, {"distance": 492, "gap": "+0:42", "athletes": [{"hr": "", "pow": "", "bib": 401, "rank": 8, "IRM": "", "gname": "MARGOT", "lat": 46.37828556600877, "nationality": "SUI", "spd": "31.89 kmh", "lon": 6.204750921513295, "valid": 1, "fname": "VESIN", "team": "W17", "cad": ""}], "no": 2}]}