{"timestamp": 29695, "groups": [{"distance": 0, "gap": "+0:00", "athletes": [{"hr": "169", "pow": "109", "bib": 306, "rank": 1, "IRM": "", "gname": "THIBAUD", "lat": 46.37436664980085, "nationality": "SUI", "spd": "26.68 kmh", "lon": 6.208201219533732, "valid": 1, "fname": "ROSSIER", "team": "U17", "cad": "65"}, {"hr": "", "pow": "", "bib": 301, "rank": 2, "IRM": "", "gname": "SYLVAIN", "lat": 46.37437448273226, "nationality": "SUI", "spd": "26.74 kmh", "lon": 6.208204180084822, "valid": 1, "fname": "BRUNNER", "team": "U17", "cad": ""}, {"hr": "173", "pow": "101", "bib": 305, "rank": 3, "IRM": "", "gname": "HENRY", "lat": 46.374378660295676, "nationality": "GBR", "spd": "27.10 kmh", "lon": 6.208205759045403, "valid": 1, "fname": "LAWTON", "team": "U17", "cad": "78"}, {"hr": "", "pow": "", "bib": 303, "rank": 4, "IRM": "", "gname": "DAMIEN", "lat": 46.3743810101751, "nationality": "SUI", "spd": "25.84 kmh", "lon": 6.20820664721073, "valid": 1, "fname": "FORTIS", "team": "U17", "cad": ""}, {"hr": "178", "pow": "", "bib": 307, "rank": 5, "IRM": "", "gname": "Z\u00c9ON", "lat": 46.37438318598938, "nationality": "SUI", "spd": "26.39 kmh", "lon": 6.208207469586033, "valid": 1, "fname": "TAILLEFERT", "team": "U17", "cad": ""}, {"hr": "", "pow": "", "bib": 304, "rank": 6, "IRM": "", "gname": "MAXIME", "lat": 46.37440546632761, "nationality": "SUI", "spd": "26.12 kmh", "lon": 6.208215890709132, "valid": 1, "fname": "JUILLERAT", "team": "U17", "cad": ""}, {"hr": "177", "pow": "109", "bib": 302, "rank": 7, "IRM": "", "gname": "GABRIELE", "lat": 46.37440703291389, "nationality": "SUI", "spd": "25.67 kmh", "lon": 6.208216482819351, "valid": 1, "fname": "CERATO", "team": "U17", "cad": "78"}], "no": 1}, {"distance": 467, "gap": "+0:45", "athletes": [{"hr": "", "pow": "", "bib": 401, "rank": 8, "IRM": "", "gname": "MARGOT", "lat": 46.37769050354335, "nationality": "SUI", "spd": "43.45 kmh", "lon": 6.206103825508555, "valid": 1, "fname": "VESIN", "team": "W17", "cad": ""}], "no": 2}]}