{"timestamp": 29698, "groups": [{"distance": 0, "gap": "+0:00", "athletes": [{"hr": "168", "pow": "128", "bib": 306, "rank": 1, "IRM": "", "gname": "THIBAUD", "lat": 46.37417361155788, "nationality": "SUI", "spd": "26.62 kmh", "lon": 6.208128258396877, "valid": 1, "fname": "ROSSIER", "team": "U17", "cad": "78"}, {"hr": "172", "pow": "119", "bib": 305, "rank": 2, "IRM": "", "gname": "HENRY", "lat": 46.37419493453783, "nationality": "GBR", "spd": "25.97 kmh", "lon": 6.208136317674843, "valid": 1, "fname": "LAWTON", "team": "U17", "cad": "78"}, {"hr": "177", "pow": "", "bib": 307, "rank": 3, "IRM": "", "gname": "Z\u00c9ON", "lat": 46.3741962400264, "nationality": "SUI", "spd": "25.78 kmh", "lon": 6.208136811100025, "valid": 1, "fname": "TAILLEFERT", "team": "U17", "cad": ""}, {"hr": "", "pow": "", "bib": 304, "rank": 4, "IRM": "", "gname": "MAXIME", "lat": 46.37421564828978, "nationality": "SUI", "spd": "26.17 kmh", "lon": 6.208144146687725, "valid": 1, "fname": "JUILLERAT", "team": "U17", "cad": ""}, {"hr": "176", "pow": "128", "bib": 302, "rank": 5, "IRM": "", "gname": "GABRIELE", "lat": 46.374217388941204, "nationality": "SUI", "spd": "25.37 kmh", "lon": 6.208144804587967, "valid": 1, "fname": "CERATO", "team": "U17", "cad": "78"}, {"hr": "", "pow": "", "bib": 301, "rank": 6, "IRM": "", "gname": "SYLVAIN", "lat": 46.374217650038915, "nationality": "SUI", "spd": "26.26 kmh", "lon": 6.208144903273003, "valid": 0, "fname": "BRUNNER", "team": "U17", "cad": ""}, {"hr": "", "pow": "", "bib": 303, "rank": 7, "IRM": "", "gname": "DAMIEN", "lat": 46.37422365528633, "nationality": "SUI", "spd": "25.99 kmh", "lon": 6.208147173028839, "valid": 0, "fname": "FORTIS", "team": "U17", "cad": ""}], "no": 1}, {"distance": 457, "gap": "+0:45", "athletes": [{"hr": "", "pow": "", "bib": 401, "rank": 8, "IRM": "", "gname": "MARGOT", "lat": 46.37751314501686, "nationality": "SUI", "spd": "38.99 kmh", "lon": 6.206439497350634, "valid": 1, "fname": "VESIN", "team": "W17", "cad": ""}], "no": 2}]}