{"timestamp": 29699, "groups": [{"distance": 0, "gap": "+0:00", "athletes": [{"hr": "168", "pow": "151", "bib": 306, "rank": 1, "IRM": "", "gname": "THIBAUD", "lat": 46.37410859822718, "nationality": "SUI", "spd": "26.78 kmh", "lon": 6.208103685822832, "valid": 1, "fname": "ROSSIER", "team": "U17", "cad": "82"}, {"hr": "", "pow": "", "bib": 303, "rank": 2, "IRM": "", "gname": "DAMIEN", "lat": 46.374128354620844, "nationality": "SUI", "spd": "30.52 kmh", "lon": 6.208111152990581, "valid": 1, "fname": "FORTIS", "team": "U17", "cad": ""}, {"hr": "177", "pow": "", "bib": 307, "rank": 3, "IRM": "", "gname": "Z\u00c9ON", "lat": 46.37413479503112, "nationality": "SUI", "spd": "25.50 kmh", "lon": 6.208113587221477, "valid": 1, "fname": "TAILLEFERT", "team": "U17", "cad": ""}, {"hr": "176", "pow": "151", "bib": 302, "rank": 4, "IRM": "", "gname": "GABRIELE", "lat": 46.37415429032707, "nationality": "SUI", "spd": "25.43 kmh", "lon": 6.208120955704189, "valid": 1, "fname": "CERATO", "team": "U17", "cad": "82"}, {"hr": "172", "pow": "119", "bib": 305, "rank": 5, "IRM": "", "gname": "HENRY", "lat": 46.374163385230766, "nationality": "GBR", "spd": "25.97 kmh", "lon": 6.2081243932329535, "valid": 0, "fname": "LAWTON", "team": "U17", "cad": "78"}, {"hr": "", "pow": "", "bib": 304, "rank": 6, "IRM": "", "gname": "MAXIME", "lat": 46.37418449062928, "nationality": "SUI", "spd": "26.17 kmh", "lon": 6.20813237027339, "valid": 0, "fname": "JUILLERAT", "team": "U17", "cad": ""}, {"hr": "", "pow": "", "bib": 301, "rank": 7, "IRM": "", "gname": "SYLVAIN", "lat": 46.37418631831328, "nationality": "SUI", "spd": "26.26 kmh", "lon": 6.2081330610686445, "valid": 0, "fname": "BRUNNER", "team": "U17", "cad": ""}], "no": 1}, {"distance": 454, "gap": "+0:45", "athletes": [{"hr": "", "pow": "", "bib": 401, "rank": 8, "IRM": "", "gname": "MARGOT", "lat": 46.37745380715344, "nationality": "SUI", "spd": "39.16 kmh", "lon": 6.206551801226392, "valid": 1, "fname": "VESIN", "team": "W17", "cad": ""}], "no": 2}]}