{"timestamp": 29696, "groups": [{"distance": 0, "gap": "+0:00", "athletes": [{"hr": "169", "pow": "182", "bib": 306, "rank": 1, "IRM": "", "gname": "THIBAUD", "lat": 46.37430285492614, "nationality": "SUI", "spd": "26.56 kmh", "lon": 6.208177107489857, "valid": 1, "fname": "ROSSIER", "team": "U17", "cad": "64"}, {"hr": "", "pow": "", "bib": 301, "rank": 2, "IRM": "", "gname": "SYLVAIN", "lat": 46.37431164521583, "nationality": "SUI", "spd": "26.60 kmh", "lon": 6.20818042988608, "valid": 1, "fname": "BRUNNER", "team": "U17", "cad": ""}, {"hr": "173", "pow": "173", "bib": 305, "rank": 3, "IRM": "", "gname": "HENRY", "lat": 46.37431678013754, "nationality": "GBR", "spd": "26.57 kmh", "lon": 6.2081823706917945, "valid": 1, "fname": "LAWTON", "team": "U17", "cad": "79"}, {"hr": "", "pow": "", "bib": 303, "rank": 4, "IRM": "", "gname": "DAMIEN", "lat": 46.37431765046325, "nationality": "SUI", "spd": "26.08 kmh", "lon": 6.208182699641916, "valid": 1, "fname": "FORTIS", "team": "U17", "cad": ""}, {"hr": "178", "pow": "", "bib": 307, "rank": 5, "IRM": "", "gname": "Z\u00c9ON", "lat": 46.37431973924496, "nationality": "SUI", "spd": "26.47 kmh", "lon": 6.208183489122206, "valid": 1, "fname": "TAILLEFERT", "team": "U17", "cad": ""}, {"hr": "", "pow": "", "bib": 304, "rank": 6, "IRM": "", "gname": "MAXIME", "lat": 46.37434106222491, "nationality": "SUI", "spd": "26.30 kmh", "lon": 6.208191548400173, "valid": 1, "fname": "JUILLERAT", "team": "U17", "cad": ""}, {"hr": "177", "pow": "109", "bib": 302, "rank": 7, "IRM": "", "gname": "GABRIELE", "lat": 46.374376450635395, "nationality": "SUI", "spd": "25.67 kmh", "lon": 6.208204923877596, "valid": 0, "fname": "CERATO", "team": "U17", "cad": "78"}], "no": 1}, {"distance": 464, "gap": "+0:45", "athletes": [{"hr": "", "pow": "", "bib": 401, "rank": 8, "IRM": "", "gname": "MARGOT", "lat": 46.37763192992103, "nationality": "SUI", "spd": "44.29 kmh", "lon": 6.206214682968251, "valid": 1, "fname": "VESIN", "team": "W17", "cad": ""}], "no": 2}]}