{"timestamp": 29707, "groups": [{"distance": 0, "gap": "+0:00", "athletes": [{"hr": "165", "pow": "186", "bib": 306, "rank": 1, "IRM": "", "gname": "THIBAUD", "lat": 46.37359272883304, "nationality": "SUI", "spd": "31.71 kmh", "lon": 6.207909385560727, "valid": 1, "fname": "ROSSIER", "team": "U17", "cad": "83"}, {"hr": "", "pow": "", "bib": 301, "rank": 2, "IRM": "", "gname": "SYLVAIN", "lat": 46.37361214870919, "nationality": "SUI", "spd": "31.86 kmh", "lon": 6.207916656617645, "valid": 1, "fname": "BRUNNER", "team": "U17", "cad": ""}, {"hr": "", "pow": "", "bib": 303, "rank": 3, "IRM": "", "gname": "DAMIEN", "lat": 46.373622947205355, "nationality": "SUI", "spd": "35.05 kmh", "lon": 6.207920699716559, "valid": 1, "fname": "FORTIS", "team": "U17", "cad": ""}, {"hr": "177", "pow": "", "bib": 307, "rank": 4, "IRM": "", "gname": "Z\u00c9ON", "lat": 46.37363435529404, "nationality": "SUI", "spd": "34.87 kmh", "lon": 6.207924971054927, "valid": 1, "fname": "TAILLEFERT", "team": "U17", "cad": ""}, {"hr": "174", "pow": "186", "bib": 302, "rank": 5, "IRM": "", "gname": "GABRIELE", "lat": 46.37365090137686, "nationality": "SUI", "spd": "25.73 kmh", "lon": 6.207931166125844, "valid": 1, "fname": "CERATO", "team": "U17", "cad": "83"}, {"hr": "171", "pow": "135", "bib": 305, "rank": 6, "IRM": "", "gname": "HENRY", "lat": 46.37367051961249, "nationality": "GBR", "spd": "25.87 kmh", "lon": 6.207938511451156, "valid": 0, "fname": "LAWTON", "team": "U17", "cad": "83"}, {"hr": "", "pow": "", "bib": 304, "rank": 7, "IRM": "", "gname": "MAXIME", "lat": 46.37368377583089, "nationality": "SUI", "spd": "29.26 kmh", "lon": 6.207943474753586, "valid": 0, "fname": "JUILLERAT", "team": "U17", "cad": ""}], "no": 1}, {"distance": 422, "gap": "+0:47", "athletes": [{"hr": "", "pow": "", "bib": 401, "rank": 8, "IRM": "", "gname": "MARGOT", "lat": 46.37696441709952, "nationality": "SUI", "spd": "41.52 kmh", "lon": 6.207491280376513, "valid": 1, "fname": "VESIN", "team": "W17", "cad": ""}], "no": 2}]}