{"timestamp": 29701, "groups": [{"distance": 0, "gap": "+0:00", "athletes": [{"hr": "166", "pow": "209", "bib": 306, "rank": 1, "IRM": "", "gname": "THIBAUD", "lat": 46.37398126957548, "nationality": "SUI", "spd": "31.09 kmh", "lon": 6.208055560420117, "valid": 1, "fname": "ROSSIER", "team": "U17", "cad": "79"}, {"hr": "", "pow": "", "bib": 301, "rank": 2, "IRM": "", "gname": "SYLVAIN", "lat": 46.3739981538943, "nationality": "SUI", "spd": "34.58 kmh", "lon": 6.208061942052467, "valid": 1, "fname": "BRUNNER", "team": "U17", "cad": ""}, {"hr": "", "pow": "", "bib": 303, "rank": 3, "IRM": "", "gname": "DAMIEN", "lat": 46.37400250552286, "nationality": "SUI", "spd": "32.56 kmh", "lon": 6.208063586803072, "valid": 1, "fname": "FORTIS", "team": "U17", "cad": ""}, {"hr": "172", "pow": "200", "bib": 305, "rank": 4, "IRM": "", "gname": "HENRY", "lat": 46.37401312349655, "nationality": "GBR", "spd": "25.90 kmh", "lon": 6.208067599994549, "valid": 1, "fname": "LAWTON", "team": "U17", "cad": "78"}, {"hr": "", "pow": "", "bib": 304, "rank": 5, "IRM": "", "gname": "MAXIME", "lat": 46.37404610884104, "nationality": "SUI", "spd": "30.01 kmh", "lon": 6.208080067204138, "valid": 0, "fname": "JUILLERAT", "team": "U17", "cad": ""}, {"hr": "176", "pow": "135", "bib": 302, "rank": 6, "IRM": "", "gname": "GABRIELE", "lat": 46.374062645029575, "nationality": "SUI", "spd": "25.40 kmh", "lon": 6.208086317256439, "valid": 0, "fname": "CERATO", "team": "U17", "cad": "81"}, {"hr": "177", "pow": "", "bib": 307, "rank": 7, "IRM": "", "gname": "Z\u00c9ON", "lat": 46.374073350035836, "nationality": "SUI", "spd": "25.50 kmh", "lon": 6.2080903633429285, "valid": 0, "fname": "TAILLEFERT", "team": "U17", "cad": ""}], "no": 1}, {"distance": 446, "gap": "+0:45", "athletes": [{"hr": "", "pow": "", "bib": 401, "rank": 8, "IRM": "", "gname": "MARGOT", "lat": 46.37733555139187, "nationality": "SUI", "spd": "45.91 kmh", "lon": 6.206779957295797, "valid": 1, "fname": "VESIN", "team": "W17", "cad": ""}], "no": 2}]}