{"timestamp": 29706, "groups": [{"distance": 0, "gap": "+0:00", "athletes": [{"hr": "164", "pow": "144", "bib": 306, "rank": 1, "IRM": "", "gname": "THIBAUD", "lat": 46.37365926150292, "nationality": "SUI", "spd": "31.29 kmh", "lon": 6.207934296266939, "valid": 1, "fname": "ROSSIER", "team": "U17", "cad": "83"}, {"hr": "", "pow": "", "bib": 301, "rank": 2, "IRM": "", "gname": "SYLVAIN", "lat": 46.37368190351099, "nationality": "SUI", "spd": "30.84 kmh", "lon": 6.2079427737324036, "valid": 1, "fname": "BRUNNER", "team": "U17", "cad": ""}, {"hr": "171", "pow": "135", "bib": 305, "rank": 3, "IRM": "", "gname": "HENRY", "lat": 46.37370184589503, "nationality": "GBR", "spd": "25.87 kmh", "lon": 6.2079502404231395, "valid": 1, "fname": "LAWTON", "team": "U17", "cad": "83"}, {"hr": "", "pow": "", "bib": 304, "rank": 4, "IRM": "", "gname": "MAXIME", "lat": 46.37371560526917, "nationality": "SUI", "spd": "29.26 kmh", "lon": 6.207955392113691, "valid": 1, "fname": "JUILLERAT", "team": "U17", "cad": ""}, {"hr": "", "pow": "", "bib": 303, "rank": 5, "IRM": "", "gname": "DAMIEN", "lat": 46.37372161410977, "nationality": "SUI", "spd": "30.10 kmh", "lon": 6.207957641902603, "valid": 0, "fname": "FORTIS", "team": "U17", "cad": ""}, {"hr": "174", "pow": "126", "bib": 302, "rank": 6, "IRM": "", "gname": "GABRIELE", "lat": 46.3737473621369, "nationality": "SUI", "spd": "25.43 kmh", "lon": 6.207967282302432, "valid": 0, "fname": "CERATO", "team": "U17", "cad": "82"}, {"hr": "177", "pow": "", "bib": 307, "rank": 7, "IRM": "", "gname": "Z\u00c9ON", "lat": 46.37376080220067, "nationality": "SUI", "spd": "34.33 kmh", "lon": 6.207972314438984, "valid": 0, "fname": "TAILLEFERT", "team": "U17", "cad": ""}], "no": 1}, {"distance": 426, "gap": "+0:46", "athletes": [{"hr": "", "pow": "", "bib": 401, "rank": 8, "IRM": "", "gname": "MARGOT", "lat": 46.37702994198612, "nationality": "SUI", "spd": "41.15 kmh", "lon": 6.207372765799011, "valid": 1, "fname": "VESIN", "team": "W17", "cad": ""}], "no": 2}]}