{"timestamp": 29709, "groups": [{"distance": 0, "gap": "+0:00", "athletes": [{"hr": "164", "pow": "286", "bib": 306, "rank": 1, "IRM": "", "gname": "THIBAUD", "lat": 46.373456528446006, "nationality": "SUI", "spd": "32.44 kmh", "lon": 6.207858390345394, "valid": 1, "fname": "ROSSIER", "team": "U17", "cad": "89"}, {"hr": "", "pow": "", "bib": 303, "rank": 2, "IRM": "", "gname": "DAMIEN", "lat": 46.37348361177105, "nationality": "SUI", "spd": "32.80 kmh", "lon": 6.207868530698315, "valid": 1, "fname": "FORTIS", "team": "U17", "cad": ""}, {"hr": "176", "pow": "", "bib": 307, "rank": 3, "IRM": "", "gname": "Z\u00c9ON", "lat": 46.37350294456256, "nationality": "SUI", "spd": "35.58 kmh", "lon": 6.207875769149596, "valid": 1, "fname": "TAILLEFERT", "team": "U17", "cad": ""}, {"hr": "", "pow": "", "bib": 304, "rank": 4, "IRM": "", "gname": "MAXIME", "lat": 46.373524019047, "nationality": "SUI", "spd": "35.14 kmh", "lon": 6.207883659713605, "valid": 1, "fname": "JUILLERAT", "team": "U17", "cad": ""}, {"hr": "171", "pow": "193", "bib": 305, "rank": 5, "IRM": "", "gname": "HENRY", "lat": 46.37354086992608, "nationality": "GBR", "spd": "25.93 kmh", "lon": 6.207889968904249, "valid": 0, "fname": "LAWTON", "team": "U17", "cad": "85"}, {"hr": "", "pow": "", "bib": 301, "rank": 6, "IRM": "", "gname": "SYLVAIN", "lat": 46.37354239390739, "nationality": "SUI", "spd": "31.86 kmh", "lon": 6.207890539502887, "valid": 0, "fname": "BRUNNER", "team": "U17", "cad": ""}, {"hr": "173", "pow": "203", "bib": 302, "rank": 7, "IRM": "", "gname": "GABRIELE", "lat": 46.37355176518296, "nationality": "SUI", "spd": "26.27 kmh", "lon": 6.2078940482316485, "valid": 0, "fname": "CERATO", "team": "U17", "cad": "85"}], "no": 1}, {"distance": 421, "gap": "+0:47", "athletes": [{"hr": "", "pow": "", "bib": 401, "rank": 8, "IRM": "", "gname": "MARGOT", "lat": 46.37687079995938, "nationality": "SUI", "spd": "41.66 kmh", "lon": 6.207671225888348, "valid": 0, "fname": "VESIN", "team": "W17", "cad": ""}], "no": 2}]}