{"timestamp": 29703, "groups": [{"distance": 0, "gap": "+0:00", "athletes": [{"hr": "165", "pow": "90", "bib": 306, "rank": 1, "IRM": "", "gname": "THIBAUD", "lat": 46.37385455015179, "nationality": "SUI", "spd": "30.55 kmh", "lon": 6.208007665282488, "valid": 1, "fname": "ROSSIER", "team": "U17", "cad": "82"}, {"hr": "", "pow": "", "bib": 301, "rank": 2, "IRM": "", "gname": "SYLVAIN", "lat": 46.373874480610596, "nationality": "SUI", "spd": "25.60 kmh", "lon": 6.208015198240261, "valid": 1, "fname": "BRUNNER", "team": "U17", "cad": ""}, {"hr": "177", "pow": "", "bib": 307, "rank": 3, "IRM": "", "gname": "Z\u00c9ON", "lat": 46.373887883626566, "nationality": "SUI", "spd": "34.04 kmh", "lon": 6.208020264072125, "valid": 1, "fname": "TAILLEFERT", "team": "U17", "cad": ""}, {"hr": "", "pow": "", "bib": 303, "rank": 4, "IRM": "", "gname": "DAMIEN", "lat": 46.373908379797086, "nationality": "SUI", "spd": "32.57 kmh", "lon": 6.208028010847477, "valid": 0, "fname": "FORTIS", "team": "U17", "cad": ""}, {"hr": "", "pow": "", "bib": 304, "rank": 5, "IRM": "", "gname": "MAXIME", "lat": 46.37392783157676, "nationality": "SUI", "spd": "32.18 kmh", "lon": 6.208035362882684, "valid": 0, "fname": "JUILLERAT", "team": "U17", "cad": ""}, {"hr": "176", "pow": "113", "bib": 302, "rank": 6, "IRM": "", "gname": "GABRIELE", "lat": 46.373935819232734, "nationality": "SUI", "spd": "25.23 kmh", "lon": 6.208038381913795, "valid": 0, "fname": "CERATO", "team": "U17", "cad": "83"}, {"hr": "172", "pow": "200", "bib": 305, "rank": 7, "IRM": "", "gname": "HENRY", "lat": 46.37395099191099, "nationality": "GBR", "spd": "25.90 kmh", "lon": 6.208044116610905, "valid": 0, "fname": "LAWTON", "team": "U17", "cad": "78"}], "no": 1}, {"distance": 438, "gap": "+0:46", "athletes": [{"hr": "", "pow": "", "bib": 401, "rank": 8, "IRM": "", "gname": "MARGOT", "lat": 46.37721433342896, "nationality": "SUI", "spd": "46.89 kmh", "lon": 6.207015466480881, "valid": 1, "fname": "VESIN", "team": "W17", "cad": ""}], "no": 2}]}