{"timestamp": 29712, "groups": [{"distance": 0, "gap": "+0:00", "athletes": [{"hr": "165", "pow": "118", "bib": 306, "rank": 1, "IRM": "", "gname": "THIBAUD", "lat": 46.37324465150121, "nationality": "SUI", "spd": "38.36 kmh", "lon": 6.207779060832027, "valid": 1, "fname": "ROSSIER", "team": "U17", "cad": "97"}, {"hr": "", "pow": "", "bib": 301, "rank": 2, "IRM": "", "gname": "SYLVAIN", "lat": 46.37325762711353, "nationality": "SUI", "spd": "38.28 kmh", "lon": 6.207783919071851, "valid": 0, "fname": "BRUNNER", "team": "U17", "cad": ""}, {"hr": "", "pow": "", "bib": 303, "rank": 3, "IRM": "", "gname": "DAMIEN", "lat": 46.37326842560969, "nationality": "SUI", "spd": "29.65 kmh", "lon": 6.207787962170764, "valid": 1, "fname": "FORTIS", "team": "U17", "cad": ""}, {"hr": "175", "pow": "", "bib": 307, "rank": 4, "IRM": "", "gname": "Z\u00c9ON", "lat": 46.3732890646709, "nationality": "SUI", "spd": "34.04 kmh", "lon": 6.207795689706592, "valid": 1, "fname": "TAILLEFERT", "team": "U17", "cad": ""}, {"hr": "171", "pow": "107", "bib": 305, "rank": 5, "IRM": "", "gname": "HENRY", "lat": 46.37329350598787, "nationality": "GBR", "spd": "29.03 kmh", "lon": 6.207797352594048, "valid": 1, "fname": "LAWTON", "team": "U17", "cad": "98"}, {"hr": "175", "pow": "118", "bib": 302, "rank": 6, "IRM": "", "gname": "GABRIELE", "lat": 46.373299863167055, "nationality": "SUI", "spd": "28.57 kmh", "lon": 6.207799732805506, "valid": 1, "fname": "CERATO", "team": "U17", "cad": "98"}, {"hr": "", "pow": "", "bib": 304, "rank": 7, "IRM": "", "gname": "MAXIME", "lat": 46.373322592259775, "nationality": "SUI", "spd": "40.82 kmh", "lon": 6.207808242876607, "valid": 1, "fname": "JUILLERAT", "team": "U17", "cad": ""}], "no": 1}, {"distance": 408, "gap": "+0:48", "athletes": [{"hr": "", "pow": "", "bib": 401, "rank": 8, "IRM": "", "gname": "MARGOT", "lat": 46.376670971955775, "nationality": "SUI", "spd": "48.35 kmh", "lon": 6.208053979487421, "valid": 1, "fname": "VESIN", "team": "W17", "cad": ""}], "no": 2}]}