{"timestamp": 29713, "groups": [{"distance": 0, "gap": "+0:00", "athletes": [{"hr": "", "pow": "", "bib": 301, "rank": 1, "IRM": "", "gname": "SYLVAIN", "lat": 46.37318883024284, "nationality": "SUI", "spd": "38.71 kmh", "lon": 6.207758160619092, "valid": 1, "fname": "BRUNNER", "team": "U17", "cad": ""}, {"hr": "165", "pow": "118", "bib": 306, "rank": 2, "IRM": "", "gname": "THIBAUD", "lat": 46.37319018005486, "nationality": "SUI", "spd": "38.36 kmh", "lon": 6.207758666006457, "valid": 0, "fname": "ROSSIER", "team": "U17", "cad": "97"}, {"hr": "", "pow": "", "bib": 303, "rank": 3, "IRM": "", "gname": "DAMIEN", "lat": 46.37319675494567, "nationality": "SUI", "spd": "29.58 kmh", "lon": 6.207761127732005, "valid": 1, "fname": "FORTIS", "team": "U17", "cad": ""}, {"hr": "176", "pow": "", "bib": 307, "rank": 4, "IRM": "", "gname": "Z\u00c9ON", "lat": 46.37321704566829, "nationality": "SUI", "spd": "34.57 kmh", "lon": 6.207768724845287, "valid": 1, "fname": "TAILLEFERT", "team": "U17", "cad": ""}, {"hr": "176", "pow": "23", "bib": 302, "rank": 5, "IRM": "", "gname": "GABRIELE", "lat": 46.3732277570798, "nationality": "SUI", "spd": "29.63 kmh", "lon": 6.2077727353385646, "valid": 1, "fname": "CERATO", "team": "U17", "cad": "83"}, {"hr": "171", "pow": "107", "bib": 305, "rank": 6, "IRM": "", "gname": "HENRY", "lat": 46.373255648356846, "nationality": "GBR", "spd": "29.03 kmh", "lon": 6.2077831781993345, "valid": 0, "fname": "LAWTON", "team": "U17", "cad": "98"}, {"hr": "", "pow": "", "bib": 304, "rank": 7, "IRM": "", "gname": "MAXIME", "lat": 46.37327151711464, "nationality": "SUI", "spd": "40.82 kmh", "lon": 6.207789119670856, "valid": 0, "fname": "JUILLERAT", "team": "U17", "cad": ""}], "no": 1}, {"distance": 405, "gap": "+0:49", "athletes": [{"hr": "", "pow": "", "bib": 401, "rank": 8, "IRM": "", "gname": "MARGOT", "lat": 46.37661751769711, "nationality": "SUI", "spd": "46.40 kmh", "lon": 6.208157390997162, "valid": 1, "fname": "VESIN", "team": "W17", "cad": ""}], "no": 2}]}