{"timestamp": 29727, "groups": [{"distance": 0, "gap": "+0:00", "athletes": [{"hr": "167", "pow": "114", "bib": 306, "rank": 1, "IRM": "", "gname": "THIBAUD", "lat": 46.372220106385214, "nationality": "SUI", "spd": "35.62 kmh", "lon": 6.207390802432464, "valid": 1, "fname": "ROSSIER", "team": "U17", "cad": "88"}, {"hr": "", "pow": "", "bib": 303, "rank": 2, "IRM": "", "gname": "DAMIEN", "lat": 46.372231240871486, "nationality": "SUI", "spd": "31.73 kmh", "lon": 6.207395044141518, "valid": 1, "fname": "FORTIS", "team": "U17", "cad": ""}, {"hr": "172", "pow": "114", "bib": 302, "rank": 3, "IRM": "", "gname": "GABRIELE", "lat": 46.3722659491529, "nationality": "SUI", "spd": "27.30 kmh", "lon": 6.207408266343961, "valid": 1, "fname": "CERATO", "team": "U17", "cad": "88"}, {"hr": "", "pow": "", "bib": 301, "rank": 4, "IRM": "", "gname": "SYLVAIN", "lat": 46.37227401730603, "nationality": "SUI", "spd": "32.38 kmh", "lon": 6.207411339926108, "valid": 0, "fname": "BRUNNER", "team": "U17", "cad": ""}, {"hr": "168", "pow": "21", "bib": 305, "rank": 5, "IRM": "", "gname": "HENRY", "lat": 46.37229030584161, "nationality": "GBR", "spd": "27.37 kmh", "lon": 6.207417545082517, "valid": 0, "fname": "LAWTON", "team": "U17", "cad": "78"}, {"hr": "173", "pow": "", "bib": 307, "rank": 6, "IRM": "", "gname": "Z\u00c9ON", "lat": 46.37229187162874, "nationality": "SUI", "spd": "27.02 kmh", "lon": 6.2074181415728535, "valid": 0, "fname": "TAILLEFERT", "team": "U17", "cad": ""}, {"hr": "", "pow": "", "bib": 304, "rank": 7, "IRM": "", "gname": "MAXIME", "lat": 46.37231266180232, "nationality": "SUI", "spd": "31.64 kmh", "lon": 6.207426061638978, "valid": 0, "fname": "JUILLERAT", "team": "U17", "cad": ""}], "no": 1}, {"distance": 383, "gap": "+0:50", "athletes": [{"hr": "", "pow": "", "bib": 401, "rank": 8, "IRM": "", "gname": "MARGOT", "lat": 46.37556288478762, "nationality": "SUI", "spd": "31.20 kmh", "lon": 6.208640971335002, "valid": 1, "fname": "VESIN", "team": "W17", "cad": ""}], "no": 2}]}