{"timestamp": 29723, "groups": [{"distance": 0, "gap": "+0:00", "athletes": [{"hr": "167", "pow": "80", "bib": 306, "rank": 1, "IRM": "", "gname": "THIBAUD", "lat": 46.37247628655755, "nationality": "SUI", "spd": "28.67 kmh", "lon": 6.207488394879067, "valid": 1, "fname": "ROSSIER", "team": "U17", "cad": "82"}, {"hr": "", "pow": "", "bib": 303, "rank": 2, "IRM": "", "gname": "DAMIEN", "lat": 46.372494119133215, "nationality": "SUI", "spd": "27.84 kmh", "lon": 6.207495188241224, "valid": 1, "fname": "FORTIS", "team": "U17", "cad": ""}, {"hr": "170", "pow": "70", "bib": 305, "rank": 3, "IRM": "", "gname": "HENRY", "lat": 46.37251969365636, "nationality": "GBR", "spd": "28.30 kmh", "lon": 6.207504930916709, "valid": 1, "fname": "LAWTON", "team": "U17", "cad": "90"}, {"hr": "174", "pow": "", "bib": 307, "rank": 4, "IRM": "", "gname": "Z\u00c9ON", "lat": 46.372520650526276, "nationality": "SUI", "spd": "27.64 kmh", "lon": 6.2075052954385805, "valid": 1, "fname": "TAILLEFERT", "team": "U17", "cad": ""}, {"hr": "", "pow": "", "bib": 301, "rank": 5, "IRM": "", "gname": "SYLVAIN", "lat": 46.3725279140388, "nationality": "SUI", "spd": "27.90 kmh", "lon": 6.207508062490972, "valid": 0, "fname": "BRUNNER", "team": "U17", "cad": ""}, {"hr": "173", "pow": "80", "bib": 302, "rank": 6, "IRM": "", "gname": "GABRIELE", "lat": 46.37252795753289, "nationality": "SUI", "spd": "28.77 kmh", "lon": 6.207508079060148, "valid": 1, "fname": "CERATO", "team": "U17", "cad": "90"}, {"hr": "", "pow": "", "bib": 304, "rank": 7, "IRM": "", "gname": "MAXIME", "lat": 46.37257467018231, "nationality": "SUI", "spd": "29.03 kmh", "lon": 6.207525874355165, "valid": 0, "fname": "JUILLERAT", "team": "U17", "cad": ""}], "no": 1}, {"distance": 388, "gap": "+0:50", "athletes": [{"hr": "", "pow": "", "bib": 401, "rank": 8, "IRM": "", "gname": "MARGOT", "lat": 46.375868436011935, "nationality": "SUI", "spd": "38.24 kmh", "lon": 6.208718885652877, "valid": 1, "fname": "VESIN", "team": "W17", "cad": ""}], "no": 2}]}