{"timestamp": 29738, "groups": [{"distance": 0, "gap": "+0:00", "athletes": [{"hr": "162", "pow": "81", "bib": 306, "rank": 1, "IRM": "", "gname": "THIBAUD", "lat": 46.371513833608645, "nationality": "SUI", "spd": "26.08 kmh", "lon": 6.207226211092757, "valid": 1, "fname": "ROSSIER", "team": "U17", "cad": "77"}, {"hr": "", "pow": "", "bib": 301, "rank": 2, "IRM": "", "gname": "SYLVAIN", "lat": 46.37151482213397, "nationality": "SUI", "spd": "34.47 kmh", "lon": 6.207226145191069, "valid": 1, "fname": "BRUNNER", "team": "U17", "cad": ""}, {"hr": "", "pow": "", "bib": 303, "rank": 3, "IRM": "", "gname": "DAMIEN", "lat": 46.371516439720864, "nationality": "SUI", "spd": "25.80 kmh", "lon": 6.207226037351942, "valid": 1, "fname": "FORTIS", "team": "U17", "cad": ""}, {"hr": "162", "pow": "71", "bib": 305, "rank": 4, "IRM": "", "gname": "HENRY", "lat": 46.371546904274034, "nationality": "GBR", "spd": "26.27 kmh", "lon": 6.207224006381731, "valid": 1, "fname": "LAWTON", "team": "U17", "cad": "86"}, {"hr": "166", "pow": "81", "bib": 302, "rank": 5, "IRM": "", "gname": "GABRIELE", "lat": 46.37155409354912, "nationality": "SUI", "spd": "26.20 kmh", "lon": 6.207223527096725, "valid": 1, "fname": "CERATO", "team": "U17", "cad": "86"}, {"hr": "", "pow": "", "bib": 304, "rank": 6, "IRM": "", "gname": "MAXIME", "lat": 46.37157107821151, "nationality": "SUI", "spd": "32.09 kmh", "lon": 6.2072223947859, "valid": 1, "fname": "JUILLERAT", "team": "U17", "cad": ""}, {"hr": "172", "pow": "", "bib": 307, "rank": 7, "IRM": "", "gname": "Z\u00c9ON", "lat": 46.37170111506546, "nationality": "SUI", "spd": "26.63 kmh", "lon": 6.207234704691739, "valid": 0, "fname": "TAILLEFERT", "team": "U17", "cad": ""}], "no": 1}, {"distance": 391, "gap": "+0:51", "athletes": [{"hr": "", "pow": "", "bib": 401, "rank": 8, "IRM": "", "gname": "MARGOT", "lat": 46.37493650316534, "nationality": "SUI", "spd": "23.92 kmh", "lon": 6.208413173715545, "valid": 0, "fname": "VESIN", "team": "W17", "cad": ""}], "no": 2}]}