{"timestamp": 29758, "groups": [{"distance": 0, "gap": "+0:00", "athletes": [{"hr": "155", "pow": "18", "bib": 306, "rank": 1, "IRM": "", "gname": "THIBAUD", "lat": 46.37012445252985, "nationality": "SUI", "spd": "33.34 kmh", "lon": 6.207409685261978, "valid": 1, "fname": "ROSSIER", "team": "U17", "cad": "82"}, {"hr": "", "pow": "", "bib": 301, "rank": 2, "IRM": "", "gname": "SYLVAIN", "lat": 46.370139587167564, "nationality": "SUI", "spd": "35.07 kmh", "lon": 6.207407597039954, "valid": 1, "fname": "BRUNNER", "team": "U17", "cad": ""}, {"hr": "", "pow": "", "bib": 303, "rank": 3, "IRM": "", "gname": "DAMIEN", "lat": 46.37013994538384, "nationality": "SUI", "spd": "32.92 kmh", "lon": 6.207407547614581, "valid": 1, "fname": "FORTIS", "team": "U17", "cad": ""}, {"hr": "161", "pow": "", "bib": 307, "rank": 4, "IRM": "", "gname": "Z\u00c9ON", "lat": 46.37015749798143, "nationality": "SUI", "spd": "28.03 kmh", "lon": 6.207405125771287, "valid": 1, "fname": "TAILLEFERT", "team": "U17", "cad": ""}, {"hr": "158", "pow": "10", "bib": 305, "rank": 5, "IRM": "", "gname": "HENRY", "lat": 46.37018409554002, "nationality": "GBR", "spd": "28.17 kmh", "lon": 6.207401455937317, "valid": 1, "fname": "LAWTON", "team": "U17", "cad": "70"}, {"hr": "", "pow": "", "bib": 304, "rank": 6, "IRM": "", "gname": "MAXIME", "lat": 46.37018714037838, "nationality": "SUI", "spd": "33.17 kmh", "lon": 6.207401035821643, "valid": 1, "fname": "JUILLERAT", "team": "U17", "cad": ""}, {"hr": "156", "pow": "8", "bib": 302, "rank": 7, "IRM": "", "gname": "GABRIELE", "lat": 46.37019598135511, "nationality": "SUI", "spd": "28.33 kmh", "lon": 6.207399815975971, "valid": 0, "fname": "CERATO", "team": "U17", "cad": "74"}], "no": 1}, {"distance": 398, "gap": "+0:51", "athletes": [{"hr": "", "pow": "", "bib": 401, "rank": 8, "IRM": "", "gname": "MARGOT", "lat": 46.37364315084333, "nationality": "SUI", "spd": "46.31 kmh", "lon": 6.207928264224204, "valid": 0, "fname": "VESIN", "team": "W17", "cad": ""}], "no": 2}]}