{"timestamp": 29755, "groups": [{"distance": 0, "gap": "+0:00", "athletes": [{"hr": "", "pow": "", "bib": 303, "rank": 1, "IRM": "", "gname": "DAMIEN", "lat": 46.37035021833861, "nationality": "SUI", "spd": "28.36 kmh", "lon": 6.207378534920429, "valid": 1, "fname": "FORTIS", "team": "U17", "cad": ""}, {"hr": "162", "pow": "", "bib": 307, "rank": 2, "IRM": "", "gname": "Z\u00c9ON", "lat": 46.37036669628736, "nationality": "SUI", "spd": "28.09 kmh", "lon": 6.207376261353255, "valid": 1, "fname": "TAILLEFERT", "team": "U17", "cad": ""}, {"hr": "157", "pow": "19", "bib": 306, "rank": 3, "IRM": "", "gname": "THIBAUD", "lat": 46.37037327851146, "nationality": "SUI", "spd": "28.30 kmh", "lon": 6.2073753531620195, "valid": 0, "fname": "ROSSIER", "team": "U17", "cad": "79"}, {"hr": "", "pow": "", "bib": 301, "rank": 4, "IRM": "", "gname": "SYLVAIN", "lat": 46.370384159330875, "nationality": "SUI", "spd": "27.92 kmh", "lon": 6.207373851866304, "valid": 0, "fname": "BRUNNER", "team": "U17", "cad": ""}, {"hr": "156", "pow": "0", "bib": 305, "rank": 5, "IRM": "", "gname": "HENRY", "lat": 46.370393652062226, "nationality": "GBR", "spd": "28.40 kmh", "lon": 6.2073725420939105, "valid": 1, "fname": "LAWTON", "team": "U17", "cad": "66"}, {"hr": "157", "pow": "19", "bib": 302, "rank": 6, "IRM": "", "gname": "GABRIELE", "lat": 46.370403965705876, "nationality": "SUI", "spd": "27.90 kmh", "lon": 6.207371119055037, "valid": 0, "fname": "CERATO", "team": "U17", "cad": "17"}, {"hr": "", "pow": "", "bib": 304, "rank": 7, "IRM": "", "gname": "MAXIME", "lat": 46.37043471260301, "nationality": "SUI", "spd": "28.56 kmh", "lon": 6.207366876710491, "valid": 0, "fname": "JUILLERAT", "team": "U17", "cad": ""}], "no": 1}, {"distance": 394, "gap": "+0:52", "athletes": [{"hr": "", "pow": "", "bib": 401, "rank": 8, "IRM": "", "gname": "MARGOT", "lat": 46.373827395989565, "nationality": "SUI", "spd": "41.84 kmh", "lon": 6.2079974020387105, "valid": 1, "fname": "VESIN", "team": "W17", "cad": ""}], "no": 2}]}