{"timestamp": 29754, "groups": [{"distance": 0, "gap": "+0:00", "athletes": [{"hr": "157", "pow": "19", "bib": 306, "rank": 1, "IRM": "", "gname": "THIBAUD", "lat": 46.37040833892959, "nationality": "SUI", "spd": "28.30 kmh", "lon": 6.207370515653603, "valid": 1, "fname": "ROSSIER", "team": "U17", "cad": "79"}, {"hr": "", "pow": "", "bib": 301, "rank": 2, "IRM": "", "gname": "SYLVAIN", "lat": 46.37041890630977, "nationality": "SUI", "spd": "27.92 kmh", "lon": 6.20736905760509, "valid": 1, "fname": "BRUNNER", "team": "U17", "cad": ""}, {"hr": "", "pow": "", "bib": 303, "rank": 3, "IRM": "", "gname": "DAMIEN", "lat": 46.37042069739116, "nationality": "SUI", "spd": "32.68 kmh", "lon": 6.207368810478224, "valid": 1, "fname": "FORTIS", "team": "U17", "cad": ""}, {"hr": "163", "pow": "", "bib": 307, "rank": 4, "IRM": "", "gname": "Z\u00c9ON", "lat": 46.370437712664334, "nationality": "SUI", "spd": "32.48 kmh", "lon": 6.20736646277299, "valid": 1, "fname": "TAILLEFERT", "team": "U17", "cad": ""}, {"hr": "157", "pow": "19", "bib": 302, "rank": 5, "IRM": "", "gname": "GABRIELE", "lat": 46.37043941419165, "nationality": "SUI", "spd": "27.90 kmh", "lon": 6.207366228002466, "valid": 1, "fname": "CERATO", "team": "U17", "cad": "17"}, {"hr": "", "pow": "", "bib": 304, "rank": 6, "IRM": "", "gname": "MAXIME", "lat": 46.370470041683355, "nationality": "SUI", "spd": "28.56 kmh", "lon": 6.207362002133046, "valid": 1, "fname": "JUILLERAT", "team": "U17", "cad": ""}, {"hr": "156", "pow": "2", "bib": 305, "rank": 7, "IRM": "", "gname": "HENRY", "lat": 46.370496723820786, "nationality": "GBR", "spd": "28.17 kmh", "lon": 6.2073583206291945, "valid": 0, "fname": "LAWTON", "team": "U17", "cad": "91"}], "no": 1}, {"distance": 395, "gap": "+0:51", "athletes": [{"hr": "", "pow": "", "bib": 401, "rank": 8, "IRM": "", "gname": "MARGOT", "lat": 46.37389441106941, "nationality": "SUI", "spd": "43.89 kmh", "lon": 6.208022731198033, "valid": 1, "fname": "VESIN", "team": "W17", "cad": ""}], "no": 2}]}