{"timestamp": 29756, "groups": [{"distance": 0, "gap": "+0:00", "athletes": [{"hr": "156", "pow": "31", "bib": 306, "rank": 1, "IRM": "", "gname": "THIBAUD", "lat": 46.37026693305414, "nationality": "SUI", "spd": "33.11 kmh", "lon": 6.2073900263197315, "valid": 1, "fname": "ROSSIER", "team": "U17", "cad": "82"}, {"hr": "", "pow": "", "bib": 301, "rank": 2, "IRM": "", "gname": "SYLVAIN", "lat": 46.37027947062384, "nationality": "SUI", "spd": "32.70 kmh", "lon": 6.207388296431664, "valid": 1, "fname": "BRUNNER", "team": "U17", "cad": ""}, {"hr": "", "pow": "", "bib": 303, "rank": 3, "IRM": "", "gname": "DAMIEN", "lat": 46.37028009750233, "nationality": "SUI", "spd": "28.36 kmh", "lon": 6.20738820993726, "valid": 1, "fname": "FORTIS", "team": "U17", "cad": ""}, {"hr": "162", "pow": "", "bib": 307, "rank": 4, "IRM": "", "gname": "Z\u00c9ON", "lat": 46.370295859018526, "nationality": "SUI", "spd": "28.28 kmh", "lon": 6.207386035220834, "valid": 1, "fname": "TAILLEFERT", "team": "U17", "cad": ""}, {"hr": "157", "pow": "31", "bib": 302, "rank": 5, "IRM": "", "gname": "GABRIELE", "lat": 46.37030105315455, "nationality": "SUI", "spd": "28.20 kmh", "lon": 6.20738531855292, "valid": 1, "fname": "CERATO", "team": "U17", "cad": "91"}, {"hr": "", "pow": "", "bib": 304, "rank": 6, "IRM": "", "gname": "MAXIME", "lat": 46.37032845669976, "nationality": "SUI", "spd": "33.21 kmh", "lon": 6.20738153751186, "valid": 1, "fname": "JUILLERAT", "team": "U17", "cad": ""}, {"hr": "156", "pow": "0", "bib": 305, "rank": 7, "IRM": "", "gname": "HENRY", "lat": 46.37035857671841, "nationality": "GBR", "spd": "28.40 kmh", "lon": 6.2073773816617175, "valid": 0, "fname": "LAWTON", "team": "U17", "cad": "66"}], "no": 1}, {"distance": 399, "gap": "+0:52", "athletes": [{"hr": "", "pow": "", "bib": 401, "rank": 8, "IRM": "", "gname": "MARGOT", "lat": 46.37379388844965, "nationality": "SUI", "spd": "41.84 kmh", "lon": 6.207984737459049, "valid": 0, "fname": "VESIN", "team": "W17", "cad": ""}], "no": 2}]}