{"timestamp": 29761, "groups": [{"distance": 0, "gap": "+0:00", "athletes": [{"hr": "154", "pow": "0", "bib": 306, "rank": 1, "IRM": "", "gname": "THIBAUD", "lat": 46.36991014964197, "nationality": "SUI", "spd": "33.49 kmh", "lon": 6.2074392539915815, "valid": 1, "fname": "ROSSIER", "team": "U17", "cad": "91"}, {"hr": "", "pow": "", "bib": 301, "rank": 2, "IRM": "", "gname": "SYLVAIN", "lat": 46.36992859778025, "nationality": "SUI", "spd": "34.14 kmh", "lon": 6.207436708584853, "valid": 1, "fname": "BRUNNER", "team": "U17", "cad": ""}, {"hr": "", "pow": "", "bib": 303, "rank": 3, "IRM": "", "gname": "DAMIEN", "lat": 46.3699313739564, "nationality": "SUI", "spd": "27.95 kmh", "lon": 6.20743632553821, "valid": 1, "fname": "FORTIS", "team": "U17", "cad": ""}, {"hr": "162", "pow": "", "bib": 307, "rank": 4, "IRM": "", "gname": "Z\u00c9ON", "lat": 46.36996218055624, "nationality": "SUI", "spd": "32.92 kmh", "lon": 6.2074320749561025, "valid": 0, "fname": "TAILLEFERT", "team": "U17", "cad": ""}, {"hr": "155", "pow": "57", "bib": 302, "rank": 5, "IRM": "", "gname": "GABRIELE", "lat": 46.36998466360287, "nationality": "SUI", "spd": "27.87 kmh", "lon": 6.207428972827462, "valid": 0, "fname": "CERATO", "team": "U17", "cad": "91"}, {"hr": "158", "pow": "47", "bib": 305, "rank": 6, "IRM": "", "gname": "HENRY", "lat": 46.37001350001319, "nationality": "GBR", "spd": "27.70 kmh", "lon": 6.207424994084908, "valid": 0, "fname": "LAWTON", "team": "U17", "cad": "91"}, {"hr": "", "pow": "", "bib": 304, "rank": 7, "IRM": "", "gname": "MAXIME", "lat": 46.37005030176045, "nationality": "SUI", "spd": "28.10 kmh", "lon": 6.207419916314261, "valid": 0, "fname": "JUILLERAT", "team": "U17", "cad": ""}], "no": 1}, {"distance": 396, "gap": "+0:51", "athletes": [{"hr": "", "pow": "", "bib": 401, "rank": 8, "IRM": "", "gname": "MARGOT", "lat": 46.37341960455591, "nationality": "SUI", "spd": "30.80 kmh", "lon": 6.207844565555559, "valid": 1, "fname": "VESIN", "team": "W17", "cad": ""}], "no": 2}]}