{"timestamp": 29777, "groups": [{"distance": 0, "gap": "+0:00", "athletes": [{"hr": "150", "pow": "0", "bib": 306, "rank": 1, "IRM": "", "gname": "THIBAUD", "lat": 46.36880905818614, "nationality": "SUI", "spd": "31.78 kmh", "lon": 6.2075961929290004, "valid": 1, "fname": "ROSSIER", "team": "U17", "cad": "79"}, {"hr": "", "pow": "", "bib": 303, "rank": 2, "IRM": "", "gname": "DAMIEN", "lat": 46.368814160701746, "nationality": "SUI", "spd": "30.14 kmh", "lon": 6.207595458033136, "valid": 1, "fname": "FORTIS", "team": "U17", "cad": ""}, {"hr": "", "pow": "", "bib": 301, "rank": 3, "IRM": "", "gname": "SYLVAIN", "lat": 46.368822396340974, "nationality": "SUI", "spd": "27.41 kmh", "lon": 6.207594271885424, "valid": 1, "fname": "BRUNNER", "team": "U17", "cad": ""}, {"hr": "160", "pow": "", "bib": 307, "rank": 4, "IRM": "", "gname": "Z\u00c9ON", "lat": 46.3688316166762, "nationality": "SUI", "spd": "29.75 kmh", "lon": 6.207592943915704, "valid": 1, "fname": "TAILLEFERT", "team": "U17", "cad": ""}, {"hr": "149", "pow": "0", "bib": 302, "rank": 5, "IRM": "", "gname": "GABRIELE", "lat": 46.36884522338448, "nationality": "SUI", "spd": "27.43 kmh", "lon": 6.207590984193397, "valid": 1, "fname": "CERATO", "team": "U17", "cad": "0"}, {"hr": "149", "pow": "0", "bib": 305, "rank": 6, "IRM": "", "gname": "HENRY", "lat": 46.3688514001139, "nationality": "GBR", "spd": "27.07 kmh", "lon": 6.2075900945826135, "valid": 1, "fname": "LAWTON", "team": "U17", "cad": "0"}, {"hr": "", "pow": "", "bib": 304, "rank": 7, "IRM": "", "gname": "MAXIME", "lat": 46.36887082664482, "nationality": "SUI", "spd": "26.86 kmh", "lon": 6.207587313779157, "valid": 1, "fname": "JUILLERAT", "team": "U17", "cad": ""}], "no": 1}, {"distance": 392, "gap": "+0:51", "athletes": [{"hr": "", "pow": "", "bib": 401, "rank": 8, "IRM": "", "gname": "MARGOT", "lat": 46.372314749518495, "nationality": "SUI", "spd": "33.78 kmh", "lon": 6.207426856959426, "valid": 1, "fname": "VESIN", "team": "W17", "cad": ""}], "no": 2}]}