{"timestamp": 29774, "groups": [{"distance": 0, "gap": "+0:00", "athletes": [{"hr": "152", "pow": "46", "bib": 306, "rank": 1, "IRM": "", "gname": "THIBAUD", "lat": 46.369011920618, "nationality": "SUI", "spd": "32.24 kmh", "lon": 6.2075671968650115, "valid": 1, "fname": "ROSSIER", "team": "U17", "cad": "79"}, {"hr": "", "pow": "", "bib": 301, "rank": 2, "IRM": "", "gname": "SYLVAIN", "lat": 46.369026871565666, "nationality": "SUI", "spd": "32.21 kmh", "lon": 6.207565065186927, "valid": 1, "fname": "BRUNNER", "team": "U17", "cad": ""}, {"hr": "", "pow": "", "bib": 303, "rank": 3, "IRM": "", "gname": "DAMIEN", "lat": 46.36903902480606, "nationality": "SUI", "spd": "32.83 kmh", "lon": 6.2075633324006985, "valid": 0, "fname": "FORTIS", "team": "U17", "cad": ""}, {"hr": "149", "pow": "46", "bib": 302, "rank": 4, "IRM": "", "gname": "GABRIELE", "lat": 46.369043344466085, "nationality": "SUI", "spd": "28.07 kmh", "lon": 6.207562716511671, "valid": 1, "fname": "CERATO", "team": "U17", "cad": "0"}, {"hr": "161", "pow": "", "bib": 307, "rank": 5, "IRM": "", "gname": "Z\u00c9ON", "lat": 46.369053595265534, "nationality": "SUI", "spd": "32.93 kmh", "lon": 6.207561254971906, "valid": 0, "fname": "TAILLEFERT", "team": "U17", "cad": ""}, {"hr": "153", "pow": "35", "bib": 305, "rank": 6, "IRM": "", "gname": "HENRY", "lat": 46.36905489340171, "nationality": "GBR", "spd": "27.97 kmh", "lon": 6.207561069886085, "valid": 1, "fname": "LAWTON", "team": "U17", "cad": "0"}, {"hr": "", "pow": "", "bib": 304, "rank": 7, "IRM": "", "gname": "MAXIME", "lat": 46.36907118724886, "nationality": "SUI", "spd": "32.59 kmh", "lon": 6.207558746739908, "valid": 1, "fname": "JUILLERAT", "team": "U17", "cad": ""}], "no": 1}, {"distance": 398, "gap": "+0:52", "athletes": [{"hr": "", "pow": "", "bib": 401, "rank": 8, "IRM": "", "gname": "MARGOT", "lat": 46.37255962122821, "nationality": "SUI", "spd": "29.09 kmh", "lon": 6.207520141420272, "valid": 0, "fname": "VESIN", "team": "W17", "cad": ""}], "no": 2}]}