{"timestamp": 29786, "groups": [{"distance": 0, "gap": "+0:00", "athletes": [{"hr": "148", "pow": "86", "bib": 306, "rank": 1, "IRM": "", "gname": "THIBAUD", "lat": 46.368206126212044, "nationality": "SUI", "spd": "26.60 kmh", "lon": 6.207682583171727, "valid": 1, "fname": "ROSSIER", "team": "U17", "cad": "78"}, {"hr": "", "pow": "", "bib": 303, "rank": 2, "IRM": "", "gname": "DAMIEN", "lat": 46.368208186572, "nationality": "SUI", "spd": "31.34 kmh", "lon": 6.207682308457067, "valid": 1, "fname": "FORTIS", "team": "U17", "cad": ""}, {"hr": "156", "pow": "", "bib": 307, "rank": 3, "IRM": "", "gname": "Z\u00c9ON", "lat": 46.36821965292304, "nationality": "SUI", "spd": "26.70 kmh", "lon": 6.2076807796102615, "valid": 1, "fname": "TAILLEFERT", "team": "U17", "cad": ""}, {"hr": "", "pow": "", "bib": 301, "rank": 4, "IRM": "", "gname": "SYLVAIN", "lat": 46.368229865141934, "nationality": "SUI", "spd": "25.76 kmh", "lon": 6.207679417981076, "valid": 1, "fname": "BRUNNER", "team": "U17", "cad": ""}, {"hr": "147", "pow": "37", "bib": 305, "rank": 5, "IRM": "", "gname": "HENRY", "lat": 46.36824213772078, "nationality": "GBR", "spd": "26.97 kmh", "lon": 6.20767778163723, "valid": 1, "fname": "LAWTON", "team": "U17", "cad": "54"}, {"hr": "145", "pow": "46", "bib": 302, "rank": 6, "IRM": "", "gname": "GABRIELE", "lat": 46.36824357101466, "nationality": "SUI", "spd": "26.87 kmh", "lon": 6.20767759053138, "valid": 1, "fname": "CERATO", "team": "U17", "cad": "54"}, {"hr": "", "pow": "", "bib": 304, "rank": 7, "IRM": "", "gname": "MAXIME", "lat": 46.368261388177636, "nationality": "SUI", "spd": "26.83 kmh", "lon": 6.20767507175183, "valid": 1, "fname": "JUILLERAT", "team": "U17", "cad": ""}], "no": 1}, {"distance": 388, "gap": "+0:50", "athletes": [{"hr": "", "pow": "", "bib": 401, "rank": 8, "IRM": "", "gname": "MARGOT", "lat": 46.37168702641952, "nationality": "SUI", "spd": "31.96 kmh", "lon": 6.20723326254688, "valid": 1, "fname": "VESIN", "team": "W17", "cad": ""}], "no": 2}]}