{"timestamp": 29789, "groups": [{"distance": 0, "gap": "+0:00", "athletes": [{"hr": "147", "pow": "0", "bib": 306, "rank": 1, "IRM": "", "gname": "THIBAUD", "lat": 46.36801452919505, "nationality": "SUI", "spd": "25.73 kmh", "lon": 6.2077139550072555, "valid": 1, "fname": "ROSSIER", "team": "U17", "cad": "0"}, {"hr": "", "pow": "", "bib": 303, "rank": 2, "IRM": "", "gname": "DAMIEN", "lat": 46.368018181691134, "nationality": "SUI", "spd": "25.51 kmh", "lon": 6.207713213093989, "valid": 1, "fname": "FORTIS", "team": "U17", "cad": ""}, {"hr": "155", "pow": "", "bib": 307, "rank": 3, "IRM": "", "gname": "Z\u00c9ON", "lat": 46.368032524419654, "nationality": "SUI", "spd": "25.12 kmh", "lon": 6.207710299727258, "valid": 1, "fname": "TAILLEFERT", "team": "U17", "cad": ""}, {"hr": "146", "pow": "0", "bib": 305, "rank": 4, "IRM": "", "gname": "HENRY", "lat": 46.36804312556682, "nationality": "GBR", "spd": "26.83 kmh", "lon": 6.20770814636924, "valid": 1, "fname": "LAWTON", "team": "U17", "cad": "0"}, {"hr": "", "pow": "", "bib": 301, "rank": 5, "IRM": "", "gname": "SYLVAIN", "lat": 46.3680449963575, "nationality": "SUI", "spd": "24.80 kmh", "lon": 6.207707766364883, "valid": 1, "fname": "BRUNNER", "team": "U17", "cad": ""}, {"hr": "145", "pow": "0", "bib": 302, "rank": 6, "IRM": "", "gname": "GABRIELE", "lat": 46.36805648835737, "nationality": "SUI", "spd": "26.83 kmh", "lon": 6.207705432052409, "valid": 1, "fname": "CERATO", "team": "U17", "cad": "0"}, {"hr": "", "pow": "", "bib": 304, "rank": 7, "IRM": "", "gname": "MAXIME", "lat": 46.368069138465756, "nationality": "SUI", "spd": "25.78 kmh", "lon": 6.2077028624991435, "valid": 1, "fname": "JUILLERAT", "team": "U17", "cad": ""}], "no": 1}, {"distance": 386, "gap": "+0:51", "athletes": [{"hr": "", "pow": "", "bib": 401, "rank": 8, "IRM": "", "gname": "MARGOT", "lat": 46.37147887575854, "nationality": "SUI", "spd": "32.28 kmh", "lon": 6.2072285416160975, "valid": 1, "fname": "VESIN", "team": "W17", "cad": ""}], "no": 2}]}