{"timestamp": 29797, "groups": [{"distance": 0, "gap": "+0:00", "athletes": [{"hr": "145", "pow": "16", "bib": 306, "rank": 1, "IRM": "", "gname": "THIBAUD", "lat": 46.367516659251876, "nationality": "SUI", "spd": "25.42 kmh", "lon": 6.20784723465024, "valid": 1, "fname": "ROSSIER", "team": "U17", "cad": "76"}, {"hr": "156", "pow": "", "bib": 307, "rank": 2, "IRM": "", "gname": "Z\u00c9ON", "lat": 46.36752913372714, "nationality": "SUI", "spd": "25.88 kmh", "lon": 6.20784269325141, "valid": 1, "fname": "TAILLEFERT", "team": "U17", "cad": ""}, {"hr": "145", "pow": "7", "bib": 305, "rank": 3, "IRM": "", "gname": "HENRY", "lat": 46.36753480394317, "nationality": "GBR", "spd": "25.80 kmh", "lon": 6.2078406289792145, "valid": 1, "fname": "LAWTON", "team": "U17", "cad": "77"}, {"hr": "", "pow": "", "bib": 303, "rank": 4, "IRM": "", "gname": "DAMIEN", "lat": 46.36753532734773, "nationality": "SUI", "spd": "24.70 kmh", "lon": 6.207840438431012, "valid": 1, "fname": "FORTIS", "team": "U17", "cad": ""}, {"hr": "146", "pow": "16", "bib": 302, "rank": 5, "IRM": "", "gname": "GABRIELE", "lat": 46.36754884863211, "nationality": "SUI", "spd": "25.60 kmh", "lon": 6.207835515935777, "valid": 1, "fname": "CERATO", "team": "U17", "cad": "75"}, {"hr": "", "pow": "", "bib": 304, "rank": 6, "IRM": "", "gname": "MAXIME", "lat": 46.36756053800054, "nationality": "SUI", "spd": "25.99 kmh", "lon": 6.207831260359251, "valid": 1, "fname": "JUILLERAT", "team": "U17", "cad": ""}, {"hr": "", "pow": "", "bib": 301, "rank": 7, "IRM": "", "gname": "SYLVAIN", "lat": 46.36756263161877, "nationality": "SUI", "spd": "24.64 kmh", "lon": 6.207830498166441, "valid": 1, "fname": "BRUNNER", "team": "U17", "cad": ""}], "no": 1}, {"distance": 373, "gap": "+0:49", "athletes": [{"hr": "", "pow": "", "bib": 401, "rank": 8, "IRM": "", "gname": "MARGOT", "lat": 46.37085443671625, "nationality": "SUI", "spd": "43.88 kmh", "lon": 6.207306756120731, "valid": 1, "fname": "VESIN", "team": "W17", "cad": ""}], "no": 2}]}