{"timestamp": 29796, "groups": [{"distance": 0, "gap": "+0:00", "athletes": [{"hr": "145", "pow": "22", "bib": 306, "rank": 1, "IRM": "", "gname": "THIBAUD", "lat": 46.36757726752888, "nationality": "SUI", "spd": "25.60 kmh", "lon": 6.207825601525752, "valid": 1, "fname": "ROSSIER", "team": "U17", "cad": "86"}, {"hr": "156", "pow": "", "bib": 307, "rank": 2, "IRM": "", "gname": "Z\u00c9ON", "lat": 46.367593050338996, "nationality": "SUI", "spd": "25.49 kmh", "lon": 6.207820369181094, "valid": 1, "fname": "TAILLEFERT", "team": "U17", "cad": ""}, {"hr": "", "pow": "", "bib": 303, "rank": 3, "IRM": "", "gname": "DAMIEN", "lat": 46.36759497934912, "nationality": "SUI", "spd": "24.14 kmh", "lon": 6.207819729672302, "valid": 1, "fname": "FORTIS", "team": "U17", "cad": ""}, {"hr": "145", "pow": "12", "bib": 305, "rank": 4, "IRM": "", "gname": "HENRY", "lat": 46.367596469947856, "nationality": "GBR", "spd": "25.63 kmh", "lon": 6.207819235506418, "valid": 1, "fname": "LAWTON", "team": "U17", "cad": "52"}, {"hr": "145", "pow": "22", "bib": 302, "rank": 5, "IRM": "", "gname": "GABRIELE", "lat": 46.36761120057063, "nationality": "SUI", "spd": "25.70 kmh", "lon": 6.207814351984737, "valid": 1, "fname": "CERATO", "team": "U17", "cad": "52"}, {"hr": "", "pow": "", "bib": 301, "rank": 6, "IRM": "", "gname": "SYLVAIN", "lat": 46.36762251158455, "nationality": "SUI", "spd": "24.31 kmh", "lon": 6.207810602137732, "valid": 1, "fname": "BRUNNER", "team": "U17", "cad": ""}, {"hr": "", "pow": "", "bib": 304, "rank": 7, "IRM": "", "gname": "MAXIME", "lat": 46.367624440594675, "nationality": "SUI", "spd": "25.84 kmh", "lon": 6.20780996262894, "valid": 1, "fname": "JUILLERAT", "team": "U17", "cad": ""}], "no": 1}, {"distance": 380, "gap": "+0:50", "athletes": [{"hr": "", "pow": "", "bib": 401, "rank": 8, "IRM": "", "gname": "MARGOT", "lat": 46.370976831372246, "nationality": "SUI", "spd": "40.08 kmh", "lon": 6.207288583988401, "valid": 0, "fname": "VESIN", "team": "W17", "cad": ""}], "no": 2}]}