{"timestamp": 29801, "groups": [{"distance": 0, "gap": "+0:00", "athletes": [{"hr": "145", "pow": "0", "bib": 306, "rank": 1, "IRM": "", "gname": "THIBAUD", "lat": 46.367262942376016, "nationality": "SUI", "spd": "26.38 kmh", "lon": 6.207944333956983, "valid": 1, "fname": "ROSSIER", "team": "U17", "cad": "75"}, {"hr": "155", "pow": "", "bib": 307, "rank": 2, "IRM": "", "gname": "Z\u00c9ON", "lat": 46.36728315503961, "nationality": "SUI", "spd": "25.32 kmh", "lon": 6.207935837483349, "valid": 1, "fname": "TAILLEFERT", "team": "U17", "cad": ""}, {"hr": "", "pow": "", "bib": 303, "rank": 3, "IRM": "", "gname": "DAMIEN", "lat": 46.367305008902385, "nationality": "SUI", "spd": "23.59 kmh", "lon": 6.2079266511251046, "valid": 1, "fname": "FORTIS", "team": "U17", "cad": ""}, {"hr": "148", "pow": "0", "bib": 302, "rank": 4, "IRM": "", "gname": "GABRIELE", "lat": 46.36730760026951, "nationality": "SUI", "spd": "24.43 kmh", "lon": 6.207925561833613, "valid": 1, "fname": "CERATO", "team": "U17", "cad": "69"}, {"hr": "", "pow": "", "bib": 304, "rank": 5, "IRM": "", "gname": "MAXIME", "lat": 46.36732038434734, "nationality": "SUI", "spd": "24.55 kmh", "lon": 6.2079201879955885, "valid": 1, "fname": "JUILLERAT", "team": "U17", "cad": ""}, {"hr": "145", "pow": "6", "bib": 305, "rank": 6, "IRM": "", "gname": "HENRY", "lat": 46.36732170882387, "nationality": "GBR", "spd": "25.03 kmh", "lon": 6.207919631246604, "valid": 0, "fname": "LAWTON", "team": "U17", "cad": "80"}, {"hr": "", "pow": "", "bib": 301, "rank": 7, "IRM": "", "gname": "SYLVAIN", "lat": 46.36732798569091, "nationality": "SUI", "spd": "24.10 kmh", "lon": 6.207916992740547, "valid": 1, "fname": "BRUNNER", "team": "U17", "cad": ""}], "no": 1}, {"distance": 368, "gap": "+0:48", "athletes": [{"hr": "", "pow": "", "bib": 401, "rank": 8, "IRM": "", "gname": "MARGOT", "lat": 46.370546117865246, "nationality": "SUI", "spd": "43.62 kmh", "lon": 6.207351505419382, "valid": 0, "fname": "VESIN", "team": "W17", "cad": ""}], "no": 2}]}