{"timestamp": 29807, "groups": [{"distance": 0, "gap": "+0:00", "athletes": [{"hr": "144", "pow": "195", "bib": 306, "rank": 1, "IRM": "", "gname": "THIBAUD", "lat": 46.36690702818351, "nationality": "SUI", "spd": "24.40 kmh", "lon": 6.208095152585721, "valid": 1, "fname": "ROSSIER", "team": "U17", "cad": "0"}, {"hr": "154", "pow": "", "bib": 307, "rank": 2, "IRM": "", "gname": "Z\u00c9ON", "lat": 46.36692566633837, "nationality": "SUI", "spd": "24.73 kmh", "lon": 6.208087212680196, "valid": 1, "fname": "TAILLEFERT", "team": "U17", "cad": ""}, {"hr": "144", "pow": "186", "bib": 305, "rank": 3, "IRM": "", "gname": "HENRY", "lat": 46.36693317337296, "nationality": "GBR", "spd": "23.47 kmh", "lon": 6.208084014662693, "valid": 1, "fname": "LAWTON", "team": "U17", "cad": "82"}, {"hr": "", "pow": "", "bib": 303, "rank": 4, "IRM": "", "gname": "DAMIEN", "lat": 46.366935503142315, "nationality": "SUI", "spd": "27.02 kmh", "lon": 6.2080830221745025, "valid": 1, "fname": "FORTIS", "team": "U17", "cad": ""}, {"hr": "", "pow": "", "bib": 301, "rank": 5, "IRM": "", "gname": "SYLVAIN", "lat": 46.36695301955637, "nationality": "SUI", "spd": "26.40 kmh", "lon": 6.208075560133661, "valid": 1, "fname": "BRUNNER", "team": "U17", "cad": ""}, {"hr": "147", "pow": "195", "bib": 302, "rank": 6, "IRM": "", "gname": "GABRIELE", "lat": 46.36695388243391, "nationality": "SUI", "spd": "24.37 kmh", "lon": 6.208075192545443, "valid": 1, "fname": "CERATO", "team": "U17", "cad": "82"}, {"hr": "", "pow": "", "bib": 304, "rank": 7, "IRM": "", "gname": "MAXIME", "lat": 46.36697502293362, "nationality": "SUI", "spd": "23.92 kmh", "lon": 6.208066186634084, "valid": 1, "fname": "JUILLERAT", "team": "U17", "cad": ""}], "no": 1}, {"distance": 345, "gap": "+0:47", "athletes": [{"hr": "", "pow": "", "bib": 401, "rank": 8, "IRM": "", "gname": "MARGOT", "lat": 46.369968538895165, "nationality": "SUI", "spd": "41.90 kmh", "lon": 6.207431197655726, "valid": 1, "fname": "VESIN", "team": "W17", "cad": ""}], "no": 2}]}