{"timestamp": 29818, "groups": [{"distance": 0, "gap": "+0:00", "athletes": [{"hr": "", "pow": "", "bib": 303, "rank": 1, "IRM": "", "gname": "DAMIEN", "lat": 46.36573807795114, "nationality": "SUI", "spd": "56.58 kmh", "lon": 6.208588429558506, "valid": 1, "fname": "FORTIS", "team": "U17", "cad": ""}, {"hr": "185", "pow": "177", "bib": 302, "rank": 2, "IRM": "", "gname": "GABRIELE", "lat": 46.365769058995575, "nationality": "SUI", "spd": "39.37 kmh", "lon": 6.208575719386433, "valid": 1, "fname": "CERATO", "team": "U17", "cad": "117"}, {"hr": "176", "pow": "", "bib": 307, "rank": 3, "IRM": "", "gname": "Z\u00c9ON", "lat": 46.36578498221394, "nationality": "SUI", "spd": "47.48 kmh", "lon": 6.208569186784026, "valid": 1, "fname": "TAILLEFERT", "team": "U17", "cad": ""}, {"hr": "164", "pow": "177", "bib": 306, "rank": 4, "IRM": "", "gname": "THIBAUD", "lat": 46.36580843434533, "nationality": "SUI", "spd": "49.45 kmh", "lon": 6.208559565396786, "valid": 1, "fname": "ROSSIER", "team": "U17", "cad": "117"}, {"hr": "", "pow": "", "bib": 301, "rank": 5, "IRM": "", "gname": "SYLVAIN", "lat": 46.36583534804594, "nationality": "SUI", "spd": "64.00 kmh", "lon": 6.208548523878589, "valid": 1, "fname": "BRUNNER", "team": "U17", "cad": ""}, {"hr": "165", "pow": "", "bib": 305, "rank": 6, "IRM": "", "gname": "HENRY", "lat": 46.36585265589199, "nationality": "GBR", "spd": "44.90 kmh", "lon": 6.208541423223799, "valid": 1, "fname": "LAWTON", "team": "U17", "cad": "0"}, {"hr": "", "pow": "", "bib": 304, "rank": 7, "IRM": "", "gname": "MAXIME", "lat": 46.365900089655796, "nationality": "SUI", "spd": "44.88 kmh", "lon": 6.208521548859946, "valid": 1, "fname": "JUILLERAT", "team": "U17", "cad": ""}], "no": 1}, {"distance": 368, "gap": "+0:44", "athletes": [{"hr": "", "pow": "", "bib": 401, "rank": 8, "IRM": "", "gname": "MARGOT", "lat": 46.36896456102929, "nationality": "SUI", "spd": "37.94 kmh", "lon": 6.207573949306371, "valid": 1, "fname": "VESIN", "team": "W17", "cad": ""}], "no": 2}]}