{"timestamp": 29822, "groups": [{"distance": 0, "gap": "+0:00", "athletes": [{"hr": "", "pow": "", "bib": 303, "rank": 1, "IRM": "", "gname": "DAMIEN", "lat": 46.36528252769212, "nationality": "SUI", "spd": "62.81 kmh", "lon": 6.208750339184653, "valid": 1, "fname": "FORTIS", "team": "U17", "cad": ""}, {"hr": "193", "pow": "285", "bib": 302, "rank": 2, "IRM": "", "gname": "GABRIELE", "lat": 46.36530327071056, "nationality": "SUI", "spd": "48.80 kmh", "lon": 6.208745983150782, "valid": 1, "fname": "CERATO", "team": "U17", "cad": "116"}, {"hr": "182", "pow": "", "bib": 307, "rank": 3, "IRM": "", "gname": "Z\u00c9ON", "lat": 46.36530870128621, "nationality": "SUI", "spd": "48.91 kmh", "lon": 6.208744842729896, "valid": 1, "fname": "TAILLEFERT", "team": "U17", "cad": ""}, {"hr": "171", "pow": "285", "bib": 306, "rank": 4, "IRM": "", "gname": "THIBAUD", "lat": 46.365316802636755, "nationality": "SUI", "spd": "50.74 kmh", "lon": 6.208743141446281, "valid": 1, "fname": "ROSSIER", "team": "U17", "cad": "116"}, {"hr": "", "pow": "", "bib": 301, "rank": 5, "IRM": "", "gname": "SYLVAIN", "lat": 46.36534642904793, "nationality": "SUI", "spd": "51.74 kmh", "lon": 6.208734070306237, "valid": 1, "fname": "BRUNNER", "team": "U17", "cad": ""}, {"hr": "174", "pow": "", "bib": 305, "rank": 6, "IRM": "", "gname": "HENRY", "lat": 46.365362150029185, "nationality": "GBR", "spd": "50.33 kmh", "lon": 6.208728463156256, "valid": 1, "fname": "LAWTON", "team": "U17", "cad": "49"}, {"hr": "", "pow": "", "bib": 304, "rank": 7, "IRM": "", "gname": "MAXIME", "lat": 46.36542267580702, "nationality": "SUI", "spd": "57.86 kmh", "lon": 6.208706875628832, "valid": 1, "fname": "JUILLERAT", "team": "U17", "cad": ""}], "no": 1}, {"distance": 377, "gap": "+0:41", "athletes": [{"hr": "", "pow": "", "bib": 401, "rank": 8, "IRM": "", "gname": "MARGOT", "lat": 46.368584368463786, "nationality": "SUI", "spd": "38.45 kmh", "lon": 6.207628554132875, "valid": 1, "fname": "VESIN", "team": "W17", "cad": ""}], "no": 2}]}