{"timestamp": 29825, "groups": [{"distance": 0, "gap": "+0:00", "athletes": [{"hr": "196", "pow": "416", "bib": 302, "rank": 1, "IRM": "", "gname": "GABRIELE", "lat": 46.36494056091915, "nationality": "SUI", "spd": "49.49 kmh", "lon": 6.208809381421376, "valid": 1, "fname": "CERATO", "team": "U17", "cad": "108"}, {"hr": "", "pow": "", "bib": 303, "rank": 2, "IRM": "", "gname": "DAMIEN", "lat": 46.36494154957978, "nationality": "SUI", "spd": "68.74 kmh", "lon": 6.208809319870519, "valid": 1, "fname": "FORTIS", "team": "U17", "cad": ""}, {"hr": "175", "pow": "416", "bib": 306, "rank": 3, "IRM": "", "gname": "THIBAUD", "lat": 46.36494397629223, "nationality": "SUI", "spd": "50.15 kmh", "lon": 6.208809168791145, "valid": 1, "fname": "ROSSIER", "team": "U17", "cad": "124"}, {"hr": "185", "pow": "", "bib": 307, "rank": 4, "IRM": "", "gname": "Z\u00c9ON", "lat": 46.36494550422229, "nationality": "SUI", "spd": "57.33 kmh", "lon": 6.208809073667094, "valid": 1, "fname": "TAILLEFERT", "team": "U17", "cad": ""}, {"hr": "", "pow": "", "bib": 301, "rank": 5, "IRM": "", "gname": "SYLVAIN", "lat": 46.36497642233648, "nationality": "SUI", "spd": "57.85 kmh", "lon": 6.208807148803954, "valid": 1, "fname": "BRUNNER", "team": "U17", "cad": ""}, {"hr": "178", "pow": "", "bib": 305, "rank": 6, "IRM": "", "gname": "HENRY", "lat": 46.36498756723811, "nationality": "GBR", "spd": "50.00 kmh", "lon": 6.208806454957938, "valid": 1, "fname": "LAWTON", "team": "U17", "cad": "108"}, {"hr": "", "pow": "", "bib": 304, "rank": 7, "IRM": "", "gname": "MAXIME", "lat": 46.365049903197786, "nationality": "SUI", "spd": "50.50 kmh", "lon": 6.208799190328464, "valid": 1, "fname": "JUILLERAT", "team": "U17", "cad": ""}], "no": 1}, {"distance": 384, "gap": "+0:40", "athletes": [{"hr": "", "pow": "", "bib": 401, "rank": 8, "IRM": "", "gname": "MARGOT", "lat": 46.3682987171076, "nationality": "SUI", "spd": "38.29 kmh", "lon": 6.2076696954083985, "valid": 1, "fname": "VESIN", "team": "W17", "cad": ""}], "no": 2}]}