{"timestamp": 29838, "groups": [{"distance": 0, "gap": "+0:00", "athletes": [{"hr": "179", "pow": "141", "bib": 306, "rank": 1, "IRM": "", "gname": "THIBAUD", "lat": 46.36352666872173, "nationality": "SUI", "spd": "42.49 kmh", "lon": 6.20815065322115, "valid": 1, "fname": "ROSSIER", "team": "U17", "cad": "107"}, {"hr": "", "pow": "", "bib": 303, "rank": 2, "IRM": "", "gname": "DAMIEN", "lat": 46.36354320435745, "nationality": "SUI", "spd": "42.79 kmh", "lon": 6.208164380172332, "valid": 1, "fname": "FORTIS", "team": "U17", "cad": ""}, {"hr": "177", "pow": "", "bib": 305, "rank": 3, "IRM": "", "gname": "HENRY", "lat": 46.36354827424576, "nationality": "GBR", "spd": "43.43 kmh", "lon": 6.2081685889073634, "valid": 1, "fname": "LAWTON", "team": "U17", "cad": "105"}, {"hr": "201", "pow": "141", "bib": 302, "rank": 4, "IRM": "", "gname": "GABRIELE", "lat": 46.363551940164996, "nationality": "SUI", "spd": "43.43 kmh", "lon": 6.2081716321465406, "valid": 1, "fname": "CERATO", "team": "U17", "cad": "107"}, {"hr": "185", "pow": "", "bib": 307, "rank": 5, "IRM": "", "gname": "Z\u00c9ON", "lat": 46.36355693205502, "nationality": "SUI", "spd": "49.69 kmh", "lon": 6.208175776131803, "valid": 1, "fname": "TAILLEFERT", "team": "U17", "cad": ""}, {"hr": "", "pow": "", "bib": 304, "rank": 6, "IRM": "", "gname": "MAXIME", "lat": 46.36359647718383, "nationality": "SUI", "spd": "43.80 kmh", "lon": 6.208208604265053, "valid": 1, "fname": "JUILLERAT", "team": "U17", "cad": ""}, {"hr": "", "pow": "", "bib": 301, "rank": 7, "IRM": "", "gname": "SYLVAIN", "lat": 46.36362321194395, "nationality": "SUI", "spd": "43.78 kmh", "lon": 6.208230465674591, "valid": 0, "fname": "BRUNNER", "team": "U17", "cad": ""}], "no": 1}, {"distance": 407, "gap": "+0:33", "athletes": [{"hr": "", "pow": "", "bib": 401, "rank": 8, "IRM": "", "gname": "MARGOT", "lat": 46.36702291263707, "nationality": "SUI", "spd": "40.69 kmh", "lon": 6.2080457854879425, "valid": 1, "fname": "VESIN", "team": "W17", "cad": ""}], "no": 2}]}