{"timestamp": 29844, "groups": [{"distance": 0, "gap": "+0:00", "athletes": [{"hr": "179", "pow": "300", "bib": 306, "rank": 1, "IRM": "", "gname": "THIBAUD", "lat": 46.36299524604618, "nationality": "SUI", "spd": "41.08 kmh", "lon": 6.20771087400191, "valid": 1, "fname": "ROSSIER", "team": "U17", "cad": "99"}, {"hr": "", "pow": "", "bib": 303, "rank": 2, "IRM": "", "gname": "DAMIEN", "lat": 46.36301634982368, "nationality": "SUI", "spd": "40.18 kmh", "lon": 6.207728244620214, "valid": 1, "fname": "FORTIS", "team": "U17", "cad": ""}, {"hr": "", "pow": "", "bib": 301, "rank": 3, "IRM": "", "gname": "SYLVAIN", "lat": 46.36302377522688, "nationality": "SUI", "spd": "42.16 kmh", "lon": 6.207734356504433, "valid": 1, "fname": "BRUNNER", "team": "U17", "cad": ""}, {"hr": "201", "pow": "300", "bib": 302, "rank": 4, "IRM": "", "gname": "GABRIELE", "lat": 46.36304839630063, "nationality": "SUI", "spd": "40.33 kmh", "lon": 6.2077546222257896, "valid": 1, "fname": "CERATO", "team": "U17", "cad": "99"}, {"hr": "", "pow": "", "bib": 304, "rank": 5, "IRM": "", "gname": "MAXIME", "lat": 46.363058557378686, "nationality": "SUI", "spd": "47.77 kmh", "lon": 6.207762985856825, "valid": 1, "fname": "JUILLERAT", "team": "U17", "cad": ""}, {"hr": "175", "pow": "294", "bib": 305, "rank": 6, "IRM": "", "gname": "HENRY", "lat": 46.363069226510646, "nationality": "GBR", "spd": "40.30 kmh", "lon": 6.207771767669413, "valid": 0, "fname": "LAWTON", "team": "U17", "cad": "95"}, {"hr": "184", "pow": "", "bib": 307, "rank": 7, "IRM": "", "gname": "Z\u00c9ON", "lat": 46.36308345201993, "nationality": "SUI", "spd": "38.88 kmh", "lon": 6.207783476752863, "valid": 0, "fname": "TAILLEFERT", "team": "U17", "cad": ""}], "no": 1}, {"distance": 418, "gap": "+0:33", "athletes": [{"hr": "", "pow": "", "bib": 401, "rank": 8, "IRM": "", "gname": "MARGOT", "lat": 46.366532194180365, "nationality": "SUI", "spd": "40.98 kmh", "lon": 6.208254832907948, "valid": 0, "fname": "VESIN", "team": "W17", "cad": ""}], "no": 2}]}