{"timestamp": 29840, "groups": [{"distance": 0, "gap": "+0:00", "athletes": [{"hr": "179", "pow": "172", "bib": 306, "rank": 1, "IRM": "", "gname": "THIBAUD", "lat": 46.36334852064636, "nationality": "SUI", "spd": "41.44 kmh", "lon": 6.208002764747102, "valid": 1, "fname": "ROSSIER", "team": "U17", "cad": "103"}, {"hr": "", "pow": "", "bib": 303, "rank": 2, "IRM": "", "gname": "DAMIEN", "lat": 46.363364198300985, "nationality": "SUI", "spd": "41.54 kmh", "lon": 6.2080157794508155, "valid": 1, "fname": "FORTIS", "team": "U17", "cad": ""}, {"hr": "176", "pow": "", "bib": 305, "rank": 3, "IRM": "", "gname": "HENRY", "lat": 46.363369424185855, "nationality": "GBR", "spd": "41.93 kmh", "lon": 6.208020117685387, "valid": 1, "fname": "LAWTON", "team": "U17", "cad": "98"}, {"hr": "185", "pow": "", "bib": 307, "rank": 4, "IRM": "", "gname": "Z\u00c9ON", "lat": 46.36337753600715, "nationality": "SUI", "spd": "41.62 kmh", "lon": 6.2080268516614385, "valid": 1, "fname": "TAILLEFERT", "team": "U17", "cad": ""}, {"hr": "201", "pow": "172", "bib": 302, "rank": 5, "IRM": "", "gname": "GABRIELE", "lat": 46.36337831598997, "nationality": "SUI", "spd": "41.93 kmh", "lon": 6.208027499159136, "valid": 1, "fname": "CERATO", "team": "U17", "cad": "98"}, {"hr": "", "pow": "", "bib": 301, "rank": 6, "IRM": "", "gname": "SYLVAIN", "lat": 46.363389703739095, "nationality": "SUI", "spd": "57.68 kmh", "lon": 6.208036952625515, "valid": 1, "fname": "BRUNNER", "team": "U17", "cad": ""}, {"hr": "", "pow": "", "bib": 304, "rank": 7, "IRM": "", "gname": "MAXIME", "lat": 46.3634139612047, "nationality": "SUI", "spd": "42.60 kmh", "lon": 6.2080570898039, "valid": 1, "fname": "JUILLERAT", "team": "U17", "cad": ""}], "no": 1}, {"distance": 407, "gap": "+0:31", "athletes": [{"hr": "", "pow": "", "bib": 401, "rank": 8, "IRM": "", "gname": "MARGOT", "lat": 46.36682488224176, "nationality": "SUI", "spd": "40.97 kmh", "lon": 6.208130146984146, "valid": 1, "fname": "VESIN", "team": "W17", "cad": ""}], "no": 2}]}