{"timestamp": 29849, "groups": [{"distance": 0, "gap": "+0:00", "athletes": [{"hr": "179", "pow": "47", "bib": 306, "rank": 1, "IRM": "", "gname": "THIBAUD", "lat": 46.36256270890508, "nationality": "SUI", "spd": "52.80 kmh", "lon": 6.207353767749472, "valid": 1, "fname": "ROSSIER", "team": "U17", "cad": "80"}, {"hr": "", "pow": "", "bib": 303, "rank": 2, "IRM": "", "gname": "DAMIEN", "lat": 46.36258115269983, "nationality": "SUI", "spd": "40.00 kmh", "lon": 6.207369217768848, "valid": 1, "fname": "FORTIS", "team": "U17", "cad": ""}, {"hr": "", "pow": "", "bib": 301, "rank": 3, "IRM": "", "gname": "SYLVAIN", "lat": 46.3625847325081, "nationality": "SUI", "spd": "53.51 kmh", "lon": 6.207372216506786, "valid": 1, "fname": "BRUNNER", "team": "U17", "cad": ""}, {"hr": "173", "pow": "38", "bib": 305, "rank": 4, "IRM": "", "gname": "HENRY", "lat": 46.36259243687806, "nationality": "GBR", "spd": "40.37 kmh", "lon": 6.207378670312348, "valid": 1, "fname": "LAWTON", "team": "U17", "cad": "80"}, {"hr": "184", "pow": "", "bib": 307, "rank": 5, "IRM": "", "gname": "Z\u00c9ON", "lat": 46.36260628917961, "nationality": "SUI", "spd": "55.31 kmh", "lon": 6.207390274124369, "valid": 1, "fname": "TAILLEFERT", "team": "U17", "cad": ""}, {"hr": "", "pow": "", "bib": 304, "rank": 6, "IRM": "", "gname": "MAXIME", "lat": 46.36263173694706, "nationality": "SUI", "spd": "49.01 kmh", "lon": 6.20741159123971, "valid": 1, "fname": "JUILLERAT", "team": "U17", "cad": ""}, {"hr": "202", "pow": "330", "bib": 302, "rank": 7, "IRM": "", "gname": "GABRIELE", "lat": 46.36270457842098, "nationality": "SUI", "spd": "40.30 kmh", "lon": 6.207471624115465, "valid": 0, "fname": "CERATO", "team": "U17", "cad": "107"}], "no": 1}, {"distance": 406, "gap": "+0:33", "athletes": [{"hr": "", "pow": "", "bib": 401, "rank": 8, "IRM": "", "gname": "MARGOT", "lat": 46.36594923458387, "nationality": "SUI", "spd": "67.39 kmh", "lon": 6.208500865892077, "valid": 1, "fname": "VESIN", "team": "W17", "cad": ""}], "no": 2}]}