{"timestamp": 29855, "groups": [{"distance": 0, "gap": "+0:00", "athletes": [{"hr": "179", "pow": "112", "bib": 306, "rank": 1, "IRM": "", "gname": "THIBAUD", "lat": 46.36206750130636, "nationality": "SUI", "spd": "37.06 kmh", "lon": 6.206962303751338, "valid": 1, "fname": "ROSSIER", "team": "U17", "cad": "95"}, {"hr": "", "pow": "", "bib": 303, "rank": 2, "IRM": "", "gname": "DAMIEN", "lat": 46.36208564989366, "nationality": "SUI", "spd": "36.94 kmh", "lon": 6.206974344640987, "valid": 1, "fname": "FORTIS", "team": "U17", "cad": ""}, {"hr": "", "pow": "", "bib": 301, "rank": 3, "IRM": "", "gname": "SYLVAIN", "lat": 46.362093579681805, "nationality": "SUI", "spd": "37.07 kmh", "lon": 6.206979605750427, "valid": 1, "fname": "BRUNNER", "team": "U17", "cad": ""}, {"hr": "184", "pow": "", "bib": 307, "rank": 4, "IRM": "", "gname": "Z\u00c9ON", "lat": 46.36211442603207, "nationality": "SUI", "spd": "36.94 kmh", "lon": 6.206993436502051, "valid": 1, "fname": "TAILLEFERT", "team": "U17", "cad": ""}, {"hr": "170", "pow": "118", "bib": 305, "rank": 5, "IRM": "", "gname": "HENRY", "lat": 46.36214068153337, "nationality": "GBR", "spd": "38.03 kmh", "lon": 6.207010856017331, "valid": 0, "fname": "LAWTON", "team": "U17", "cad": "98"}, {"hr": "201", "pow": "112", "bib": 302, "rank": 6, "IRM": "", "gname": "GABRIELE", "lat": 46.36214074965869, "nationality": "SUI", "spd": "37.60 kmh", "lon": 6.207010901215866, "valid": 1, "fname": "CERATO", "team": "U17", "cad": "95"}, {"hr": "", "pow": "", "bib": 304, "rank": 7, "IRM": "", "gname": "MAXIME", "lat": 46.36214230291617, "nationality": "SUI", "spd": "36.68 kmh", "lon": 6.207011931742458, "valid": 1, "fname": "JUILLERAT", "team": "U17", "cad": ""}], "no": 1}, {"distance": 408, "gap": "+0:34", "athletes": [{"hr": "", "pow": "", "bib": 401, "rank": 8, "IRM": "", "gname": "MARGOT", "lat": 46.365425121292986, "nationality": "SUI", "spd": "39.42 kmh", "lon": 6.208706003405501, "valid": 0, "fname": "VESIN", "team": "W17", "cad": ""}], "no": 2}]}