{"timestamp": 29851, "groups": [{"distance": 0, "gap": "+0:00", "athletes": [{"hr": "179", "pow": "155", "bib": 306, "rank": 1, "IRM": "", "gname": "THIBAUD", "lat": 46.36239531395773, "nationality": "SUI", "spd": "38.75 kmh", "lon": 6.207213544155896, "valid": 1, "fname": "ROSSIER", "team": "U17", "cad": "100"}, {"hr": "", "pow": "", "bib": 303, "rank": 2, "IRM": "", "gname": "DAMIEN", "lat": 46.36241290171138, "nationality": "SUI", "spd": "39.14 kmh", "lon": 6.207228277085765, "valid": 1, "fname": "FORTIS", "team": "U17", "cad": ""}, {"hr": "", "pow": "", "bib": 301, "rank": 3, "IRM": "", "gname": "SYLVAIN", "lat": 46.36241897182104, "nationality": "SUI", "spd": "38.70 kmh", "lon": 6.207233361902268, "valid": 1, "fname": "BRUNNER", "team": "U17", "cad": ""}, {"hr": "172", "pow": "144", "bib": 305, "rank": 4, "IRM": "", "gname": "HENRY", "lat": 46.36242449717728, "nationality": "GBR", "spd": "39.37 kmh", "lon": 6.2072379903890855, "valid": 1, "fname": "LAWTON", "team": "U17", "cad": "100"}, {"hr": "184", "pow": "", "bib": 307, "rank": 5, "IRM": "", "gname": "Z\u00c9ON", "lat": 46.36244029502679, "nationality": "SUI", "spd": "47.83 kmh", "lon": 6.207251223949985, "valid": 1, "fname": "TAILLEFERT", "team": "U17", "cad": ""}, {"hr": "", "pow": "", "bib": 304, "rank": 6, "IRM": "", "gname": "MAXIME", "lat": 46.36246488675314, "nationality": "SUI", "spd": "53.44 kmh", "lon": 6.20727182397582, "valid": 1, "fname": "JUILLERAT", "team": "U17", "cad": ""}, {"hr": "203", "pow": "171", "bib": 302, "rank": 7, "IRM": "", "gname": "GABRIELE", "lat": 46.36249807780151, "nationality": "SUI", "spd": "40.47 kmh", "lon": 6.207299627491701, "valid": 0, "fname": "CERATO", "team": "U17", "cad": "100"}], "no": 1}, {"distance": 405, "gap": "+0:33", "athletes": [{"hr": "", "pow": "", "bib": 401, "rank": 8, "IRM": "", "gname": "MARGOT", "lat": 46.365759280062555, "nationality": "SUI", "spd": "52.07 kmh", "lon": 6.208579731256389, "valid": 1, "fname": "VESIN", "team": "W17", "cad": ""}], "no": 2}]}