{"timestamp": 29866, "groups": [{"distance": 0, "gap": "+0:00", "athletes": [{"hr": "177", "pow": "256", "bib": 306, "rank": 1, "IRM": "", "gname": "THIBAUD", "lat": 46.36106693129758, "nationality": "SUI", "spd": "38.38 kmh", "lon": 6.206678009850964, "valid": 1, "fname": "ROSSIER", "team": "U17", "cad": "97"}, {"hr": "", "pow": "", "bib": 303, "rank": 2, "IRM": "", "gname": "DAMIEN", "lat": 46.361094008066075, "nationality": "SUI", "spd": "37.79 kmh", "lon": 6.20667842148426, "valid": 1, "fname": "FORTIS", "team": "U17", "cad": ""}, {"hr": "", "pow": "", "bib": 301, "rank": 3, "IRM": "", "gname": "SYLVAIN", "lat": 46.36111118958774, "nationality": "SUI", "spd": "37.68 kmh", "lon": 6.2066787110604675, "valid": 1, "fname": "BRUNNER", "team": "U17", "cad": ""}, {"hr": "167", "pow": "245", "bib": 305, "rank": 4, "IRM": "", "gname": "HENRY", "lat": 46.361111639365795, "nationality": "GBR", "spd": "38.30 kmh", "lon": 6.206678718640997, "valid": 1, "fname": "LAWTON", "team": "U17", "cad": "97"}, {"hr": "180", "pow": "", "bib": 307, "rank": 5, "IRM": "", "gname": "Z\u00c9ON", "lat": 46.36113466800216, "nationality": "SUI", "spd": "44.65 kmh", "lon": 6.206679106764081, "valid": 1, "fname": "TAILLEFERT", "team": "U17", "cad": ""}, {"hr": "", "pow": "", "bib": 304, "rank": 6, "IRM": "", "gname": "MAXIME", "lat": 46.361176947139235, "nationality": "SUI", "spd": "37.72 kmh", "lon": 6.206679819333807, "valid": 1, "fname": "JUILLERAT", "team": "U17", "cad": ""}, {"hr": "197", "pow": "256", "bib": 302, "rank": 7, "IRM": "", "gname": "GABRIELE", "lat": 46.36120618271275, "nationality": "SUI", "spd": "38.30 kmh", "lon": 6.206680312068192, "valid": 1, "fname": "CERATO", "team": "U17", "cad": "97"}], "no": 1}, {"distance": 395, "gap": "+0:36", "athletes": [{"hr": "", "pow": "", "bib": 401, "rank": 8, "IRM": "", "gname": "MARGOT", "lat": 46.364294400562976, "nationality": "SUI", "spd": "38.44 kmh", "lon": 6.2086893466735, "valid": 1, "fname": "VESIN", "team": "W17", "cad": ""}], "no": 2}]}