{"timestamp": 29863, "groups": [{"distance": 0, "gap": "+0:00", "athletes": [{"hr": "177", "pow": "134", "bib": 306, "rank": 1, "IRM": "", "gname": "THIBAUD", "lat": 46.36135384160363, "nationality": "SUI", "spd": "37.70 kmh", "lon": 6.206699623765769, "valid": 1, "fname": "ROSSIER", "team": "U17", "cad": "93"}, {"hr": "", "pow": "", "bib": 303, "rank": 2, "IRM": "", "gname": "DAMIEN", "lat": 46.36137644252313, "nationality": "SUI", "spd": "37.97 kmh", "lon": 6.206702143167747, "valid": 1, "fname": "FORTIS", "team": "U17", "cad": ""}, {"hr": "", "pow": "", "bib": 301, "rank": 3, "IRM": "", "gname": "SYLVAIN", "lat": 46.361382274693426, "nationality": "SUI", "spd": "49.99 kmh", "lon": 6.206702754604955, "valid": 1, "fname": "BRUNNER", "team": "U17", "cad": ""}, {"hr": "167", "pow": "123", "bib": 305, "rank": 4, "IRM": "", "gname": "HENRY", "lat": 46.36139420821111, "nationality": "GBR", "spd": "36.77 kmh", "lon": 6.206704005699551, "valid": 1, "fname": "LAWTON", "team": "U17", "cad": "93"}, {"hr": "", "pow": "", "bib": 304, "rank": 5, "IRM": "", "gname": "MAXIME", "lat": 46.36145863126147, "nationality": "SUI", "spd": "36.13 kmh", "lon": 6.206710759729025, "valid": 1, "fname": "JUILLERAT", "team": "U17", "cad": ""}, {"hr": "180", "pow": "", "bib": 307, "rank": 6, "IRM": "", "gname": "Z\u00c9ON", "lat": 46.361468321636735, "nationality": "SUI", "spd": "47.93 kmh", "lon": 6.206711775655464, "valid": 0, "fname": "TAILLEFERT", "team": "U17", "cad": ""}, {"hr": "198", "pow": "134", "bib": 302, "rank": 7, "IRM": "", "gname": "GABRIELE", "lat": 46.36147944762315, "nationality": "SUI", "spd": "36.93 kmh", "lon": 6.206712942089523, "valid": 1, "fname": "CERATO", "team": "U17", "cad": "93"}], "no": 1}, {"distance": 395, "gap": "+0:35", "athletes": [{"hr": "", "pow": "", "bib": 401, "rank": 8, "IRM": "", "gname": "MARGOT", "lat": 46.36457469651417, "nationality": "SUI", "spd": "39.84 kmh", "lon": 6.2087842636174875, "valid": 1, "fname": "VESIN", "team": "W17", "cad": ""}], "no": 2}]}