{"timestamp": 29876, "groups": [{"distance": 0, "gap": "+0:00", "athletes": [{"hr": "176", "pow": "1", "bib": 306, "rank": 1, "IRM": "", "gname": "THIBAUD", "lat": 46.360128702696336, "nationality": "SUI", "spd": "36.64 kmh", "lon": 6.206560463876652, "valid": 1, "fname": "ROSSIER", "team": "U17", "cad": "41"}, {"hr": "", "pow": "", "bib": 303, "rank": 2, "IRM": "", "gname": "DAMIEN", "lat": 46.360165161960715, "nationality": "SUI", "spd": "36.41 kmh", "lon": 6.206573763482524, "valid": 1, "fname": "FORTIS", "team": "U17", "cad": ""}, {"hr": "", "pow": "", "bib": 301, "rank": 3, "IRM": "", "gname": "SYLVAIN", "lat": 46.360180949345526, "nationality": "SUI", "spd": "43.34 kmh", "lon": 6.20657952240277, "valid": 1, "fname": "BRUNNER", "team": "U17", "cad": ""}, {"hr": "165", "pow": "0", "bib": 305, "rank": 4, "IRM": "", "gname": "HENRY", "lat": 46.36019584616686, "nationality": "GBR", "spd": "37.17 kmh", "lon": 6.206583862182921, "valid": 1, "fname": "LAWTON", "team": "U17", "cad": "41"}, {"hr": "175", "pow": "", "bib": 307, "rank": 5, "IRM": "", "gname": "Z\u00c9ON", "lat": 46.36021513849059, "nationality": "SUI", "spd": "36.28 kmh", "lon": 6.206588953212794, "valid": 1, "fname": "TAILLEFERT", "team": "U17", "cad": ""}, {"hr": "", "pow": "", "bib": 304, "rank": 6, "IRM": "", "gname": "MAXIME", "lat": 46.36025912144882, "nationality": "SUI", "spd": "42.60 kmh", "lon": 6.2066005598267715, "valid": 1, "fname": "JUILLERAT", "team": "U17", "cad": ""}, {"hr": "191", "pow": "1", "bib": 302, "rank": 7, "IRM": "", "gname": "GABRIELE", "lat": 46.36029938753734, "nationality": "SUI", "spd": "37.03 kmh", "lon": 6.2066111856001305, "valid": 1, "fname": "CERATO", "team": "U17", "cad": "55"}], "no": 1}, {"distance": 407, "gap": "+0:38", "athletes": [{"hr": "", "pow": "", "bib": 401, "rank": 8, "IRM": "", "gname": "MARGOT", "lat": 46.36354390634198, "nationality": "SUI", "spd": "33.34 kmh", "lon": 6.208164962920259, "valid": 0, "fname": "VESIN", "team": "W17", "cad": ""}], "no": 2}]}