{"timestamp": 29878, "groups": [{"distance": 0, "gap": "+0:00", "athletes": [{"hr": "176", "pow": "13", "bib": 306, "rank": 1, "IRM": "", "gname": "THIBAUD", "lat": 46.35995584497052, "nationality": "SUI", "spd": "42.35 kmh", "lon": 6.206486252127415, "valid": 1, "fname": "ROSSIER", "team": "U17", "cad": "86"}, {"hr": "", "pow": "", "bib": 303, "rank": 2, "IRM": "", "gname": "DAMIEN", "lat": 46.35999525558108, "nationality": "SUI", "spd": "35.29 kmh", "lon": 6.206506895780569, "valid": 1, "fname": "FORTIS", "team": "U17", "cad": ""}, {"hr": "", "pow": "", "bib": 301, "rank": 3, "IRM": "", "gname": "SYLVAIN", "lat": 46.36001022484733, "nationality": "SUI", "spd": "41.66 kmh", "lon": 6.206514736824793, "valid": 1, "fname": "BRUNNER", "team": "U17", "cad": ""}, {"hr": "165", "pow": "5", "bib": 305, "rank": 4, "IRM": "", "gname": "HENRY", "lat": 46.360027349430304, "nationality": "GBR", "spd": "35.97 kmh", "lon": 6.206523492245016, "valid": 1, "fname": "LAWTON", "team": "U17", "cad": "80"}, {"hr": "174", "pow": "", "bib": 307, "rank": 5, "IRM": "", "gname": "Z\u00c9ON", "lat": 46.36005055078036, "nationality": "SUI", "spd": "34.52 kmh", "lon": 6.206531955630571, "valid": 1, "fname": "TAILLEFERT", "team": "U17", "cad": ""}, {"hr": "", "pow": "", "bib": 304, "rank": 6, "IRM": "", "gname": "MAXIME", "lat": 46.36009442400998, "nationality": "SUI", "spd": "40.39 kmh", "lon": 6.206547959701752, "valid": 1, "fname": "JUILLERAT", "team": "U17", "cad": ""}, {"hr": "190", "pow": "13", "bib": 302, "rank": 7, "IRM": "", "gname": "GABRIELE", "lat": 46.3601357677691, "nationality": "SUI", "spd": "36.40 kmh", "lon": 6.2065630410730055, "valid": 1, "fname": "CERATO", "team": "U17", "cad": "80"}], "no": 1}, {"distance": 406, "gap": "+0:38", "athletes": [{"hr": "", "pow": "", "bib": 401, "rank": 8, "IRM": "", "gname": "MARGOT", "lat": 46.36338022694787, "nationality": "SUI", "spd": "38.96 kmh", "lon": 6.208029085528494, "valid": 0, "fname": "VESIN", "team": "W17", "cad": ""}], "no": 2}]}