{"timestamp": 29874, "groups": [{"distance": 0, "gap": "+0:00", "athletes": [{"hr": "176", "pow": "167", "bib": 306, "rank": 1, "IRM": "", "gname": "THIBAUD", "lat": 46.36030655578606, "nationality": "SUI", "spd": "37.68 kmh", "lon": 6.206613077221322, "valid": 1, "fname": "ROSSIER", "team": "U17", "cad": "100"}, {"hr": "", "pow": "", "bib": 303, "rank": 2, "IRM": "", "gname": "DAMIEN", "lat": 46.36034199951267, "nationality": "SUI", "spd": "37.44 kmh", "lon": 6.206622769858673, "valid": 1, "fname": "FORTIS", "team": "U17", "cad": ""}, {"hr": "", "pow": "", "bib": 301, "rank": 3, "IRM": "", "gname": "SYLVAIN", "lat": 46.360360874644606, "nationality": "SUI", "spd": "37.79 kmh", "lon": 6.206628243646936, "valid": 1, "fname": "BRUNNER", "team": "U17", "cad": ""}, {"hr": "165", "pow": "155", "bib": 305, "rank": 4, "IRM": "", "gname": "HENRY", "lat": 46.36037269365246, "nationality": "GBR", "spd": "36.93 kmh", "lon": 6.206631671159212, "valid": 1, "fname": "LAWTON", "team": "U17", "cad": "100"}, {"hr": "176", "pow": "", "bib": 307, "rank": 5, "IRM": "", "gname": "Z\u00c9ON", "lat": 46.36039183338905, "nationality": "SUI", "spd": "37.22 kmh", "lon": 6.206637221682825, "valid": 1, "fname": "TAILLEFERT", "team": "U17", "cad": ""}, {"hr": "", "pow": "", "bib": 304, "rank": 6, "IRM": "", "gname": "MAXIME", "lat": 46.360435873397144, "nationality": "SUI", "spd": "37.27 kmh", "lon": 6.2066487430699615, "valid": 1, "fname": "JUILLERAT", "team": "U17", "cad": ""}, {"hr": "194", "pow": "166", "bib": 302, "rank": 7, "IRM": "", "gname": "GABRIELE", "lat": 46.360473103385175, "nationality": "SUI", "spd": "37.53 kmh", "lon": 6.206652767933533, "valid": 1, "fname": "CERATO", "team": "U17", "cad": "96"}], "no": 1}, {"distance": 401, "gap": "+0:38", "athletes": [{"hr": "", "pow": "", "bib": 401, "rank": 8, "IRM": "", "gname": "MARGOT", "lat": 46.36365089792576, "nationality": "SUI", "spd": "34.31 kmh", "lon": 6.208252801708224, "valid": 1, "fname": "VESIN", "team": "W17", "cad": ""}], "no": 2}]}