{"timestamp": 29870, "groups": [{"distance": 0, "gap": "+0:00", "athletes": [{"hr": "177", "pow": "0", "bib": 306, "rank": 1, "IRM": "", "gname": "THIBAUD", "lat": 46.36068186679442, "nationality": "SUI", "spd": "44.94 kmh", "lon": 6.206668449746377, "valid": 1, "fname": "ROSSIER", "team": "U17", "cad": "99"}, {"hr": "", "pow": "", "bib": 303, "rank": 2, "IRM": "", "gname": "DAMIEN", "lat": 46.360715573801976, "nationality": "SUI", "spd": "44.21 kmh", "lon": 6.206670457373786, "valid": 1, "fname": "FORTIS", "team": "U17", "cad": ""}, {"hr": "", "pow": "", "bib": 301, "rank": 3, "IRM": "", "gname": "SYLVAIN", "lat": 46.36073705640146, "nationality": "SUI", "spd": "43.80 kmh", "lon": 6.206671736901655, "valid": 1, "fname": "BRUNNER", "team": "U17", "cad": ""}, {"hr": "166", "pow": "0", "bib": 305, "rank": 4, "IRM": "", "gname": "HENRY", "lat": 46.36073885410853, "nationality": "GBR", "spd": "37.97 kmh", "lon": 6.2066718439751165, "valid": 1, "fname": "LAWTON", "team": "U17", "cad": "99"}, {"hr": "178", "pow": "", "bib": 307, "rank": 5, "IRM": "", "gname": "Z\u00c9ON", "lat": 46.360764381548925, "nationality": "SUI", "spd": "43.24 kmh", "lon": 6.2066733644182746, "valid": 1, "fname": "TAILLEFERT", "team": "U17", "cad": ""}, {"hr": "", "pow": "", "bib": 304, "rank": 6, "IRM": "", "gname": "MAXIME", "lat": 46.36080680743577, "nationality": "SUI", "spd": "36.84 kmh", "lon": 6.206675891351974, "valid": 1, "fname": "JUILLERAT", "team": "U17", "cad": ""}, {"hr": "195", "pow": "0", "bib": 302, "rank": 7, "IRM": "", "gname": "GABRIELE", "lat": 46.36082927877414, "nationality": "SUI", "spd": "38.03 kmh", "lon": 6.206677229770247, "valid": 1, "fname": "CERATO", "team": "U17", "cad": "104"}], "no": 1}, {"distance": 397, "gap": "+0:36", "athletes": [{"hr": "", "pow": "", "bib": 401, "rank": 8, "IRM": "", "gname": "MARGOT", "lat": 46.36395691169313, "nationality": "SUI", "spd": "35.86 kmh", "lon": 6.208486801997705, "valid": 1, "fname": "VESIN", "team": "W17", "cad": ""}], "no": 2}]}