{"timestamp": 29877, "groups": [{"distance": 0, "gap": "+0:00", "athletes": [{"hr": "", "pow": "", "bib": 303, "rank": 1, "IRM": "", "gname": "DAMIEN", "lat": 46.360078462178926, "nationality": "SUI", "spd": "35.95 kmh", "lon": 6.206542137147029, "valid": 1, "fname": "FORTIS", "team": "U17", "cad": ""}, {"hr": "176", "pow": "1", "bib": 306, "rank": 2, "IRM": "", "gname": "THIBAUD", "lat": 46.36008535280544, "nationality": "SUI", "spd": "36.64 kmh", "lon": 6.206544650708904, "valid": 0, "fname": "ROSSIER", "team": "U17", "cad": "41"}, {"hr": "", "pow": "", "bib": 301, "rank": 3, "IRM": "", "gname": "SYLVAIN", "lat": 46.3600945112331, "nationality": "SUI", "spd": "42.63 kmh", "lon": 6.206547991518992, "valid": 1, "fname": "BRUNNER", "team": "U17", "cad": ""}, {"hr": "165", "pow": "6", "bib": 305, "rank": 4, "IRM": "", "gname": "HENRY", "lat": 46.36011082195663, "nationality": "GBR", "spd": "36.70 kmh", "lon": 6.206553941342672, "valid": 1, "fname": "LAWTON", "team": "U17", "cad": "66"}, {"hr": "175", "pow": "", "bib": 307, "rank": 5, "IRM": "", "gname": "Z\u00c9ON", "lat": 46.360131144943715, "nationality": "SUI", "spd": "35.48 kmh", "lon": 6.206561354759342, "valid": 1, "fname": "TAILLEFERT", "team": "U17", "cad": ""}, {"hr": "", "pow": "", "bib": 304, "rank": 6, "IRM": "", "gname": "MAXIME", "lat": 46.360174233165246, "nationality": "SUI", "spd": "41.65 kmh", "lon": 6.206577072475373, "valid": 1, "fname": "JUILLERAT", "team": "U17", "cad": ""}, {"hr": "191", "pow": "13", "bib": 302, "rank": 7, "IRM": "", "gname": "GABRIELE", "lat": 46.360214696006096, "nationality": "SUI", "spd": "36.83 kmh", "lon": 6.206588836446054, "valid": 1, "fname": "CERATO", "team": "U17", "cad": "96"}], "no": 1}, {"distance": 399, "gap": "+0:38", "athletes": [{"hr": "", "pow": "", "bib": 401, "rank": 8, "IRM": "", "gname": "MARGOT", "lat": 46.363434786745906, "nationality": "SUI", "spd": "38.96 kmh", "lon": 6.208074377992416, "valid": 1, "fname": "VESIN", "team": "W17", "cad": ""}], "no": 2}]}