{"timestamp": 29880, "groups": [{"distance": 0, "gap": "+0:00", "athletes": [{"hr": "177", "pow": "21", "bib": 306, "rank": 1, "IRM": "", "gname": "THIBAUD", "lat": 46.3597944406923, "nationality": "SUI", "spd": "46.07 kmh", "lon": 6.206330339384378, "valid": 1, "fname": "ROSSIER", "team": "U17", "cad": "71"}, {"hr": "", "pow": "", "bib": 303, "rank": 2, "IRM": "", "gname": "DAMIEN", "lat": 46.35982622689173, "nationality": "SUI", "spd": "35.66 kmh", "lon": 6.20641583843929, "valid": 1, "fname": "FORTIS", "team": "U17", "cad": ""}, {"hr": "", "pow": "", "bib": 301, "rank": 3, "IRM": "", "gname": "SYLVAIN", "lat": 46.35985418168547, "nationality": "SUI", "spd": "33.76 kmh", "lon": 6.206434590842736, "valid": 1, "fname": "BRUNNER", "team": "U17", "cad": ""}, {"hr": "165", "pow": "12", "bib": 305, "rank": 4, "IRM": "", "gname": "HENRY", "lat": 46.35987611482867, "nationality": "GBR", "spd": "33.83 kmh", "lon": 6.2064455574143365, "valid": 1, "fname": "LAWTON", "team": "U17", "cad": "97"}, {"hr": "174", "pow": "", "bib": 307, "rank": 5, "IRM": "", "gname": "Z\u00c9ON", "lat": 46.3599018735201, "nationality": "SUI", "spd": "32.06 kmh", "lon": 6.206458436760053, "valid": 1, "fname": "TAILLEFERT", "team": "U17", "cad": ""}, {"hr": "", "pow": "", "bib": 304, "rank": 6, "IRM": "", "gname": "MAXIME", "lat": 46.359974239407855, "nationality": "SUI", "spd": "33.68 kmh", "lon": 6.2064958873088765, "valid": 0, "fname": "JUILLERAT", "team": "U17", "cad": ""}, {"hr": "189", "pow": "21", "bib": 302, "rank": 7, "IRM": "", "gname": "GABRIELE", "lat": 46.3599814703246, "nationality": "SUI", "spd": "34.80 kmh", "lon": 6.206499674931933, "valid": 1, "fname": "CERATO", "team": "U17", "cad": "74"}], "no": 1}, {"distance": 410, "gap": "+0:38", "athletes": [{"hr": "", "pow": "", "bib": 401, "rank": 8, "IRM": "", "gname": "MARGOT", "lat": 46.36322543935787, "nationality": "SUI", "spd": "40.60 kmh", "lon": 6.207900589610477, "valid": 1, "fname": "VESIN", "team": "W17", "cad": ""}], "no": 2}]}