{"timestamp": 29883, "groups": [{"distance": 0, "gap": "+0:00", "athletes": [{"hr": "177", "pow": "10", "bib": 306, "rank": 1, "IRM": "", "gname": "THIBAUD", "lat": 46.359937729175456, "nationality": "SUI", "spd": "35.90 kmh", "lon": 6.206004343258735, "valid": 1, "fname": "ROSSIER", "team": "U17", "cad": "91"}, {"hr": "", "pow": "", "bib": 303, "rank": 2, "IRM": "", "gname": "DAMIEN", "lat": 46.359916085676836, "nationality": "SUI", "spd": "52.21 kmh", "lon": 6.206048122153667, "valid": 1, "fname": "FORTIS", "team": "U17", "cad": ""}, {"hr": "", "pow": "", "bib": 301, "rank": 3, "IRM": "", "gname": "SYLVAIN", "lat": 46.35988874376916, "nationality": "SUI", "spd": "38.23 kmh", "lon": 6.206103427376008, "valid": 1, "fname": "BRUNNER", "team": "U17", "cad": ""}, {"hr": "166", "pow": "7", "bib": 305, "rank": 4, "IRM": "", "gname": "HENRY", "lat": 46.35987297235481, "nationality": "GBR", "spd": "31.00 kmh", "lon": 6.206135857133404, "valid": 1, "fname": "LAWTON", "team": "U17", "cad": "102"}, {"hr": "175", "pow": "", "bib": 307, "rank": 5, "IRM": "", "gname": "Z\u00c9ON", "lat": 46.35985233313155, "nationality": "SUI", "spd": "41.69 kmh", "lon": 6.206179667171138, "valid": 1, "fname": "TAILLEFERT", "team": "U17", "cad": ""}, {"hr": "", "pow": "", "bib": 304, "rank": 6, "IRM": "", "gname": "MAXIME", "lat": 46.35984301725025, "nationality": "SUI", "spd": "44.18 kmh", "lon": 6.206202956874388, "valid": 1, "fname": "JUILLERAT", "team": "U17", "cad": ""}, {"hr": "188", "pow": "10", "bib": 302, "rank": 7, "IRM": "", "gname": "GABRIELE", "lat": 46.35983347634766, "nationality": "SUI", "spd": "32.53 kmh", "lon": 6.2062268091308574, "valid": 1, "fname": "CERATO", "team": "U17", "cad": "102"}], "no": 1}, {"distance": 415, "gap": "+0:40", "athletes": [{"hr": "", "pow": "", "bib": 401, "rank": 8, "IRM": "", "gname": "MARGOT", "lat": 46.363029168414464, "nationality": "SUI", "spd": "35.48 kmh", "lon": 6.207738795662444, "valid": 1, "fname": "VESIN", "team": "W17", "cad": ""}], "no": 2}]}