{"timestamp": 29895, "groups": [{"distance": 0, "gap": "+0:00", "athletes": [{"hr": "184", "pow": "187", "bib": 306, "rank": 1, "IRM": "", "gname": "THIBAUD", "lat": 46.36063945317105, "nationality": "SUI", "spd": "38.98 kmh", "lon": 6.204612093657886, "valid": 1, "fname": "ROSSIER", "team": "U17", "cad": "81"}, {"hr": "", "pow": "", "bib": 303, "rank": 2, "IRM": "", "gname": "DAMIEN", "lat": 46.36062797101055, "nationality": "SUI", "spd": "40.25 kmh", "lon": 6.204635057978897, "valid": 1, "fname": "FORTIS", "team": "U17", "cad": ""}, {"hr": "", "pow": "", "bib": 301, "rank": 3, "IRM": "", "gname": "SYLVAIN", "lat": 46.3606172262365, "nationality": "SUI", "spd": "42.08 kmh", "lon": 6.204656547526999, "valid": 1, "fname": "BRUNNER", "team": "U17", "cad": ""}, {"hr": "182", "pow": "267", "bib": 305, "rank": 4, "IRM": "", "gname": "HENRY", "lat": 46.36060374259847, "nationality": "GBR", "spd": "43.30 kmh", "lon": 6.2046835148030475, "valid": 1, "fname": "LAWTON", "team": "U17", "cad": "81"}, {"hr": "185", "pow": "", "bib": 307, "rank": 5, "IRM": "", "gname": "Z\u00c9ON", "lat": 46.36058715140325, "nationality": "SUI", "spd": "43.73 kmh", "lon": 6.204716697193499, "valid": 1, "fname": "TAILLEFERT", "team": "U17", "cad": ""}, {"hr": "", "pow": "", "bib": 304, "rank": 6, "IRM": "", "gname": "MAXIME", "lat": 46.360553652990035, "nationality": "SUI", "spd": "42.78 kmh", "lon": 6.204783694019934, "valid": 1, "fname": "JUILLERAT", "team": "U17", "cad": ""}, {"hr": "196", "pow": "279", "bib": 302, "rank": 7, "IRM": "", "gname": "GABRIELE", "lat": 46.3605520728762, "nationality": "SUI", "spd": "44.10 kmh", "lon": 6.204786854247596, "valid": 1, "fname": "CERATO", "team": "U17", "cad": "112"}], "no": 1}, {"distance": 440, "gap": "+0:42", "athletes": [{"hr": "", "pow": "", "bib": 401, "rank": 8, "IRM": "", "gname": "MARGOT", "lat": 46.362194178725076, "nationality": "SUI", "spd": "32.22 kmh", "lon": 6.207050247922755, "valid": 1, "fname": "VESIN", "team": "W17", "cad": ""}], "no": 2}]}