{"timestamp": 29907, "groups": [{"distance": 0, "gap": "+0:00", "athletes": [{"hr": "182", "pow": "185", "bib": 306, "rank": 1, "IRM": "", "gname": "THIBAUD", "lat": 46.361266546741795, "nationality": "SUI", "spd": "31.57 kmh", "lon": 6.203370453465156, "valid": 1, "fname": "ROSSIER", "team": "U17", "cad": "92"}, {"hr": "", "pow": "", "bib": 301, "rank": 2, "IRM": "", "gname": "SYLVAIN", "lat": 46.3612643996858, "nationality": "SUI", "spd": "34.44 kmh", "lon": 6.2033746245687285, "valid": 1, "fname": "BRUNNER", "team": "U17", "cad": ""}, {"hr": "", "pow": "", "bib": 303, "rank": 3, "IRM": "", "gname": "DAMIEN", "lat": 46.36126171586581, "nationality": "SUI", "spd": "32.86 kmh", "lon": 6.203379838448194, "valid": 1, "fname": "FORTIS", "team": "U17", "cad": ""}, {"hr": "178", "pow": "174", "bib": 305, "rank": 4, "IRM": "", "gname": "HENRY", "lat": 46.361254898963026, "nationality": "GBR", "spd": "36.13 kmh", "lon": 6.203393081702038, "valid": 1, "fname": "LAWTON", "team": "U17", "cad": "86"}, {"hr": "199", "pow": "172", "bib": 302, "rank": 5, "IRM": "", "gname": "GABRIELE", "lat": 46.36124996073424, "nationality": "SUI", "spd": "35.17 kmh", "lon": 6.203402675240256, "valid": 1, "fname": "CERATO", "team": "U17", "cad": "85"}, {"hr": "184", "pow": "", "bib": 307, "rank": 6, "IRM": "", "gname": "Z\u00c9ON", "lat": 46.36124491515265, "nationality": "SUI", "spd": "35.63 kmh", "lon": 6.203412477333653, "valid": 1, "fname": "TAILLEFERT", "team": "U17", "cad": ""}, {"hr": "", "pow": "", "bib": 304, "rank": 7, "IRM": "", "gname": "MAXIME", "lat": 46.361233482079484, "nationality": "SUI", "spd": "35.46 kmh", "lon": 6.203434688460178, "valid": 1, "fname": "JUILLERAT", "team": "U17", "cad": ""}], "no": 1}, {"distance": 447, "gap": "+0:43", "athletes": [{"hr": "", "pow": "", "bib": 401, "rank": 8, "IRM": "", "gname": "MARGOT", "lat": 46.36123460868576, "nationality": "SUI", "spd": "33.14 kmh", "lon": 6.206680791157625, "valid": 1, "fname": "VESIN", "team": "W17", "cad": ""}], "no": 2}]}