{"timestamp": 29909, "groups": [{"distance": 0, "gap": "+0:00", "athletes": [{"hr": "", "pow": "", "bib": 301, "rank": 1, "IRM": "", "gname": "SYLVAIN", "lat": 46.36135758191597, "nationality": "SUI", "spd": "32.21 kmh", "lon": 6.203193598673665, "valid": 1, "fname": "BRUNNER", "team": "U17", "cad": ""}, {"hr": "197", "pow": "95", "bib": 302, "rank": 2, "IRM": "", "gname": "GABRIELE", "lat": 46.361355649565574, "nationality": "SUI", "spd": "33.23 kmh", "lon": 6.203197352666881, "valid": 1, "fname": "CERATO", "team": "U17", "cad": "88"}, {"hr": "181", "pow": "95", "bib": 306, "rank": 3, "IRM": "", "gname": "THIBAUD", "lat": 46.36135543485997, "nationality": "SUI", "spd": "29.88 kmh", "lon": 6.203197769777239, "valid": 1, "fname": "ROSSIER", "team": "U17", "cad": "83"}, {"hr": "", "pow": "", "bib": 303, "rank": 4, "IRM": "", "gname": "DAMIEN", "lat": 46.36135387824438, "nationality": "SUI", "spd": "31.09 kmh", "lon": 6.203200793827329, "valid": 1, "fname": "FORTIS", "team": "U17", "cad": ""}, {"hr": "177", "pow": "85", "bib": 305, "rank": 5, "IRM": "", "gname": "HENRY", "lat": 46.36135366353878, "nationality": "GBR", "spd": "35.47 kmh", "lon": 6.203201210937686, "valid": 1, "fname": "LAWTON", "team": "U17", "cad": "83"}, {"hr": "182", "pow": "", "bib": 307, "rank": 6, "IRM": "", "gname": "Z\u00c9ON", "lat": 46.36134137164321, "nationality": "SUI", "spd": "33.35 kmh", "lon": 6.203225090505641, "valid": 1, "fname": "TAILLEFERT", "team": "U17", "cad": ""}, {"hr": "", "pow": "", "bib": 304, "rank": 7, "IRM": "", "gname": "MAXIME", "lat": 46.36133095842164, "nationality": "SUI", "spd": "33.11 kmh", "lon": 6.203245320357969, "valid": 1, "fname": "JUILLERAT", "team": "U17", "cad": ""}], "no": 1}, {"distance": 450, "gap": "+0:43", "athletes": [{"hr": "", "pow": "", "bib": 401, "rank": 8, "IRM": "", "gname": "MARGOT", "lat": 46.361109525408935, "nationality": "SUI", "spd": "33.56 kmh", "lon": 6.20667868301251, "valid": 0, "fname": "VESIN", "team": "W17", "cad": ""}], "no": 2}]}