{"timestamp": 29917, "groups": [{"distance": 0, "gap": "+0:00", "athletes": [{"hr": "", "pow": "", "bib": 301, "rank": 1, "IRM": "", "gname": "SYLVAIN", "lat": 46.36170200763601, "nationality": "SUI", "spd": "28.27 kmh", "lon": 6.202509609809953, "valid": 1, "fname": "BRUNNER", "team": "U17", "cad": ""}, {"hr": "192", "pow": "274", "bib": 302, "rank": 2, "IRM": "", "gname": "GABRIELE", "lat": 46.36170200763601, "nationality": "SUI", "spd": "28.33 kmh", "lon": 6.202509609809953, "valid": 1, "fname": "CERATO", "team": "U17", "cad": "75"}, {"hr": "172", "pow": "266", "bib": 305, "rank": 3, "IRM": "", "gname": "HENRY", "lat": 46.36169319929389, "nationality": "GBR", "spd": "28.40 kmh", "lon": 6.202526543398276, "valid": 1, "fname": "LAWTON", "team": "U17", "cad": "82"}, {"hr": "", "pow": "", "bib": 303, "rank": 4, "IRM": "", "gname": "DAMIEN", "lat": 46.36169071350409, "nationality": "SUI", "spd": "28.10 kmh", "lon": 6.2025313222023435, "valid": 1, "fname": "FORTIS", "team": "U17", "cad": ""}, {"hr": "180", "pow": "274", "bib": 306, "rank": 5, "IRM": "", "gname": "THIBAUD", "lat": 46.36168368844595, "nationality": "SUI", "spd": "28.03 kmh", "lon": 6.202544827518184, "valid": 1, "fname": "ROSSIER", "team": "U17", "cad": "82"}, {"hr": "180", "pow": "", "bib": 307, "rank": 6, "IRM": "", "gname": "Z\u00c9ON", "lat": 46.36168066226706, "nationality": "SUI", "spd": "27.43 kmh", "lon": 6.202550645192701, "valid": 1, "fname": "TAILLEFERT", "team": "U17", "cad": ""}, {"hr": "", "pow": "", "bib": 304, "rank": 7, "IRM": "", "gname": "MAXIME", "lat": 46.36166007344284, "nationality": "SUI", "spd": "26.48 kmh", "lon": 6.202590226156818, "valid": 1, "fname": "JUILLERAT", "team": "U17", "cad": ""}], "no": 1}, {"distance": 438, "gap": "+0:44", "athletes": [{"hr": "", "pow": "", "bib": 401, "rank": 8, "IRM": "", "gname": "MARGOT", "lat": 46.3604170149319, "nationality": "SUI", "spd": "34.82 kmh", "lon": 6.20664452433025, "valid": 0, "fname": "VESIN", "team": "W17", "cad": ""}], "no": 2}]}