{"timestamp": 29915, "groups": [{"distance": 0, "gap": "+0:00", "athletes": [{"hr": "193", "pow": "145", "bib": 302, "rank": 1, "IRM": "", "gname": "GABRIELE", "lat": 46.36161862559985, "nationality": "SUI", "spd": "29.10 kmh", "lon": 6.20266990752028, "valid": 1, "fname": "CERATO", "team": "U17", "cad": "84"}, {"hr": "", "pow": "", "bib": 301, "rank": 2, "IRM": "", "gname": "SYLVAIN", "lat": 46.36161743674386, "nationality": "SUI", "spd": "33.34 kmh", "lon": 6.202672193035268, "valid": 1, "fname": "BRUNNER", "team": "U17", "cad": ""}, {"hr": "173", "pow": "137", "bib": 305, "rank": 3, "IRM": "", "gname": "HENRY", "lat": 46.36160857436283, "nationality": "GBR", "spd": "29.10 kmh", "lon": 6.202689230510637, "valid": 1, "fname": "LAWTON", "team": "U17", "cad": "89"}, {"hr": "", "pow": "", "bib": 303, "rank": 4, "IRM": "", "gname": "DAMIEN", "lat": 46.36160846628501, "nationality": "SUI", "spd": "29.14 kmh", "lon": 6.202689438284727, "valid": 1, "fname": "FORTIS", "team": "U17", "cad": ""}, {"hr": "181", "pow": "145", "bib": 306, "rank": 5, "IRM": "", "gname": "THIBAUD", "lat": 46.36160138718797, "nationality": "SUI", "spd": "28.04 kmh", "lon": 6.202703047487613, "valid": 1, "fname": "ROSSIER", "team": "U17", "cad": "89"}, {"hr": "181", "pow": "", "bib": 307, "rank": 6, "IRM": "", "gname": "Z\u00c9ON", "lat": 46.361597496386544, "nationality": "SUI", "spd": "27.86 kmh", "lon": 6.2027105273548475, "valid": 1, "fname": "TAILLEFERT", "team": "U17", "cad": ""}, {"hr": "", "pow": "", "bib": 304, "rank": 7, "IRM": "", "gname": "MAXIME", "lat": 46.36157788026268, "nationality": "SUI", "spd": "26.56 kmh", "lon": 6.202748238352157, "valid": 1, "fname": "JUILLERAT", "team": "U17", "cad": ""}], "no": 1}, {"distance": 437, "gap": "+0:43", "athletes": [{"hr": "", "pow": "", "bib": 401, "rank": 8, "IRM": "", "gname": "MARGOT", "lat": 46.36054425231823, "nationality": "SUI", "spd": "34.94 kmh", "lon": 6.206660253272873, "valid": 1, "fname": "VESIN", "team": "W17", "cad": ""}], "no": 2}]}