{"timestamp": 29920, "groups": [{"distance": 0, "gap": "+0:00", "athletes": [{"hr": "", "pow": "", "bib": 301, "rank": 1, "IRM": "", "gname": "SYLVAIN", "lat": 46.36184507423104, "nationality": "SUI", "spd": "31.94 kmh", "lon": 6.202232224668033, "valid": 1, "fname": "BRUNNER", "team": "U17", "cad": ""}, {"hr": "", "pow": "", "bib": 303, "rank": 2, "IRM": "", "gname": "DAMIEN", "lat": 46.36182863602622, "nationality": "SUI", "spd": "30.72 kmh", "lon": 6.202264926203166, "valid": 1, "fname": "FORTIS", "team": "U17", "cad": ""}, {"hr": "192", "pow": "566", "bib": 302, "rank": 3, "IRM": "", "gname": "GABRIELE", "lat": 46.361818434825146, "nationality": "SUI", "spd": "29.33 kmh", "lon": 6.202285220081882, "valid": 1, "fname": "CERATO", "team": "U17", "cad": "91"}, {"hr": "172", "pow": "557", "bib": 305, "rank": 4, "IRM": "", "gname": "HENRY", "lat": 46.361813889212236, "nationality": "GBR", "spd": "29.33 kmh", "lon": 6.202294262950119, "valid": 1, "fname": "LAWTON", "team": "U17", "cad": "103"}, {"hr": "181", "pow": "566", "bib": 306, "rank": 5, "IRM": "", "gname": "THIBAUD", "lat": 46.36180954506437, "nationality": "SUI", "spd": "27.95 kmh", "lon": 6.202302874590543, "valid": 1, "fname": "ROSSIER", "team": "U17", "cad": "105"}, {"hr": "180", "pow": "", "bib": 307, "rank": 6, "IRM": "", "gname": "Z\u00c9ON", "lat": 46.361799439788435, "nationality": "SUI", "spd": "31.12 kmh", "lon": 6.2023223014679445, "valid": 1, "fname": "TAILLEFERT", "team": "U17", "cad": ""}, {"hr": "", "pow": "", "bib": 304, "rank": 7, "IRM": "", "gname": "MAXIME", "lat": 46.361776743446775, "nationality": "SUI", "spd": "25.91 kmh", "lon": 6.2023659340268145, "valid": 1, "fname": "JUILLERAT", "team": "U17", "cad": ""}], "no": 1}, {"distance": 434, "gap": "+0:45", "athletes": [{"hr": "", "pow": "", "bib": 401, "rank": 8, "IRM": "", "gname": "MARGOT", "lat": 46.36014161171818, "nationality": "SUI", "spd": "37.47 kmh", "lon": 6.206565172828014, "valid": 1, "fname": "VESIN", "team": "W17", "cad": ""}], "no": 2}]}