{"timestamp": 29931, "groups": [{"distance": 0, "gap": "+0:00", "athletes": [{"hr": "", "pow": "", "bib": 301, "rank": 1, "IRM": "", "gname": "SYLVAIN", "lat": 46.36239369564447, "nationality": "SUI", "spd": "32.62 kmh", "lon": 6.201145567109359, "valid": 1, "fname": "BRUNNER", "team": "U17", "cad": ""}, {"hr": "", "pow": "", "bib": 303, "rank": 2, "IRM": "", "gname": "DAMIEN", "lat": 46.362367023843454, "nationality": "SUI", "spd": "30.00 kmh", "lon": 6.201198207138695, "valid": 1, "fname": "FORTIS", "team": "U17", "cad": ""}, {"hr": "186", "pow": "82", "bib": 306, "rank": 3, "IRM": "", "gname": "THIBAUD", "lat": 46.3623630921437, "nationality": "SUI", "spd": "32.30 kmh", "lon": 6.201205966824295, "valid": 1, "fname": "ROSSIER", "team": "U17", "cad": "96"}, {"hr": "198", "pow": "82", "bib": 302, "rank": 4, "IRM": "", "gname": "GABRIELE", "lat": 46.36234869362165, "nationality": "SUI", "spd": "31.27 kmh", "lon": 6.201234384051287, "valid": 1, "fname": "CERATO", "team": "U17", "cad": "74"}, {"hr": "182", "pow": "245", "bib": 305, "rank": 5, "IRM": "", "gname": "HENRY", "lat": 46.362337090384614, "nationality": "GBR", "spd": "33.87 kmh", "lon": 6.201257284444749, "valid": 0, "fname": "LAWTON", "team": "U17", "cad": "84"}, {"hr": "186", "pow": "", "bib": 307, "rank": 6, "IRM": "", "gname": "Z\u00c9ON", "lat": 46.36233248864294, "nationality": "SUI", "spd": "31.85 kmh", "lon": 6.2012663665392305, "valid": 1, "fname": "TAILLEFERT", "team": "U17", "cad": ""}, {"hr": "", "pow": "", "bib": 304, "rank": 7, "IRM": "", "gname": "MAXIME", "lat": 46.36231171439155, "nationality": "SUI", "spd": "32.46 kmh", "lon": 6.201307367040168, "valid": 1, "fname": "JUILLERAT", "team": "U17", "cad": ""}], "no": 1}, {"distance": 443, "gap": "+0:46", "athletes": [{"hr": "", "pow": "", "bib": 401, "rank": 8, "IRM": "", "gname": "MARGOT", "lat": 46.36003998444731, "nationality": "SUI", "spd": "38.92 kmh", "lon": 6.205798300365952, "valid": 1, "fname": "VESIN", "team": "W17", "cad": ""}], "no": 2}]}