{"timestamp": 29933, "groups": [{"distance": 0, "gap": "+0:00", "athletes": [{"hr": "", "pow": "", "bib": 301, "rank": 1, "IRM": "", "gname": "SYLVAIN", "lat": 46.36248439039413, "nationality": "SUI", "spd": "31.50 kmh", "lon": 6.200966570037492, "valid": 1, "fname": "BRUNNER", "team": "U17", "cad": ""}, {"hr": "", "pow": "", "bib": 303, "rank": 2, "IRM": "", "gname": "DAMIEN", "lat": 46.36245984383623, "nationality": "SUI", "spd": "30.79 kmh", "lon": 6.20101501564218, "valid": 1, "fname": "FORTIS", "team": "U17", "cad": ""}, {"hr": "186", "pow": "584", "bib": 306, "rank": 3, "IRM": "", "gname": "THIBAUD", "lat": 46.36245809051066, "nationality": "SUI", "spd": "32.39 kmh", "lon": 6.201018476042515, "valid": 1, "fname": "ROSSIER", "team": "U17", "cad": "83"}, {"hr": "184", "pow": "574", "bib": 305, "rank": 4, "IRM": "", "gname": "HENRY", "lat": 46.362440610386095, "nationality": "GBR", "spd": "31.37 kmh", "lon": 6.201052975185247, "valid": 1, "fname": "LAWTON", "team": "U17", "cad": "94"}, {"hr": "187", "pow": "", "bib": 307, "rank": 5, "IRM": "", "gname": "Z\u00c9ON", "lat": 46.362421217542725, "nationality": "SUI", "spd": "30.23 kmh", "lon": 6.2010912493101635, "valid": 1, "fname": "TAILLEFERT", "team": "U17", "cad": ""}, {"hr": "198", "pow": "207", "bib": 302, "rank": 6, "IRM": "", "gname": "GABRIELE", "lat": 46.36241236531483, "nationality": "SUI", "spd": "29.83 kmh", "lon": 6.201108720253941, "valid": 0, "fname": "CERATO", "team": "U17", "cad": "86"}, {"hr": "", "pow": "", "bib": 304, "rank": 7, "IRM": "", "gname": "MAXIME", "lat": 46.36240490630187, "nationality": "SUI", "spd": "31.32 kmh", "lon": 6.201123441519339, "valid": 1, "fname": "JUILLERAT", "team": "U17", "cad": ""}], "no": 1}, {"distance": 438, "gap": "+0:46", "athletes": [{"hr": "", "pow": "", "bib": 401, "rank": 8, "IRM": "", "gname": "MARGOT", "lat": 46.36015413255699, "nationality": "SUI", "spd": "37.98 kmh", "lon": 6.205568758894479, "valid": 1, "fname": "VESIN", "team": "W17", "cad": ""}], "no": 2}]}