{"timestamp": 29941, "groups": [{"distance": 0, "gap": "+0:00", "athletes": [{"hr": "", "pow": "", "bib": 301, "rank": 1, "IRM": "", "gname": "SYLVAIN", "lat": 46.362790406508275, "nationality": "SUI", "spd": "22.98 kmh", "lon": 6.200368482283624, "valid": 1, "fname": "BRUNNER", "team": "U17", "cad": ""}, {"hr": "187", "pow": "174", "bib": 306, "rank": 2, "IRM": "", "gname": "THIBAUD", "lat": 46.36276879075613, "nationality": "SUI", "spd": "23.94 kmh", "lon": 6.200408235391028, "valid": 1, "fname": "ROSSIER", "team": "U17", "cad": "84"}, {"hr": "", "pow": "", "bib": 303, "rank": 3, "IRM": "", "gname": "DAMIEN", "lat": 46.362758288501226, "nationality": "SUI", "spd": "22.37 kmh", "lon": 6.200427549882801, "valid": 1, "fname": "FORTIS", "team": "U17", "cad": ""}, {"hr": "185", "pow": "166", "bib": 305, "rank": 4, "IRM": "", "gname": "HENRY", "lat": 46.362750008945774, "nationality": "GBR", "spd": "23.53 kmh", "lon": 6.200442776651447, "valid": 1, "fname": "LAWTON", "team": "U17", "cad": "73"}, {"hr": "202", "pow": "174", "bib": 302, "rank": 5, "IRM": "", "gname": "GABRIELE", "lat": 46.36274889759605, "nationality": "SUI", "spd": "24.30 kmh", "lon": 6.2004448205130105, "valid": 1, "fname": "CERATO", "team": "U17", "cad": "73"}, {"hr": "", "pow": "", "bib": 304, "rank": 6, "IRM": "", "gname": "MAXIME", "lat": 46.362731060432964, "nationality": "SUI", "spd": "28.78 kmh", "lon": 6.2004776244911, "valid": 1, "fname": "JUILLERAT", "team": "U17", "cad": ""}, {"hr": "189", "pow": "", "bib": 307, "rank": 7, "IRM": "", "gname": "Z\u00c9ON", "lat": 46.3627296712458, "nationality": "SUI", "spd": "22.96 kmh", "lon": 6.2004801793180535, "valid": 1, "fname": "TAILLEFERT", "team": "U17", "cad": ""}], "no": 1}, {"distance": 401, "gap": "+0:46", "athletes": [{"hr": "", "pow": "", "bib": 401, "rank": 8, "IRM": "", "gname": "MARGOT", "lat": 46.36065863130566, "nationality": "SUI", "spd": "39.40 kmh", "lon": 6.204573755821772, "valid": 1, "fname": "VESIN", "team": "W17", "cad": ""}], "no": 2}]}