{"timestamp": 29940, "groups": [{"distance": 0, "gap": "+0:00", "athletes": [{"hr": "", "pow": "", "bib": 301, "rank": 1, "IRM": "", "gname": "SYLVAIN", "lat": 46.36275423207473, "nationality": "SUI", "spd": "23.66 kmh", "lon": 6.2004350099775065, "valid": 1, "fname": "BRUNNER", "team": "U17", "cad": ""}, {"hr": "187", "pow": "135", "bib": 306, "rank": 2, "IRM": "", "gname": "THIBAUD", "lat": 46.36273317199744, "nationality": "SUI", "spd": "24.70 kmh", "lon": 6.20047374115413, "valid": 1, "fname": "ROSSIER", "team": "U17", "cad": "65"}, {"hr": "", "pow": "", "bib": 303, "rank": 3, "IRM": "", "gname": "DAMIEN", "lat": 46.36272489244199, "nationality": "SUI", "spd": "23.17 kmh", "lon": 6.200488967922776, "valid": 1, "fname": "FORTIS", "team": "U17", "cad": ""}, {"hr": "202", "pow": "135", "bib": 302, "rank": 4, "IRM": "", "gname": "GABRIELE", "lat": 46.36271352634649, "nationality": "SUI", "spd": "24.93 kmh", "lon": 6.2005099449965115, "valid": 1, "fname": "CERATO", "team": "U17", "cad": "65"}, {"hr": "186", "pow": "128", "bib": 305, "rank": 5, "IRM": "", "gname": "HENRY", "lat": 46.362712576733, "nationality": "GBR", "spd": "25.27 kmh", "lon": 6.200511839591221, "valid": 1, "fname": "LAWTON", "team": "U17", "cad": "65"}, {"hr": "", "pow": "", "bib": 304, "rank": 6, "IRM": "", "gname": "MAXIME", "lat": 46.36269648606006, "nationality": "SUI", "spd": "30.71 kmh", "lon": 6.200543942446018, "valid": 1, "fname": "JUILLERAT", "team": "U17", "cad": ""}, {"hr": "189", "pow": "", "bib": 307, "rank": 7, "IRM": "", "gname": "Z\u00c9ON", "lat": 46.3626958002281, "nationality": "SUI", "spd": "24.11 kmh", "lon": 6.2005453107644195, "valid": 1, "fname": "TAILLEFERT", "team": "U17", "cad": ""}], "no": 1}, {"distance": 405, "gap": "+0:46", "athletes": [{"hr": "", "pow": "", "bib": 401, "rank": 8, "IRM": "", "gname": "MARGOT", "lat": 46.36060353191663, "nationality": "SUI", "spd": "40.52 kmh", "lon": 6.204683936166736, "valid": 1, "fname": "VESIN", "team": "W17", "cad": ""}], "no": 2}]}