{"timestamp": 29954, "groups": [{"distance": 0, "gap": "+0:00", "athletes": [{"hr": "", "pow": "", "bib": 301, "rank": 1, "IRM": "", "gname": "SYLVAIN", "lat": 46.362550442242075, "nationality": "SUI", "spd": "24.32 kmh", "lon": 6.199686050523041, "valid": 1, "fname": "BRUNNER", "team": "U17", "cad": ""}, {"hr": "183", "pow": "265", "bib": 306, "rank": 2, "IRM": "", "gname": "THIBAUD", "lat": 46.36255548894811, "nationality": "SUI", "spd": "27.79 kmh", "lon": 6.1996897760395235, "valid": 1, "fname": "ROSSIER", "team": "U17", "cad": "76"}, {"hr": "180", "pow": "254", "bib": 305, "rank": 3, "IRM": "", "gname": "HENRY", "lat": 46.362583926736086, "nationality": "GBR", "spd": "28.93 kmh", "lon": 6.199710769029232, "valid": 1, "fname": "LAWTON", "team": "U17", "cad": "76"}, {"hr": "187", "pow": "", "bib": 307, "rank": 4, "IRM": "", "gname": "Z\u00c9ON", "lat": 46.362589373974345, "nationality": "SUI", "spd": "29.87 kmh", "lon": 6.199714790221626, "valid": 1, "fname": "TAILLEFERT", "team": "U17", "cad": ""}, {"hr": "", "pow": "", "bib": 303, "rank": 5, "IRM": "", "gname": "DAMIEN", "lat": 46.36259826578974, "nationality": "SUI", "spd": "32.47 kmh", "lon": 6.199721354226859, "valid": 1, "fname": "FORTIS", "team": "U17", "cad": ""}, {"hr": "", "pow": "", "bib": 304, "rank": 6, "IRM": "", "gname": "MAXIME", "lat": 46.36261805208166, "nationality": "SUI", "spd": "31.44 kmh", "lon": 6.199735960616881, "valid": 1, "fname": "JUILLERAT", "team": "U17", "cad": ""}, {"hr": "198", "pow": "265", "bib": 302, "rank": 7, "IRM": "", "gname": "GABRIELE", "lat": 46.36265289838523, "nationality": "SUI", "spd": "29.30 kmh", "lon": 6.199761684421171, "valid": 1, "fname": "CERATO", "team": "U17", "cad": "96"}], "no": 1}, {"distance": 379, "gap": "+0:48", "athletes": [{"hr": "", "pow": "", "bib": 401, "rank": 8, "IRM": "", "gname": "MARGOT", "lat": 46.36123879604307, "nationality": "SUI", "spd": "29.39 kmh", "lon": 6.203424364978835, "valid": 1, "fname": "VESIN", "team": "W17", "cad": ""}], "no": 2}]}