{"timestamp": 29952, "groups": [{"distance": 0, "gap": "+0:00", "athletes": [{"hr": "", "pow": "", "bib": 301, "rank": 1, "IRM": "", "gname": "SYLVAIN", "lat": 46.36265962732661, "nationality": "SUI", "spd": "25.69 kmh", "lon": 6.199766651776482, "valid": 1, "fname": "BRUNNER", "team": "U17", "cad": ""}, {"hr": "184", "pow": "326", "bib": 306, "rank": 2, "IRM": "", "gname": "THIBAUD", "lat": 46.362678241173555, "nationality": "SUI", "spd": "26.71 kmh", "lon": 6.199780569222939, "valid": 1, "fname": "ROSSIER", "team": "U17", "cad": "90"}, {"hr": "181", "pow": "317", "bib": 305, "rank": 3, "IRM": "", "gname": "HENRY", "lat": 46.362709472338224, "nationality": "GBR", "spd": "26.17 kmh", "lon": 6.1998053256339585, "valid": 1, "fname": "LAWTON", "team": "U17", "cad": "106"}, {"hr": "187", "pow": "", "bib": 307, "rank": 4, "IRM": "", "gname": "Z\u00c9ON", "lat": 46.36271956726014, "nationality": "SUI", "spd": "30.61 kmh", "lon": 6.199813327706208, "valid": 1, "fname": "TAILLEFERT", "team": "U17", "cad": ""}, {"hr": "", "pow": "", "bib": 303, "rank": 5, "IRM": "", "gname": "DAMIEN", "lat": 46.36272082912538, "nationality": "SUI", "spd": "27.89 kmh", "lon": 6.199814327965239, "valid": 1, "fname": "FORTIS", "team": "U17", "cad": ""}, {"hr": "", "pow": "", "bib": 304, "rank": 6, "IRM": "", "gname": "MAXIME", "lat": 46.362758685082554, "nationality": "SUI", "spd": "27.01 kmh", "lon": 6.199844335736172, "valid": 1, "fname": "JUILLERAT", "team": "U17", "cad": ""}, {"hr": "199", "pow": "326", "bib": 302, "rank": 7, "IRM": "", "gname": "GABRIELE", "lat": 46.36277926925927, "nationality": "SUI", "spd": "28.50 kmh", "lon": 6.199860652461616, "valid": 1, "fname": "CERATO", "team": "U17", "cad": "78"}], "no": 1}, {"distance": 382, "gap": "+0:47", "athletes": [{"hr": "", "pow": "", "bib": 401, "rank": 8, "IRM": "", "gname": "MARGOT", "lat": 46.361151303511285, "nationality": "SUI", "spd": "27.97 kmh", "lon": 6.20359433744943, "valid": 1, "fname": "VESIN", "team": "W17", "cad": ""}], "no": 2}]}