{"timestamp": 29961, "groups": [{"distance": 0, "gap": "+0:00", "athletes": [{"hr": "179", "pow": "109", "bib": 306, "rank": 1, "IRM": "", "gname": "THIBAUD", "lat": 46.36217487459434, "nationality": "SUI", "spd": "23.68 kmh", "lon": 6.199408620898133, "valid": 1, "fname": "ROSSIER", "team": "U17", "cad": "73"}, {"hr": "", "pow": "", "bib": 301, "rank": 2, "IRM": "", "gname": "SYLVAIN", "lat": 46.36218696249419, "nationality": "SUI", "spd": "23.29 kmh", "lon": 6.199417573296237, "valid": 1, "fname": "BRUNNER", "team": "U17", "cad": ""}, {"hr": "178", "pow": "99", "bib": 305, "rank": 3, "IRM": "", "gname": "HENRY", "lat": 46.36218704254651, "nationality": "GBR", "spd": "25.47 kmh", "lon": 6.199417632583641, "valid": 1, "fname": "LAWTON", "team": "U17", "cad": "73"}, {"hr": "184", "pow": "", "bib": 307, "rank": 4, "IRM": "", "gname": "Z\u00c9ON", "lat": 46.36219072495309, "nationality": "SUI", "spd": "24.24 kmh", "lon": 6.199420359804256, "valid": 1, "fname": "TAILLEFERT", "team": "U17", "cad": ""}, {"hr": "", "pow": "", "bib": 303, "rank": 5, "IRM": "", "gname": "DAMIEN", "lat": 46.36220529447477, "nationality": "SUI", "spd": "24.04 kmh", "lon": 6.199431150111903, "valid": 1, "fname": "FORTIS", "team": "U17", "cad": ""}, {"hr": "", "pow": "", "bib": 304, "rank": 6, "IRM": "", "gname": "MAXIME", "lat": 46.36222018420571, "nationality": "SUI", "spd": "23.88 kmh", "lon": 6.199442177569169, "valid": 1, "fname": "JUILLERAT", "team": "U17", "cad": ""}, {"hr": "196", "pow": "93", "bib": 302, "rank": 7, "IRM": "", "gname": "GABRIELE", "lat": 46.36223819597702, "nationality": "SUI", "spd": "24.27 kmh", "lon": 6.199455517235216, "valid": 1, "fname": "CERATO", "team": "U17", "cad": "81"}], "no": 1}, {"distance": 374, "gap": "+0:48", "athletes": [{"hr": "", "pow": "", "bib": 401, "rank": 8, "IRM": "", "gname": "MARGOT", "lat": 46.361513695374846, "nationality": "SUI", "spd": "24.58 kmh", "lon": 6.202880474344068, "valid": 1, "fname": "VESIN", "team": "W17", "cad": ""}], "no": 2}]}