{"timestamp": 29970, "groups": [{"distance": 0, "gap": "+0:00", "athletes": [{"hr": "176", "pow": "105", "bib": 306, "rank": 1, "IRM": "", "gname": "THIBAUD", "lat": 46.361712092150256, "nationality": "SUI", "spd": "22.88 kmh", "lon": 6.199065880411817, "valid": 1, "fname": "ROSSIER", "team": "U17", "cad": "71"}, {"hr": "", "pow": "", "bib": 301, "rank": 2, "IRM": "", "gname": "SYLVAIN", "lat": 46.36172025748658, "nationality": "SUI", "spd": "23.68 kmh", "lon": 6.1990719277270925, "valid": 1, "fname": "BRUNNER", "team": "U17", "cad": ""}, {"hr": "172", "pow": "96", "bib": 305, "rank": 3, "IRM": "", "gname": "HENRY", "lat": 46.361724580311694, "nationality": "GBR", "spd": "23.57 kmh", "lon": 6.199075129246944, "valid": 1, "fname": "LAWTON", "team": "U17", "cad": "71"}, {"hr": "", "pow": "", "bib": 303, "rank": 4, "IRM": "", "gname": "DAMIEN", "lat": 46.361725781096446, "nationality": "SUI", "spd": "23.77 kmh", "lon": 6.199076018558014, "valid": 1, "fname": "FORTIS", "team": "U17", "cad": ""}, {"hr": "180", "pow": "", "bib": 307, "rank": 5, "IRM": "", "gname": "Z\u00c9ON", "lat": 46.361727061933514, "nationality": "SUI", "spd": "22.87 kmh", "lon": 6.199076967156488, "valid": 1, "fname": "TAILLEFERT", "team": "U17", "cad": ""}, {"hr": "185", "pow": "105", "bib": 302, "rank": 6, "IRM": "", "gname": "GABRIELE", "lat": 46.361754359773585, "nationality": "SUI", "spd": "22.20 kmh", "lon": 6.199097184161476, "valid": 1, "fname": "CERATO", "team": "U17", "cad": "71"}, {"hr": "", "pow": "", "bib": 304, "rank": 7, "IRM": "", "gname": "MAXIME", "lat": 46.36175467998285, "nationality": "SUI", "spd": "23.75 kmh", "lon": 6.1990974213110945, "valid": 1, "fname": "JUILLERAT", "team": "U17", "cad": ""}], "no": 1}, {"distance": 376, "gap": "+0:51", "athletes": [{"hr": "", "pow": "", "bib": 401, "rank": 8, "IRM": "", "gname": "MARGOT", "lat": 46.36181251495717, "nationality": "SUI", "spd": "20.89 kmh", "lon": 6.2022969968405155, "valid": 1, "fname": "VESIN", "team": "W17", "cad": ""}], "no": 2}]}