{"timestamp": 29974, "groups": [{"distance": 0, "gap": "+0:00", "athletes": [{"hr": "", "pow": "", "bib": 301, "rank": 1, "IRM": "", "gname": "SYLVAIN", "lat": 46.361502597847924, "nationality": "SUI", "spd": "24.50 kmh", "lon": 6.198913012404177, "valid": 1, "fname": "BRUNNER", "team": "U17", "cad": ""}, {"hr": "173", "pow": "22", "bib": 306, "rank": 2, "IRM": "", "gname": "THIBAUD", "lat": 46.361505168177594, "nationality": "SUI", "spd": "23.29 kmh", "lon": 6.1989148849996445, "valid": 1, "fname": "ROSSIER", "team": "U17", "cad": "72"}, {"hr": "", "pow": "", "bib": 303, "rank": 3, "IRM": "", "gname": "DAMIEN", "lat": 46.36150886302649, "nationality": "SUI", "spd": "24.47 kmh", "lon": 6.198917576855629, "valid": 1, "fname": "FORTIS", "team": "U17", "cad": ""}, {"hr": "170", "pow": "14", "bib": 305, "rank": 4, "IRM": "", "gname": "HENRY", "lat": 46.3615168149839, "nationality": "GBR", "spd": "23.07 kmh", "lon": 6.198923370197856, "valid": 1, "fname": "LAWTON", "team": "U17", "cad": "72"}, {"hr": "179", "pow": "", "bib": 307, "rank": 5, "IRM": "", "gname": "Z\u00c9ON", "lat": 46.3615168149839, "nationality": "SUI", "spd": "23.64 kmh", "lon": 6.198923370197856, "valid": 1, "fname": "TAILLEFERT", "team": "U17", "cad": ""}, {"hr": "182", "pow": "22", "bib": 302, "rank": 6, "IRM": "", "gname": "GABRIELE", "lat": 46.361534726968785, "nationality": "SUI", "spd": "23.07 kmh", "lon": 6.198936419847518, "valid": 1, "fname": "CERATO", "team": "U17", "cad": "72"}, {"hr": "", "pow": "", "bib": 304, "rank": 7, "IRM": "", "gname": "MAXIME", "lat": 46.36154468699625, "nationality": "SUI", "spd": "23.64 kmh", "lon": 6.198943676154954, "valid": 1, "fname": "JUILLERAT", "team": "U17", "cad": ""}], "no": 1}, {"distance": 375, "gap": "+0:52", "athletes": [{"hr": "", "pow": "", "bib": 401, "rank": 8, "IRM": "", "gname": "MARGOT", "lat": 46.36195543748402, "nationality": "SUI", "spd": "24.46 kmh", "lon": 6.202012672239228, "valid": 1, "fname": "VESIN", "team": "W17", "cad": ""}], "no": 2}]}