{"timestamp": 29989, "groups": [{"distance": 0, "gap": "+0:00", "athletes": [{"hr": "", "pow": "", "bib": 301, "rank": 1, "IRM": "", "gname": "SYLVAIN", "lat": 46.36060440211166, "nationality": "SUI", "spd": "28.78 kmh", "lon": 6.198251570606928, "valid": 1, "fname": "BRUNNER", "team": "U17", "cad": ""}, {"hr": "", "pow": "", "bib": 303, "rank": 2, "IRM": "", "gname": "DAMIEN", "lat": 46.36062870159429, "nationality": "SUI", "spd": "29.14 kmh", "lon": 6.19826941022464, "valid": 1, "fname": "FORTIS", "team": "U17", "cad": ""}, {"hr": "169", "pow": "0", "bib": 302, "rank": 3, "IRM": "", "gname": "GABRIELE", "lat": 46.3606428697581, "nationality": "SUI", "spd": "26.30 kmh", "lon": 6.198279906986, "valid": 1, "fname": "CERATO", "team": "U17", "cad": "0"}, {"hr": "171", "pow": "", "bib": 307, "rank": 4, "IRM": "", "gname": "Z\u00c9ON", "lat": 46.360647512433246, "nationality": "SUI", "spd": "28.48 kmh", "lon": 6.198283346602717, "valid": 1, "fname": "TAILLEFERT", "team": "U17", "cad": ""}, {"hr": "163", "pow": "0", "bib": 305, "rank": 5, "IRM": "", "gname": "HENRY", "lat": 46.360675688668614, "nationality": "GBR", "spd": "26.80 kmh", "lon": 6.198304221517967, "valid": 1, "fname": "LAWTON", "team": "U17", "cad": "0"}, {"hr": "167", "pow": "19", "bib": 306, "rank": 6, "IRM": "", "gname": "THIBAUD", "lat": 46.36068461381135, "nationality": "SUI", "spd": "27.79 kmh", "lon": 6.1983108338845865, "valid": 0, "fname": "ROSSIER", "team": "U17", "cad": "0"}, {"hr": "", "pow": "", "bib": 304, "rank": 7, "IRM": "", "gname": "MAXIME", "lat": 46.36069225821612, "nationality": "SUI", "spd": "26.58 kmh", "lon": 6.198316497391422, "valid": 1, "fname": "JUILLERAT", "team": "U17", "cad": ""}], "no": 1}, {"distance": 387, "gap": "+0:56", "athletes": [{"hr": "", "pow": "", "bib": 401, "rank": 8, "IRM": "", "gname": "MARGOT", "lat": 46.36248646250616, "nationality": "SUI", "spd": "23.04 kmh", "lon": 6.20096248047346, "valid": 1, "fname": "VESIN", "team": "W17", "cad": ""}], "no": 2}]}