{"timestamp": 29982, "groups": [{"distance": 0, "gap": "+0:00", "athletes": [{"hr": "", "pow": "", "bib": 301, "rank": 1, "IRM": "", "gname": "SYLVAIN", "lat": 46.36104237995906, "nationality": "SUI", "spd": "26.46 kmh", "lon": 6.198575891934885, "valid": 1, "fname": "BRUNNER", "team": "U17", "cad": ""}, {"hr": "", "pow": "", "bib": 303, "rank": 2, "IRM": "", "gname": "DAMIEN", "lat": 46.36106135089026, "nationality": "SUI", "spd": "25.91 kmh", "lon": 6.198589946920436, "valid": 1, "fname": "FORTIS", "team": "U17", "cad": ""}, {"hr": "168", "pow": "64", "bib": 306, "rank": 3, "IRM": "", "gname": "THIBAUD", "lat": 46.36106999587157, "nationality": "SUI", "spd": "25.44 kmh", "lon": 6.198596351723978, "valid": 1, "fname": "ROSSIER", "team": "U17", "cad": "59"}, {"hr": "176", "pow": "", "bib": 307, "rank": 4, "IRM": "", "gname": "Z\u00c9ON", "lat": 46.361072797485875, "nationality": "SUI", "spd": "26.35 kmh", "lon": 6.198598427354756, "valid": 1, "fname": "TAILLEFERT", "team": "U17", "cad": ""}, {"hr": "175", "pow": "64", "bib": 302, "rank": 5, "IRM": "", "gname": "GABRIELE", "lat": 46.36107711997653, "nationality": "SUI", "spd": "24.83 kmh", "lon": 6.198601629756527, "valid": 1, "fname": "CERATO", "team": "U17", "cad": "59"}, {"hr": "168", "pow": "55", "bib": 305, "rank": 6, "IRM": "", "gname": "HENRY", "lat": 46.36108656541907, "nationality": "GBR", "spd": "24.70 kmh", "lon": 6.198608627597435, "valid": 1, "fname": "LAWTON", "team": "U17", "cad": "59"}, {"hr": "", "pow": "", "bib": 304, "rank": 7, "IRM": "", "gname": "MAXIME", "lat": 46.36110737741111, "nationality": "SUI", "spd": "25.51 kmh", "lon": 6.198624046568925, "valid": 1, "fname": "JUILLERAT", "team": "U17", "cad": ""}], "no": 1}, {"distance": 377, "gap": "+0:54", "athletes": [{"hr": "", "pow": "", "bib": 401, "rank": 8, "IRM": "", "gname": "MARGOT", "lat": 46.36224848840907, "nationality": "SUI", "spd": "24.73 kmh", "lon": 6.201432151173456, "valid": 1, "fname": "VESIN", "team": "W17", "cad": ""}], "no": 2}]}