{"timestamp": 29981, "groups": [{"distance": 0, "gap": "+0:00", "athletes": [{"hr": "", "pow": "", "bib": 301, "rank": 1, "IRM": "", "gname": "SYLVAIN", "lat": 46.36110273473596, "nationality": "SUI", "spd": "25.91 kmh", "lon": 6.198620606952208, "valid": 1, "fname": "BRUNNER", "team": "U17", "cad": ""}, {"hr": "", "pow": "", "bib": 303, "rank": 2, "IRM": "", "gname": "DAMIEN", "lat": 46.36111930428346, "nationality": "SUI", "spd": "25.85 kmh", "lon": 6.198632882825664, "valid": 1, "fname": "FORTIS", "team": "U17", "cad": ""}, {"hr": "169", "pow": "64", "bib": 306, "rank": 3, "IRM": "", "gname": "THIBAUD", "lat": 46.36112554788107, "nationality": "SUI", "spd": "25.21 kmh", "lon": 6.198637508517111, "valid": 1, "fname": "ROSSIER", "team": "U17", "cad": "78"}, {"hr": "177", "pow": "", "bib": 307, "rank": 4, "IRM": "", "gname": "Z\u00c9ON", "lat": 46.36113267198604, "nationality": "SUI", "spd": "25.78 kmh", "lon": 6.19864278654966, "valid": 1, "fname": "TAILLEFERT", "team": "U17", "cad": ""}, {"hr": "176", "pow": "64", "bib": 302, "rank": 5, "IRM": "", "gname": "GABRIELE", "lat": 46.361137554799555, "nationality": "SUI", "spd": "24.27 kmh", "lon": 6.198646404077587, "valid": 1, "fname": "CERATO", "team": "U17", "cad": "78"}, {"hr": "169", "pow": "55", "bib": 305, "rank": 6, "IRM": "", "gname": "HENRY", "lat": 46.361145639458, "nationality": "GBR", "spd": "23.97 kmh", "lon": 6.198652393754974, "valid": 1, "fname": "LAWTON", "team": "U17", "cad": "78"}, {"hr": "", "pow": "", "bib": 304, "rank": 7, "IRM": "", "gname": "MAXIME", "lat": 46.36116581108105, "nationality": "SUI", "spd": "24.96 kmh", "lon": 6.1986673382965725, "valid": 1, "fname": "JUILLERAT", "team": "U17", "cad": ""}], "no": 1}, {"distance": 377, "gap": "+0:53", "athletes": [{"hr": "", "pow": "", "bib": 401, "rank": 8, "IRM": "", "gname": "MARGOT", "lat": 46.36220853383863, "nationality": "SUI", "spd": "23.65 kmh", "lon": 6.201511006356844, "valid": 1, "fname": "VESIN", "team": "W17", "cad": ""}], "no": 2}]}