{"timestamp": 29986, "groups": [{"distance": 0, "gap": "+0:00", "athletes": [{"hr": "", "pow": "", "bib": 301, "rank": 1, "IRM": "", "gname": "SYLVAIN", "lat": 46.36079639822242, "nationality": "SUI", "spd": "27.66 kmh", "lon": 6.198393651552612, "valid": 1, "fname": "BRUNNER", "team": "U17", "cad": ""}, {"hr": "", "pow": "", "bib": 303, "rank": 2, "IRM": "", "gname": "DAMIEN", "lat": 46.36082305358145, "nationality": "SUI", "spd": "27.11 kmh", "lon": 6.198413399696868, "valid": 1, "fname": "FORTIS", "team": "U17", "cad": ""}, {"hr": "171", "pow": "30", "bib": 302, "rank": 3, "IRM": "", "gname": "GABRIELE", "lat": 46.36083570086892, "nationality": "SUI", "spd": "26.17 kmh", "lon": 6.198422769687236, "valid": 1, "fname": "CERATO", "team": "U17", "cad": "0"}, {"hr": "173", "pow": "", "bib": 307, "rank": 4, "IRM": "", "gname": "Z\u00c9ON", "lat": 46.360837461883634, "nationality": "SUI", "spd": "30.91 kmh", "lon": 6.198424074369438, "valid": 1, "fname": "TAILLEFERT", "team": "U17", "cad": ""}, {"hr": "167", "pow": "30", "bib": 306, "rank": 5, "IRM": "", "gname": "THIBAUD", "lat": 46.360842824973886, "nationality": "SUI", "spd": "25.91 kmh", "lon": 6.198428047719784, "valid": 1, "fname": "ROSSIER", "team": "U17", "cad": "84"}, {"hr": "166", "pow": "22", "bib": 305, "rank": 6, "IRM": "", "gname": "HENRY", "lat": 46.36085283073929, "nationality": "GBR", "spd": "26.10 kmh", "lon": 6.198435460686847, "valid": 1, "fname": "LAWTON", "team": "U17", "cad": "0"}, {"hr": "", "pow": "", "bib": 304, "rank": 7, "IRM": "", "gname": "MAXIME", "lat": 46.36086956037904, "nationality": "SUI", "spd": "26.62 kmh", "lon": 6.1984478551677755, "valid": 1, "fname": "JUILLERAT", "team": "U17", "cad": ""}], "no": 1}, {"distance": 382, "gap": "+0:55", "athletes": [{"hr": "", "pow": "", "bib": 401, "rank": 8, "IRM": "", "gname": "MARGOT", "lat": 46.36238445083695, "nationality": "SUI", "spd": "23.00 kmh", "lon": 6.20116381285658, "valid": 1, "fname": "VESIN", "team": "W17", "cad": ""}], "no": 2}]}