{"timestamp": 29997, "groups": [{"distance": 0, "gap": "+0:00", "athletes": [{"hr": "", "pow": "", "bib": 301, "rank": 1, "IRM": "", "gname": "SYLVAIN", "lat": 46.36048059841826, "nationality": "SUI", "spd": "28.42 kmh", "lon": 6.197611606326952, "valid": 1, "fname": "BRUNNER", "team": "U17", "cad": ""}, {"hr": "", "pow": "", "bib": 303, "rank": 2, "IRM": "", "gname": "DAMIEN", "lat": 46.360473784881975, "nationality": "SUI", "spd": "27.42 kmh", "lon": 6.197638860472097, "valid": 1, "fname": "FORTIS", "team": "U17", "cad": ""}, {"hr": "167", "pow": "122", "bib": 302, "rank": 3, "IRM": "", "gname": "GABRIELE", "lat": 46.36046782685697, "nationality": "SUI", "spd": "25.97 kmh", "lon": 6.197662692572111, "valid": 1, "fname": "CERATO", "team": "U17", "cad": "97"}, {"hr": "169", "pow": "", "bib": 307, "rank": 4, "IRM": "", "gname": "Z\u00c9ON", "lat": 46.36045850789478, "nationality": "SUI", "spd": "27.59 kmh", "lon": 6.197699968420851, "valid": 1, "fname": "TAILLEFERT", "team": "U17", "cad": ""}, {"hr": "166", "pow": "122", "bib": 306, "rank": 5, "IRM": "", "gname": "THIBAUD", "lat": 46.360452366545935, "nationality": "SUI", "spd": "26.86 kmh", "lon": 6.19772453381625, "valid": 1, "fname": "ROSSIER", "team": "U17", "cad": "97"}, {"hr": "160", "pow": "112", "bib": 305, "rank": 6, "IRM": "", "gname": "HENRY", "lat": 46.36043959498465, "nationality": "GBR", "spd": "26.67 kmh", "lon": 6.1977756200614085, "valid": 1, "fname": "LAWTON", "team": "U17", "cad": "97"}, {"hr": "", "pow": "", "bib": 304, "rank": 7, "IRM": "", "gname": "MAXIME", "lat": 46.36043919778298, "nationality": "SUI", "spd": "30.49 kmh", "lon": 6.197777208868076, "valid": 1, "fname": "JUILLERAT", "team": "U17", "cad": ""}], "no": 1}, {"distance": 405, "gap": "+0:57", "athletes": [{"hr": "", "pow": "", "bib": 401, "rank": 8, "IRM": "", "gname": "MARGOT", "lat": 46.362739339988416, "nationality": "SUI", "spd": "22.91 kmh", "lon": 6.200462397722454, "valid": 1, "fname": "VESIN", "team": "W17", "cad": ""}], "no": 2}]}