{"timestamp": 29993, "groups": [{"distance": 0, "gap": "+0:00", "athletes": [{"hr": "", "pow": "", "bib": 301, "rank": 1, "IRM": "", "gname": "SYLVAIN", "lat": 46.360387398811646, "nationality": "SUI", "spd": "33.72 kmh", "lon": 6.1979659215616305, "valid": 1, "fname": "BRUNNER", "team": "U17", "cad": ""}, {"hr": "", "pow": "", "bib": 303, "rank": 2, "IRM": "", "gname": "DAMIEN", "lat": 46.360380112023364, "nationality": "SUI", "spd": "31.69 kmh", "lon": 6.198023709481296, "valid": 1, "fname": "FORTIS", "team": "U17", "cad": ""}, {"hr": "166", "pow": "0", "bib": 302, "rank": 3, "IRM": "", "gname": "GABRIELE", "lat": 46.36038761427109, "nationality": "SUI", "spd": "27.57 kmh", "lon": 6.198064228542184, "valid": 1, "fname": "CERATO", "team": "U17", "cad": "0"}, {"hr": "169", "pow": "", "bib": 307, "rank": 4, "IRM": "", "gname": "Z\u00c9ON", "lat": 46.360397885012894, "nationality": "SUI", "spd": "28.32 kmh", "lon": 6.1980847700257815, "valid": 1, "fname": "TAILLEFERT", "team": "U17", "cad": ""}, {"hr": "166", "pow": "0", "bib": 306, "rank": 5, "IRM": "", "gname": "THIBAUD", "lat": 46.36040493365173, "nationality": "SUI", "spd": "27.32 kmh", "lon": 6.198096813747244, "valid": 1, "fname": "ROSSIER", "team": "U17", "cad": "0"}, {"hr": "159", "pow": "0", "bib": 305, "rank": 6, "IRM": "", "gname": "HENRY", "lat": 46.36044528645651, "nationality": "GBR", "spd": "26.70 kmh", "lon": 6.198135924692619, "valid": 1, "fname": "LAWTON", "team": "U17", "cad": "0"}, {"hr": "", "pow": "", "bib": 304, "rank": 7, "IRM": "", "gname": "MAXIME", "lat": 46.360462644527985, "nationality": "SUI", "spd": "25.39 kmh", "lon": 6.198148540610544, "valid": 1, "fname": "JUILLERAT", "team": "U17", "cad": ""}], "no": 1}, {"distance": 401, "gap": "+0:57", "athletes": [{"hr": "", "pow": "", "bib": 401, "rank": 8, "IRM": "", "gname": "MARGOT", "lat": 46.36260511214027, "nationality": "SUI", "spd": "20.27 kmh", "lon": 6.20072624455916, "valid": 1, "fname": "VESIN", "team": "W17", "cad": ""}], "no": 2}]}