{"timestamp": 29990, "groups": [{"distance": 0, "gap": "+0:00", "athletes": [{"hr": "", "pow": "", "bib": 301, "rank": 1, "IRM": "", "gname": "SYLVAIN", "lat": 46.36053874681355, "nationality": "SUI", "spd": "29.22 kmh", "lon": 6.198203852065519, "valid": 1, "fname": "BRUNNER", "team": "U17", "cad": ""}, {"hr": "", "pow": "", "bib": 303, "rank": 2, "IRM": "", "gname": "DAMIEN", "lat": 46.36056213199317, "nationality": "SUI", "spd": "29.72 kmh", "lon": 6.1982208485105, "valid": 1, "fname": "FORTIS", "team": "U17", "cad": ""}, {"hr": "168", "pow": "0", "bib": 302, "rank": 3, "IRM": "", "gname": "GABRIELE", "lat": 46.36057868645022, "nationality": "SUI", "spd": "26.77 kmh", "lon": 6.198232880358151, "valid": 1, "fname": "CERATO", "team": "U17", "cad": "0"}, {"hr": "170", "pow": "", "bib": 307, "rank": 4, "IRM": "", "gname": "Z\u00c9ON", "lat": 46.360581338377806, "nationality": "SUI", "spd": "29.20 kmh", "lon": 6.1982348077900555, "valid": 1, "fname": "TAILLEFERT", "team": "U17", "cad": ""}, {"hr": "167", "pow": "0", "bib": 306, "rank": 5, "IRM": "", "gname": "THIBAUD", "lat": 46.360584472474045, "nationality": "SUI", "spd": "33.92 kmh", "lon": 6.198237085664125, "valid": 1, "fname": "ROSSIER", "team": "U17", "cad": "0"}, {"hr": "162", "pow": "0", "bib": 305, "rank": 6, "IRM": "", "gname": "HENRY", "lat": 46.360612438255856, "nationality": "GBR", "spd": "27.37 kmh", "lon": 6.198257411309671, "valid": 1, "fname": "LAWTON", "team": "U17", "cad": "0"}, {"hr": "", "pow": "", "bib": 304, "rank": 7, "IRM": "", "gname": "MAXIME", "lat": 46.36063262385433, "nationality": "SUI", "spd": "26.68 kmh", "lon": 6.198272316107728, "valid": 1, "fname": "JUILLERAT", "team": "U17", "cad": ""}], "no": 1}, {"distance": 390, "gap": "+0:57", "athletes": [{"hr": "", "pow": "", "bib": 401, "rank": 8, "IRM": "", "gname": "MARGOT", "lat": 46.36251600674159, "nationality": "SUI", "spd": "21.98 kmh", "lon": 6.2009040206960515, "valid": 1, "fname": "VESIN", "team": "W17", "cad": ""}], "no": 2}]}