{"timestamp": 29991, "groups": [{"distance": 0, "gap": "+0:00", "athletes": [{"hr": "", "pow": "", "bib": 301, "rank": 1, "IRM": "", "gname": "SYLVAIN", "lat": 46.36047405585275, "nationality": "SUI", "spd": "29.38 kmh", "lon": 6.198156834408438, "valid": 1, "fname": "BRUNNER", "team": "U17", "cad": ""}, {"hr": "", "pow": "", "bib": 303, "rank": 2, "IRM": "", "gname": "DAMIEN", "lat": 46.36049888753832, "nationality": "SUI", "spd": "29.40 kmh", "lon": 6.198174882179914, "valid": 1, "fname": "FORTIS", "team": "U17", "cad": ""}, {"hr": "167", "pow": "0", "bib": 302, "rank": 3, "IRM": "", "gname": "GABRIELE", "lat": 46.36051560271826, "nationality": "SUI", "spd": "27.83 kmh", "lon": 6.198187030841619, "valid": 1, "fname": "CERATO", "team": "U17", "cad": "0"}, {"hr": "170", "pow": "", "bib": 307, "rank": 4, "IRM": "", "gname": "Z\u00c9ON", "lat": 46.36051897789882, "nationality": "SUI", "spd": "28.97 kmh", "lon": 6.198189483936771, "valid": 1, "fname": "TAILLEFERT", "team": "U17", "cad": ""}, {"hr": "166", "pow": "0", "bib": 306, "rank": 5, "IRM": "", "gname": "THIBAUD", "lat": 46.36052211199506, "nationality": "SUI", "spd": "33.89 kmh", "lon": 6.198191761810841, "valid": 1, "fname": "ROSSIER", "team": "U17", "cad": "0"}, {"hr": "161", "pow": "0", "bib": 305, "rank": 6, "IRM": "", "gname": "HENRY", "lat": 46.36055264934301, "nationality": "GBR", "spd": "28.00 kmh", "lon": 6.198213956481264, "valid": 1, "fname": "LAWTON", "team": "U17", "cad": "0"}, {"hr": "", "pow": "", "bib": 304, "rank": 7, "IRM": "", "gname": "MAXIME", "lat": 46.360572739703514, "nationality": "SUI", "spd": "26.71 kmh", "lon": 6.198228558238121, "valid": 1, "fname": "JUILLERAT", "team": "U17", "cad": ""}], "no": 1}, {"distance": 392, "gap": "+0:56", "athletes": [{"hr": "", "pow": "", "bib": 401, "rank": 8, "IRM": "", "gname": "MARGOT", "lat": 46.36254570854115, "nationality": "SUI", "spd": "21.00 kmh", "lon": 6.200844761983754, "valid": 1, "fname": "VESIN", "team": "W17", "cad": ""}], "no": 2}]}