{"timestamp": 29992, "groups": [{"distance": 0, "gap": "+0:00", "athletes": [{"hr": "", "pow": "", "bib": 301, "rank": 1, "IRM": "", "gname": "SYLVAIN", "lat": 46.360404799917845, "nationality": "SUI", "spd": "30.32 kmh", "lon": 6.198096639893198, "valid": 1, "fname": "BRUNNER", "team": "U17", "cad": ""}, {"hr": "", "pow": "", "bib": 303, "rank": 2, "IRM": "", "gname": "DAMIEN", "lat": 46.36043741103519, "nationality": "SUI", "spd": "28.57 kmh", "lon": 6.198130200803931, "valid": 1, "fname": "FORTIS", "team": "U17", "cad": ""}, {"hr": "167", "pow": "0", "bib": 302, "rank": 3, "IRM": "", "gname": "GABRIELE", "lat": 46.36045235826341, "nationality": "SUI", "spd": "27.97 kmh", "lon": 6.198141064511033, "valid": 1, "fname": "CERATO", "team": "U17", "cad": "0"}, {"hr": "169", "pow": "", "bib": 307, "rank": 4, "IRM": "", "gname": "Z\u00c9ON", "lat": 46.360460876576255, "nationality": "SUI", "spd": "27.89 kmh", "lon": 6.1981472556559405, "valid": 1, "fname": "TAILLEFERT", "team": "U17", "cad": ""}, {"hr": "166", "pow": "0", "bib": 306, "rank": 5, "IRM": "", "gname": "THIBAUD", "lat": 46.360464492841146, "nationality": "SUI", "spd": "32.91 kmh", "lon": 6.1981498839721745, "valid": 1, "fname": "ROSSIER", "team": "U17", "cad": "0"}, {"hr": "160", "pow": "0", "bib": 305, "rank": 6, "IRM": "", "gname": "HENRY", "lat": 46.36049880717688, "nationality": "GBR", "spd": "28.07 kmh", "lon": 6.198174823772886, "valid": 1, "fname": "LAWTON", "team": "U17", "cad": "0"}, {"hr": "", "pow": "", "bib": 304, "rank": 7, "IRM": "", "gname": "MAXIME", "lat": 46.360516004525465, "nationality": "SUI", "spd": "26.36 kmh", "lon": 6.198187322876756, "valid": 1, "fname": "JUILLERAT", "team": "U17", "cad": ""}], "no": 1}, {"distance": 396, "gap": "+0:56", "athletes": [{"hr": "", "pow": "", "bib": 401, "rank": 8, "IRM": "", "gname": "MARGOT", "lat": 46.3625741969457, "nationality": "SUI", "spd": "19.92 kmh", "lon": 6.200787924142475, "valid": 1, "fname": "VESIN", "team": "W17", "cad": ""}], "no": 2}]}